{"total": 166, "businesses": [{"rating": 5.0, "review_count": 21, "name": "LSTC Refectory", "url": "https://www.yelp.com/biz/lstc-refectory-chicago-2?adjust_creative=_xGZBQTFH5RSnMk3I7VtQQ&utm_campaign=yelp_api_v3&utm_medium=api_v3_business_search&utm_source=_xGZBQTFH5RSnMk3I7VtQQ", "price": "$", "coordinates": {"latitude": 41.795710987436, "longitude": -87.5984633193176}, "phone": "+17732560702", "image_url": "https://s3-media4.fl.yelpcdn.com/bphoto/R4HZUri7Gi89UWM03EEtUA/o.jpg", "location": {"city": "Chicago", "country": "US", "address2": "", "address3": "", "state": "IL", "address1": "1100 E 55th St", "zip_code": "60615"}, "id": "lstc-refectory-chicago-2", "categories": [{"alias": "cafeteria", "title": "Cafeteria"}]}]}
{"total": 166, "businesses": [{"rating": 4.0, "review_count": 286, "name": "The Sit Down Cafe & Sushi Bar", "url": "https://www.yelp.com/biz/the-sit-down-cafe-and-sushi-bar-chicago?adjust_creative=_xGZBQTFH5RSnMk3I7VtQQ&utm_campaign=yelp_api_v3&utm_medium=api_v3_business_search&utm_source=_xGZBQTFH5RSnMk3I7VtQQ", "price": "$$", "coordinates": {"latitude": 41.7996180687972, "longitude": -87.594427254948}, "phone": "+17733243700", "image_url": "https://s3-media3.fl.yelpcdn.com/bphoto/zEU2rpVK3lI-yyabHkISFg/o.jpg", "location": {"city": "Chicago", "address1": "1312 E 53rd St", "address2": "", "address3": null, "state": "IL", "country": "US", "zip_code": "60615"}, "id": "the-sit-down-cafe-and-sushi-bar-chicago", "categories": [{"alias": "sushi", "title": "Sushi Bars"}, {"alias": "gluten_free", "title": "Gluten-Free"}, {"alias": "pizza", "title": "Pizza"}]}]}
{"total": 166, "businesses": [{"rating": 4.5, "review_count": 17, "name": "Windy's", "url": "https://www.yelp.com/biz/windys-chicago?adjust_creative=_xGZBQTFH5RSnMk3I7VtQQ&utm_campaign=yelp_api_v3&utm_medium=api_v3_business_search&utm_source=_xGZBQTFH5RSnMk3I7VtQQ", "price": "$", "coordinates": {"latitude": 41.7992751, "longitude": -87.6007654}, "phone": "+17732886505", "image_url": "https://s3-media4.fl.yelpcdn.com/bphoto/b4NleCtE6MQijio1tLUOhg/o.jpg", "location": {"city": "Chicago", "country": "US", "address2": "", "address3": "", "state": "IL", "address1": "1013 E 53rd St", "zip_code": "60615"}, "id": "windys-chicago", "categories": [{"alias": "delis", "title": "Delis"}, {"alias": "sandwiches", "title": "Sandwiches"}]}]}
{"total": 166, "businesses": [{"rating": 4.0, "review_count": 99, "name": "Nile Restaurant", "url": "https://www.yelp.com/biz/nile-restaurant-chicago?adjust_creative=_xGZBQTFH5RSnMk3I7VtQQ&utm_campaign=yelp_api_v3&utm_medium=api_v3_business_search&utm_source=_xGZBQTFH5RSnMk3I7VtQQ", "price": "$$", "coordinates": {"latitude": 41.795194271094, "longitude": -87.5970609234034}, "phone": "+17733249499", "image_url": "https://s3-media4.fl.yelpcdn.com/bphoto/7zxjccsuhGbNG6ejiQn2UA/o.jpg", "location": {"city": "Chicago", "address1": "1162 E 55th St", "address2": "", "address3": "", "state": "IL", "country": "US", "zip_code": "60615"}, "id": "nile-restaurant-chicago", "categories": [{"alias": "mideastern", "title": "Middle Eastern"}]}]}
{"total": 166, "businesses": [{"rating": 4.0, "review_count": 158, "name": "Zaleski & Horvath MarketCafe", "url": "https://www.yelp.com/biz/zaleski-and-horvath-marketcafe-chicago-3?adjust_creative=_xGZBQTFH5RSnMk3I7VtQQ&utm_campaign=yelp_api_v3&utm_medium=api_v3_business_search&utm_source=_xGZBQTFH5RSnMk3I7VtQQ", "price": "$$", "coordinates": {"latitude": 41.7913330427955, "longitude": -87.5938536622402}, "phone": "+17735387372", "image_url": "https://s3-media2.fl.yelpcdn.com/bphoto/Csojp0dbF1CxvM6N_bFUOA/o.jpg", "location": {"city": "Chicago", "country": "US", "address2": "", "address3": "", "state": "IL", "address1": "1323 E 57th St", "zip_code": "60637"}, "id": "zaleski-and-horvath-marketcafe-chicago-3", "categories": [{"alias": "coffee", "title": "Coffee & Tea"}, {"alias": "gourmet", "title": "Specialty Food"}]}]}
{"total": 166, "businesses": [{"rating": 3.5, "review_count": 126, "name": "Woodlawn Tap", "url": "https://www.yelp.com/biz/woodlawn-tap-chicago?adjust_creative=_xGZBQTFH5RSnMk3I7VtQQ&utm_campaign=yelp_api_v3&utm_medium=api_v3_business_search&utm_source=_xGZBQTFH5RSnMk3I7VtQQ", "price": "$", "coordinates": {"latitude": 41.7952007039879, "longitude": -87.5968811334164}, "phone": "+17736435516", "image_url": "https://s3-media2.fl.yelpcdn.com/bphoto/CkPtHLnxbBJ7yqCVr2Zj1Q/o.jpg", "location": {"city": "Chicago", "country": "US", "address2": "", "address3": "", "state": "IL", "address1": "1172 E 55th St", "zip_code": "60615"}, "id": "woodlawn-tap-chicago", "categories": [{"alias": "divebars", "title": "Dive Bars"}, {"alias": "tradamerican", "title": "American (Traditional)"}, {"alias": "pubs", "title": "Pubs"}]}]}
{"total": 166, "businesses": [{"rating": 3.5, "review_count": 206, "name": "Harold's Chicken Shack", "url": "https://www.yelp.com/biz/harolds-chicken-shack-chicago-29?adjust_creative=_xGZBQTFH5RSnMk3I7VtQQ&utm_campaign=yelp_api_v3&utm_medium=api_v3_business_search&utm_source=_xGZBQTFH5RSnMk3I7VtQQ", "price": "$", "coordinates": {"latitude": 41.7998199, "longitude": -87.5962}, "phone": "+17737529260", "image_url": "https://s3-media1.fl.yelpcdn.com/bphoto/GpsmahKCN2Ne_KbS4n8Z2g/o.jpg", "location": {"city": "Chicago", "country": "US", "address2": null, "address3": "", "state": "IL", "address1": "1208 E 53rd St", "zip_code": "60615"}, "id": "harolds-chicken-shack-chicago-29", "categories": [{"alias": "tradamerican", "title": "American (Traditional)"}]}]}
{"total": 166, "businesses": [{"rating": 3.5, "review_count": 628, "name": "Medici On 57th", "url": "https://www.yelp.com/biz/medici-on-57th-chicago?adjust_creative=_xGZBQTFH5RSnMk3I7VtQQ&utm_campaign=yelp_api_v3&utm_medium=api_v3_business_search&utm_source=_xGZBQTFH5RSnMk3I7VtQQ", "price": "$$", "coordinates": {"latitude": 41.7911949157715, "longitude": -87.59375}, "phone": "+17736677394", "image_url": "https://s3-media2.fl.yelpcdn.com/bphoto/2lOh9qYdv5t6H5NCphEoLw/o.jpg", "location": {"city": "Chicago", "country": "US", "address2": "", "address3": "", "state": "IL", "address1": "1327 E 57th St", "zip_code": "60637"}, "id": "medici-on-57th-chicago", "categories": [{"alias": "bakeries", "title": "Bakeries"}, {"alias": "delis", "title": "Delis"}, {"alias": "sandwiches", "title": "Sandwiches"}]}]}
{"total": 166, "businesses": [{"rating": 3.5, "review_count": 235, "name": "Cedars Mediterranean Kitchen", "url": "https://www.yelp.com/biz/cedars-mediterranean-kitchen-chicago?adjust_creative=_xGZBQTFH5RSnMk3I7VtQQ&utm_campaign=yelp_api_v3&utm_medium=api_v3_business_search&utm_source=_xGZBQTFH5RSnMk3I7VtQQ", "price": "$$", "coordinates": {"latitude": 41.7999084410129, "longitude": -87.5962261272235}, "phone": "+17733246227", "image_url": "https://s3-media1.fl.yelpcdn.com/bphoto/LuJViNOZAgAwBPcWk7yDfg/o.jpg", "location": {"city": "Chicago", "address1": "1206 E 53rd St", "address2": "", "address3": "", "state": "IL", "country": "US", "zip_code": "60615"}, "id": "cedars-mediterranean-kitchen-chicago", "categories": [{"alias": "mideastern", "title": "Middle Eastern"}, {"alias": "turkish", "title": "Turkish"}, {"alias": "mediterranean", "title": "Mediterranean"}]}]}
{"total": 166, "businesses": [{"rating": 5.0, "review_count": 42, "name": "Peter McCarthy Electric", "url": "https://www.yelp.com/biz/peter-mccarthy-electric-chicago-3?adjust_creative=_xGZBQTFH5RSnMk3I7VtQQ&utm_campaign=yelp_api_v3&utm_medium=api_v3_business_search&utm_source=_xGZBQTFH5RSnMk3I7VtQQ", "coordinates": {"latitude": 41.799256, "longitude": -87.585114}, "phone": "+17738423649", "image_url": "https://s3-media1.fl.yelpcdn.com/bphoto/CudQXJY5AzPqckk9pnJ7FQ/o.jpg", "location": {"city": "Chicago", "address1": "5307 S Cornell Ave", "address2": null, "address3": "", "state": "IL", "country": "US", "zip_code": "60615"}, "id": "peter-mccarthy-electric-chicago-3", "categories": [{"alias": "electricians", "title": "Electricians"}]}]}
{"total": 166, "businesses": [{"rating": 4.5, "review_count": 211, "name": "Hyde Park Produce", "url": "https://www.yelp.com/biz/hyde-park-produce-chicago?adjust_creative=_xGZBQTFH5RSnMk3I7VtQQ&utm_campaign=yelp_api_v3&utm_medium=api_v3_business_search&utm_source=_xGZBQTFH5RSnMk3I7VtQQ", "price": "$", "coordinates": {"latitude": 41.7998676162039, "longitude": -87.5954072695776}, "phone": "+17733247100", "image_url": "https://s3-media4.fl.yelpcdn.com/bphoto/Rq9yDTR6FTX6WdBjZWMroQ/o.jpg", "location": {"city": "Chicago", "address1": "1226 E 53rd St", "address2": "", "address3": "", "state": "IL", "country": "US", "zip_code": "60615"}, "id": "hyde-park-produce-chicago", "categories": [{"alias": "markets", "title": "Fruits & Veggies"}, {"alias": "grocery", "title": "Grocery"}]}]}
{"total": 166, "businesses": [{"rating": 4.0, "review_count": 66, "name": "Bergstein's NY Delicatessen - Hyde Park", "url": "https://www.yelp.com/biz/bergsteins-ny-delicatessen-hyde-park-chicago?adjust_creative=_xGZBQTFH5RSnMk3I7VtQQ&utm_campaign=yelp_api_v3&utm_medium=api_v3_business_search&utm_source=_xGZBQTFH5RSnMk3I7VtQQ", "price": "$", "coordinates": {"latitude": 41.795196328376, "longitude": -87.5969780030329}, "phone": "+17738910429", "image_url": "https://s3-media4.fl.yelpcdn.com/bphoto/EIYpgtr135tC3h9aXeLnwQ/o.jpg", "location": {"city": "Chicago", "country": "US", "address2": "", "address3": "", "state": "IL", "address1": "1164 E 55th St", "zip_code": "60615"}, "id": "bergsteins-ny-delicatessen-hyde-park-chicago", "categories": [{"alias": "delis", "title": "Delis"}, {"alias": "bagels", "title": "Bagels"}, {"alias": "sandwiches", "title": "Sandwiches"}]}]}
{"total": 166, "businesses": [{"rating": 3.5, "review_count": 55, "name": "Pockets", "url": "https://www.yelp.com/biz/pockets-chicago-27?adjust_creative=_xGZBQTFH5RSnMk3I7VtQQ&utm_campaign=yelp_api_v3&utm_medium=api_v3_business_search&utm_source=_xGZBQTFH5RSnMk3I7VtQQ", "price": "$", "coordinates": {"latitude": 41.799368046201, "longitude": -87.594687275307}, "phone": "+17736671313", "image_url": "https://s3-media3.fl.yelpcdn.com/bphoto/tlWNztTZatZ5SlndQ1TjRg/o.jpg", "location": {"city": "Chicago", "country": "US", "address2": "", "address3": "", "state": "IL", "address1": "1309 E 53rd St", "zip_code": "60615"}, "id": "pockets-chicago-27", "categories": [{"alias": "sandwiches", "title": "Sandwiches"}]}]}
{"total": 166, "businesses": [{"rating": 4.5, "review_count": 35, "name": "Fabiana's Bakery", "url": "https://www.yelp.com/biz/fabianas-bakery-chicago?adjust_creative=_xGZBQTFH5RSnMk3I7VtQQ&utm_campaign=yelp_api_v3&utm_medium=api_v3_business_search&utm_source=_xGZBQTFH5RSnMk3I7VtQQ", "price": "$$", "coordinates": {"latitude": 41.7914851, "longitude": -87.5980573}, "phone": "+17736589842", "image_url": "https://s3-media4.fl.yelpcdn.com/bphoto/UKg2YC-VY2FwlwpD_yQN_g/o.jpg", "location": {"city": "Chicago", "country": "US", "address2": "", "address3": "", "state": "IL", "address1": "5655 S University Ave", "zip_code": "60637"}, "id": "fabianas-bakery-chicago", "categories": [{"alias": "bakeries", "title": "Bakeries"}]}]}
{"total": 166, "businesses": [{"rating": 3.5, "review_count": 239, "name": "Noodles Etc", "url": "https://www.yelp.com/biz/noodles-etc-chicago-2?adjust_creative=_xGZBQTFH5RSnMk3I7VtQQ&utm_campaign=yelp_api_v3&utm_medium=api_v3_business_search&utm_source=_xGZBQTFH5RSnMk3I7VtQQ", "price": "$", "coordinates": {"latitude": 41.791379093426, "longitude": -87.593389399445}, "phone": "+17736842801", "image_url": "https://s3-media4.fl.yelpcdn.com/bphoto/QeTDB1QMZcYeUzlus6wJCA/o.jpg", "location": {"city": "Chicago", "country": "US", "address2": "", "address3": "", "state": "IL", "address1": "1333 E 57th St", "zip_code": "60637"}, "id": "noodles-etc-chicago-2", "categories": [{"alias": "noodles", "title": "Noodles"}]}]}
{"total": 166, "businesses": [{"rating": 4.0, "review_count": 15, "name": "Shark's Fish", "url": "https://www.yelp.com/biz/sharks-fish-chicago?adjust_creative=_xGZBQTFH5RSnMk3I7VtQQ&utm_campaign=yelp_api_v3&utm_medium=api_v3_business_search&utm_source=_xGZBQTFH5RSnMk3I7VtQQ", "price": "$", "coordinates": {"latitude": 41.8025731960903, "longitude": -87.6071408753917}, "phone": "+17735384780", "image_url": "https://s3-media1.fl.yelpcdn.com/bphoto/TSCay3ZC7UVxGcF58iN-mA/o.jpg", "location": {"city": "Chicago", "country": "US", "address2": "", "address3": "", "state": "IL", "address1": "5048 S Cottage Grove Ave", "zip_code": "60615"}, "id": "sharks-fish-chicago", "categories": [{"alias": "seafood", "title": "Seafood"}]}]}
{"total": 166, "businesses": [{"rating": 3.0, "review_count": 132, "name": "Yusho", "url": "https://www.yelp.com/biz/yusho-chicago-4?adjust_creative=_xGZBQTFH5RSnMk3I7VtQQ&utm_campaign=yelp_api_v3&utm_medium=api_v3_business_search&utm_source=_xGZBQTFH5RSnMk3I7VtQQ", "price": "$$", "coordinates": {"latitude": 41.7993423510138, "longitude": -87.5948768714022}, "phone": "+17736431652", "image_url": "https://s3-media1.fl.yelpcdn.com/bphoto/eb232T0GGKA-pU9F5FwDwg/o.jpg", "location": {"city": "Chicago", "address1": "1301 E 53rd St", "address2": "", "address3": "", "state": "IL", "country": "US", "zip_code": "60615"}, "id": "yusho-chicago-4", "categories": [{"alias": "ramen", "title": "Ramen"}]}]}
{"total": 166, "businesses": [{"rating": 4.5, "review_count": 8, "name": "Ex Libris", "url": "https://www.yelp.com/biz/ex-libris-chicago?adjust_creative=_xGZBQTFH5RSnMk3I7VtQQ&utm_campaign=yelp_api_v3&utm_medium=api_v3_business_search&utm_source=_xGZBQTFH5RSnMk3I7VtQQ", "price": "$", "coordinates": {"latitude": 41.7915141, "longitude": -87.5997908}, "image_url": "https://s3-media2.fl.yelpcdn.com/bphoto/iSXqBpkjBshasTTo4Bmzzg/o.jpg", "location": {"city": "Chicago", "address1": "The Joseph Regenstein Library", "address2": "1100 E 57th St", "address3": "", "state": "IL", "country": "US", "zip_code": "60637"}, "id": "ex-libris-chicago", "categories": [{"alias": "coffee", "title": "Coffee & Tea"}]}]}
{"total": 166, "businesses": [{"rating": 4.5, "review_count": 63, "name": "57th Street Books", "url": "https://www.yelp.com/biz/57th-street-books-chicago?adjust_creative=_xGZBQTFH5RSnMk3I7VtQQ&utm_campaign=yelp_api_v3&utm_medium=api_v3_business_search&utm_source=_xGZBQTFH5RSnMk3I7VtQQ", "price": "$$", "coordinates": {"latitude": 41.791351368171, "longitude": -87.5946687644508}, "phone": "+17736841300", "image_url": "https://s3-media4.fl.yelpcdn.com/bphoto/wXjHTP6XGTyAiUJqMGHRZg/o.jpg", "location": {"city": "Chicago", "country": "US", "address2": "", "address3": "", "state": "IL", "address1": "1301 E 57th St", "zip_code": "60637"}, "id": "57th-street-books-chicago", "categories": [{"alias": "bookstores", "title": "Bookstores"}]}]}
{"total": 166, "businesses": [{"rating": 4.5, "review_count": 19, "name": "Gemini Carpet Cleaning", "url": "https://www.yelp.com/biz/gemini-carpet-cleaning-chicago-3?adjust_creative=_xGZBQTFH5RSnMk3I7VtQQ&utm_campaign=yelp_api_v3&utm_medium=api_v3_business_search&utm_source=_xGZBQTFH5RSnMk3I7VtQQ", "coordinates": {"latitude": 41.79771, "longitude": -87.6008}, "phone": "+17737063460", "image_url": "https://s3-media1.fl.yelpcdn.com/bphoto/WmKPXB96QcUlLr_xp8KF7g/o.jpg", "location": {"city": "Chicago", "country": "US", "address2": "", "address3": "", "state": "IL", "address1": "5401 S Ellis Ave", "zip_code": "60615"}, "id": "gemini-carpet-cleaning-chicago-3", "categories": [{"alias": "homecleaning", "title": "Home Cleaning"}, {"alias": "carpet_cleaning", "title": "Carpet Cleaning"}]}]}
{"total": 166, "businesses": [{"rating": 3.5, "review_count": 39, "name": "Starbucks", "url": "https://www.yelp.com/biz/starbucks-chicago-122?adjust_creative=_xGZBQTFH5RSnMk3I7VtQQ&utm_campaign=yelp_api_v3&utm_medium=api_v3_business_search&utm_source=_xGZBQTFH5RSnMk3I7VtQQ", "price": "$", "coordinates": {"latitude": 41.7950800806284, "longitude": -87.5972228497267}, "phone": "+17732561930", "image_url": "https://s3-media4.fl.yelpcdn.com/bphoto/YGDdUiQapzEi9ZgNpa76Kg/o.jpg", "location": {"city": "Chicago", "country": "US", "address2": "", "address3": "", "state": "IL", "address1": "1174 E 55th St", "zip_code": "60615"}, "id": "starbucks-chicago-122", "categories": [{"alias": "coffee", "title": "Coffee & Tea"}]}]}
{"total": 166, "businesses": [{"rating": 4.5, "review_count": 44, "name": "Smart Museum of Art", "url": "https://www.yelp.com/biz/smart-museum-of-art-chicago?adjust_creative=_xGZBQTFH5RSnMk3I7VtQQ&utm_campaign=yelp_api_v3&utm_medium=api_v3_business_search&utm_source=_xGZBQTFH5RSnMk3I7VtQQ", "coordinates": {"latitude": 41.7947272, "longitude": -87.5998949}, "phone": "+17737020200", "image_url": "https://s3-media3.fl.yelpcdn.com/bphoto/r9yeU4ZrCnnUWO2UNLLv9g/o.jpg", "location": {"city": "Chicago", "address1": "5550 S Greenwood Ave", "address2": null, "address3": "", "state": "IL", "country": "US", "zip_code": "60637"}, "id": "smart-museum-of-art-chicago", "categories": [{"alias": "artmuseums", "title": "Art Museums"}]}]}
{"total": 166, "businesses": [{"rating": 4.0, "review_count": 74, "name": "Parker's, Holistic Pet Market", "url": "https://www.yelp.com/biz/parkers-holistic-pet-market-chicago-2?adjust_creative=_xGZBQTFH5RSnMk3I7VtQQ&utm_campaign=yelp_api_v3&utm_medium=api_v3_business_search&utm_source=_xGZBQTFH5RSnMk3I7VtQQ", "coordinates": {"latitude": 41.7953236, "longitude": -87.5931823}, "phone": "+17736437387", "image_url": "https://s3-media1.fl.yelpcdn.com/bphoto/F3VbaQADHn1rsWaLzVYL7A/o.jpg", "location": {"city": "Chicago", "address1": "1342 E 55th St", "address2": "", "address3": "", "state": "IL", "country": "US", "zip_code": "60615"}, "id": "parkers-holistic-pet-market-chicago-2", "categories": [{"alias": "petstore", "title": "Pet Stores"}, {"alias": "groomer", "title": "Pet Groomers"}]}]}
{"total": 166, "businesses": [{"rating": 3.5, "review_count": 22, "name": "Quadrangle Club", "url": "https://www.yelp.com/biz/quadrangle-club-chicago?adjust_creative=_xGZBQTFH5RSnMk3I7VtQQ&utm_campaign=yelp_api_v3&utm_medium=api_v3_business_search&utm_source=_xGZBQTFH5RSnMk3I7VtQQ", "price": "$$", "coordinates": {"latitude": 41.7913988, "longitude": -87.5976079}, "phone": "+17737027221", "image_url": "https://s3-media4.fl.yelpcdn.com/bphoto/R8jkV-OAMnR7VtGIe81_vQ/o.jpg", "location": {"city": "Chicago", "address1": "1155 E 57th St", "address2": "", "address3": "", "state": "IL", "country": "US", "zip_code": "60637"}, "id": "quadrangle-club-chicago", "categories": [{"alias": "venues", "title": "Venues & Event Spaces"}, {"alias": "tradamerican", "title": "American (Traditional)"}]}]}
{"total": 166, "businesses": [{"rating": 3.5, "review_count": 26, "name": "Valley Of Jordan", "url": "https://www.yelp.com/biz/valley-of-jordan-chicago?adjust_creative=_xGZBQTFH5RSnMk3I7VtQQ&utm_campaign=yelp_api_v3&utm_medium=api_v3_business_search&utm_source=_xGZBQTFH5RSnMk3I7VtQQ", "price": "$", "coordinates": {"latitude": 41.7993608862162, "longitude": -87.6009786128998}, "phone": "+17733639810", "image_url": "https://s3-media1.fl.yelpcdn.com/bphoto/7arh_T9njtUg6eusTKZ53w/o.jpg", "location": {"city": "Chicago", "country": "US", "address2": "", "address3": "", "state": "IL", "address1": "1009 E 53rd St", "zip_code": "60615"}, "id": "valley-of-jordan-chicago", "categories": [{"alias": "mideastern", "title": "Middle Eastern"}]}]}
{"total": 166, "businesses": [{"rating": 2.5, "review_count": 179, "name": "Leona's Pizza & Italian Restaurant", "url": "https://www.yelp.com/biz/leonas-pizza-and-italian-restaurant-chicago-5?adjust_creative=_xGZBQTFH5RSnMk3I7VtQQ&utm_campaign=yelp_api_v3&utm_medium=api_v3_business_search&utm_source=_xGZBQTFH5RSnMk3I7VtQQ", "price": "$$", "coordinates": {"latitude": 41.7998955447217, "longitude": -87.5952323368751}, "phone": "+17733632600", "image_url": "https://s3-media1.fl.yelpcdn.com/bphoto/KMjiBtJ5840N8BJgHpTGzw/o.jpg", "location": {"city": "Chicago", "country": "US", "address2": "", "address3": "", "state": "IL", "address1": "1236 E 53rd St", "zip_code": "60615"}, "id": "leonas-pizza-and-italian-restaurant-chicago-5", "categories": [{"alias": "italian", "title": "Italian"}, {"alias": "pizza", "title": "Pizza"}]}]}
{"total": 166, "businesses": [{"rating": 4.0, "review_count": 52, "name": "Kimbark Beverage Shoppe", "url": "https://www.yelp.com/biz/kimbark-beverage-shoppe-chicago-2?adjust_creative=_xGZBQTFH5RSnMk3I7VtQQ&utm_campaign=yelp_api_v3&utm_medium=api_v3_business_search&utm_source=_xGZBQTFH5RSnMk3I7VtQQ", "price": "$$", "coordinates": {"latitude": 41.7995899, "longitude": -87.595824}, "phone": "+17734933355", "image_url": "https://s3-media2.fl.yelpcdn.com/bphoto/Lhj7J-mYOBNK3lqJ3VyPSw/o.jpg", "location": {"city": "Chicago", "country": "US", "address2": "", "address3": "", "state": "IL", "address1": "1214 E 53rd St", "zip_code": "60615"}, "id": "kimbark-beverage-shoppe-chicago-2", "categories": [{"alias": "beer_and_wine", "title": "Beer, Wine & Spirits"}]}]}
{"total": 166, "businesses": [{"rating": 5.0, "review_count": 12, "name": "Sprocket & Stone", "url": "https://www.yelp.com/biz/sprocket-and-stone-chicago?adjust_creative=_xGZBQTFH5RSnMk3I7VtQQ&utm_campaign=yelp_api_v3&utm_medium=api_v3_business_search&utm_source=_xGZBQTFH5RSnMk3I7VtQQ", "coordinates": {"latitude": 41.7993181153944, "longitude": -87.600754941205}, "phone": "+17739664777", "image_url": "https://s3-media3.fl.yelpcdn.com/bphoto/UYK-IYkL-cul2VtbQgHMWA/o.jpg", "location": {"city": "Chicago", "country": "US", "address2": null, "address3": "", "state": "IL", "address1": "1013 E 53rd St", "zip_code": "60615"}, "id": "sprocket-and-stone-chicago", "categories": [{"alias": "petstore", "title": "Pet Stores"}]}]}
{"total": 166, "businesses": [{"rating": 3.0, "review_count": 114, "name": "Seven Ten Lanes", "url": "https://www.yelp.com/biz/seven-ten-lanes-chicago?adjust_creative=_xGZBQTFH5RSnMk3I7VtQQ&utm_campaign=yelp_api_v3&utm_medium=api_v3_business_search&utm_source=_xGZBQTFH5RSnMk3I7VtQQ", "price": "$$", "coordinates": {"latitude": 41.7949647456408, "longitude": -87.6003228127956}, "phone": "+17733472695", "image_url": "https://s3-media2.fl.yelpcdn.com/bphoto/Tyyz-aFAAM-sa93hgW3GMA/o.jpg", "location": {"city": "Chicago", "address1": "1055 E 55th St", "address2": "", "address3": "", "state": "IL", "country": "US", "zip_code": "60637"}, "id": "seven-ten-lanes-chicago", "categories": [{"alias": "lounges", "title": "Lounges"}, {"alias": "tradamerican", "title": "American (Traditional)"}, {"alias": "bowling", "title": "Bowling"}]}]}
{"total": 166, "businesses": [{"rating": 4.5, "review_count": 6, "name": "Bixler Playlot and Park", "url": "https://www.yelp.com/biz/bixler-playlot-and-park-chicago?adjust_creative=_xGZBQTFH5RSnMk3I7VtQQ&utm_campaign=yelp_api_v3&utm_medium=api_v3_business_search&utm_source=_xGZBQTFH5RSnMk3I7VtQQ", "coordinates": {"latitude": 41.79146, "longitude": -87.59322}, "phone": "+13127427529", "image_url": "https://s3-media4.fl.yelpcdn.com/bphoto/JCQyrnEFIqLm6tNqSfCh1A/o.jpg", "location": {"city": "Chicago", "address1": "57th Street and Kenwood Street", "address2": "", "address3": "", "state": "IL", "country": "US", "zip_code": "60686"}, "id": "bixler-playlot-and-park-chicago", "categories": [{"alias": "parks", "title": "Parks"}]}]}
{"total": 166, "businesses": [{"rating": 4.5, "review_count": 29, "name": "Extreme Clean Cleaning Services", "url": "https://www.yelp.com/biz/extreme-clean-cleaning-services-chicago-2?adjust_creative=_xGZBQTFH5RSnMk3I7VtQQ&utm_campaign=yelp_api_v3&utm_medium=api_v3_business_search&utm_source=_xGZBQTFH5RSnMk3I7VtQQ", "coordinates": {"latitude": 41.8003921, "longitude": -87.603826}, "phone": "+17733197155", "image_url": "https://s3-media1.fl.yelpcdn.com/bphoto/TW7FDjSBTtGP7qNmlp4OZw/o.jpg", "location": {"city": "Chicago", "country": "US", "address2": null, "address3": "", "state": "IL", "address1": "", "zip_code": "60615"}, "id": "extreme-clean-cleaning-services-chicago-2", "categories": [{"alias": "homecleaning", "title": "Home Cleaning"}, {"alias": "officecleaning", "title": "Office Cleaning"}]}]}
{"total": 166, "businesses": [{"rating": 3.5, "review_count": 28, "name": "Cemitas Puebla", "url": "https://www.yelp.com/biz/cemitas-puebla-chicago-11?adjust_creative=_xGZBQTFH5RSnMk3I7VtQQ&utm_campaign=yelp_api_v3&utm_medium=api_v3_business_search&utm_source=_xGZBQTFH5RSnMk3I7VtQQ", "price": "$$", "coordinates": {"latitude": 41.7913367116765, "longitude": -87.5939433132448}, "image_url": "https://s3-media2.fl.yelpcdn.com/bphoto/G4fXD1dvT2YwYJikC3xx0g/o.jpg", "location": {"city": "Chicago", "country": "US", "address2": "", "address3": null, "state": "IL", "address1": "1321 E 57th St", "zip_code": "60637"}, "id": "cemitas-puebla-chicago-11", "categories": [{"alias": "mexican", "title": "Mexican"}]}]}
{"total": 166, "businesses": [{"rating": 4.5, "review_count": 19, "name": "Joseph Regenstein Library", "url": "https://www.yelp.com/biz/joseph-regenstein-library-chicago?adjust_creative=_xGZBQTFH5RSnMk3I7VtQQ&utm_campaign=yelp_api_v3&utm_medium=api_v3_business_search&utm_source=_xGZBQTFH5RSnMk3I7VtQQ", "coordinates": {"latitude": 41.7915141, "longitude": -87.5997908}, "phone": "+17737024685", "image_url": "https://s3-media2.fl.yelpcdn.com/bphoto/6gqIpl4-NKlnoVG50ioUDQ/o.jpg", "location": {"city": "Chicago", "country": "US", "address2": "", "address3": "", "state": "IL", "address1": "1100 E 57th St", "zip_code": "60637"}, "id": "joseph-regenstein-library-chicago", "categories": [{"alias": "libraries", "title": "Libraries"}]}]}
{"total": 166, "businesses": [{"rating": 4.5, "review_count": 19, "name": "Court Theatre", "url": "https://www.yelp.com/biz/court-theatre-chicago?adjust_creative=_xGZBQTFH5RSnMk3I7VtQQ&utm_campaign=yelp_api_v3&utm_medium=api_v3_business_search&utm_source=_xGZBQTFH5RSnMk3I7VtQQ", "coordinates": {"latitude": 41.7940017269384, "longitude": -87.6009714889448}, "phone": "+17737534472", "image_url": "https://s3-media3.fl.yelpcdn.com/bphoto/lW1w4tH_hct-oqbkt9OxYw/o.jpg", "location": {"city": "Chicago", "address1": "5535 S Ellis Ave", "address2": "", "address3": "", "state": "IL", "country": "US", "zip_code": "60637"}, "id": "court-theatre-chicago", "categories": [{"alias": "theater", "title": "Performing Arts"}]}]}
{"total": 166, "businesses": [{"rating": 4.0, "review_count": 23, "name": "Mr T's Shoe Service", "url": "https://www.yelp.com/biz/mr-ts-shoe-service-chicago-2?adjust_creative=_xGZBQTFH5RSnMk3I7VtQQ&utm_campaign=yelp_api_v3&utm_medium=api_v3_business_search&utm_source=_xGZBQTFH5RSnMk3I7VtQQ", "coordinates": {"latitude": 41.7992651, "longitude": -87.601015}, "phone": "+17737521538", "image_url": "https://s3-media1.fl.yelpcdn.com/bphoto/zRj0_sZKTxfWhMopqXOYGw/o.jpg", "location": {"city": "Chicago", "address1": "1007 E 53rd St", "address2": null, "address3": "", "state": "IL", "country": "US", "zip_code": "60615"}, "id": "mr-ts-shoe-service-chicago-2", "categories": [{"alias": "shoerepair", "title": "Shoe Repair"}]}]}
{"total": 166, "businesses": [{"rating": 5.0, "review_count": 5, "name": "Wellness By Jon", "url": "https://www.yelp.com/biz/wellness-by-jon-chicago?adjust_creative=_xGZBQTFH5RSnMk3I7VtQQ&utm_campaign=yelp_api_v3&utm_medium=api_v3_business_search&utm_source=_xGZBQTFH5RSnMk3I7VtQQ", "coordinates": {"latitude": 41.80039, "longitude": -87.60382}, "phone": "+17736557536", "image_url": "https://s3-media4.fl.yelpcdn.com/bphoto/6a2G2h4kFz9Mocbs4YuuHw/o.jpg", "location": {"city": "Chicago", "country": "US", "address2": null, "address3": null, "state": "IL", "address1": "", "zip_code": "60615"}, "id": "wellness-by-jon-chicago", "categories": [{"alias": "massage_therapy", "title": "Massage Therapy"}]}]}
{"total": 166, "businesses": [{"rating": 5.0, "review_count": 14, "name": "Hyde Bark Dog Walking", "url": "https://www.yelp.com/biz/hyde-bark-dog-walking-chicago?adjust_creative=_xGZBQTFH5RSnMk3I7VtQQ&utm_campaign=yelp_api_v3&utm_medium=api_v3_business_search&utm_source=_xGZBQTFH5RSnMk3I7VtQQ", "coordinates": {"latitude": 41.804935, "longitude": -87.585823}, "phone": "+13122566886", "image_url": "https://s3-media1.fl.yelpcdn.com/bphoto/0-1BRRLoc--pTtUqw9FqOQ/o.jpg", "location": {"city": "Chicago", "country": "US", "address2": null, "address3": "", "state": "IL", "address1": "4940 S East End Ave", "zip_code": "60615"}, "id": "hyde-bark-dog-walking-chicago", "categories": [{"alias": "dogwalkers", "title": "Dog Walkers"}, {"alias": "pet_sitting", "title": "Pet Boarding/Pet Sitting"}]}]}
{"total": 166, "businesses": [{"rating": 5.0, "review_count": 7, "name": "The Revival", "url": "https://www.yelp.com/biz/the-revival-chicago?adjust_creative=_xGZBQTFH5RSnMk3I7VtQQ&utm_campaign=yelp_api_v3&utm_medium=api_v3_business_search&utm_source=_xGZBQTFH5RSnMk3I7VtQQ", "price": "$$", "coordinates": {"latitude": 41.79536, "longitude": -87.59698}, "phone": "+18668114111", "image_url": "https://s3-media1.fl.yelpcdn.com/bphoto/5OkFbD-IG6-qIrLKxgZF-w/o.jpg", "location": {"city": "Chicago", "country": "US", "address2": "", "address3": "", "state": "IL", "address1": "1160 E. 55th St", "zip_code": "60615"}, "id": "the-revival-chicago", "categories": [{"alias": "comedyclubs", "title": "Comedy Clubs"}, {"alias": "venues", "title": "Venues & Event Spaces"}]}]}
{"total": 166, "businesses": [{"rating": 5.0, "review_count": 9, "name": "Cycle Therapy", "url": "https://www.yelp.com/biz/cycle-therapy-chicago?adjust_creative=_xGZBQTFH5RSnMk3I7VtQQ&utm_campaign=yelp_api_v3&utm_medium=api_v3_business_search&utm_source=_xGZBQTFH5RSnMk3I7VtQQ", "coordinates": {"latitude": 41.8088989257812, "longitude": -87.5943374633789}, "phone": "+13122571017", "image_url": "https://s3-media1.fl.yelpcdn.com/bphoto/Rz8hHLrcnfQC1eTbd9ILkg/o.jpg", "location": {"city": "Chicago", "country": "US", "address2": "", "address3": "", "state": "IL", "address1": "1301 E 47th St", "zip_code": "60653"}, "id": "cycle-therapy-chicago", "categories": [{"alias": "cyclingclasses", "title": "Cycling Classes"}]}]}
{"total": 166, "businesses": [{"rating": 4.0, "review_count": 3, "name": "Subway", "url": "https://www.yelp.com/biz/subway-chicago-271?adjust_creative=_xGZBQTFH5RSnMk3I7VtQQ&utm_campaign=yelp_api_v3&utm_medium=api_v3_business_search&utm_source=_xGZBQTFH5RSnMk3I7VtQQ", "price": "$", "coordinates": {"latitude": 41.8026833793982, "longitude": -87.6071342724343}, "phone": "+17735367827", "image_url": "https://s3-media1.fl.yelpcdn.com/bphoto/cPxhawVzZ9NsAmXKT-dQ2A/o.jpg", "location": {"city": "Chicago", "country": "US", "address2": "", "address3": "", "state": "IL", "address1": "5040 S Cottage Grove Ave", "zip_code": "60615"}, "id": "subway-chicago-271", "categories": [{"alias": "sandwiches", "title": "Sandwiches"}, {"alias": "hotdogs", "title": "Fast Food"}]}]}
{"total": 166, "businesses": [{"rating": 5.0, "review_count": 4, "name": "Amira Farrakhan", "url": "https://www.yelp.com/biz/amira-farrakhan-chicago?adjust_creative=_xGZBQTFH5RSnMk3I7VtQQ&utm_campaign=yelp_api_v3&utm_medium=api_v3_business_search&utm_source=_xGZBQTFH5RSnMk3I7VtQQ", "price": "$", "coordinates": {"latitude": 41.7994445843882, "longitude": -87.6004791459106}, "phone": "+13126320882", "image_url": "https://s3-media1.fl.yelpcdn.com/bphoto/V8ociSSng4rT6Jg1ll1Ybw/o.jpg", "location": {"city": "Chicago", "country": "US", "address2": "", "address3": "", "state": "IL", "address1": "333 Noth Michigan Ave", "zip_code": "60601"}, "id": "amira-farrakhan-chicago", "categories": [{"alias": "hairstylists", "title": "Hair Stylists"}]}]}
{"total": 166, "businesses": [{"rating": 5.0, "review_count": 3, "name": "Vincent David Johnson Photography", "url": "https://www.yelp.com/biz/vincent-david-johnson-photography-chicago?adjust_creative=_xGZBQTFH5RSnMk3I7VtQQ&utm_campaign=yelp_api_v3&utm_medium=api_v3_business_search&utm_source=_xGZBQTFH5RSnMk3I7VtQQ", "coordinates": {"latitude": 41.8003921, "longitude": -87.603826}, "phone": "+17739241493", "image_url": "https://s3-media2.fl.yelpcdn.com/bphoto/Uw3pytdORp9Al53PlRIrGg/o.jpg", "location": {"city": "Chicago", "address1": "", "address2": "", "address3": "", "state": "IL", "country": "US", "zip_code": "60615"}, "id": "vincent-david-johnson-photography-chicago", "categories": [{"alias": "eventphotography", "title": "Event Photography"}]}]}
{"total": 166, "businesses": [{"rating": 4.0, "review_count": 17, "name": "Woods and Sons Moving Services", "url": "https://www.yelp.com/biz/woods-and-sons-moving-services-chicago-2?adjust_creative=_xGZBQTFH5RSnMk3I7VtQQ&utm_campaign=yelp_api_v3&utm_medium=api_v3_business_search&utm_source=_xGZBQTFH5RSnMk3I7VtQQ", "coordinates": {"latitude": 41.8022232, "longitude": -87.6065216}, "phone": "+17086682776", "image_url": "", "location": {"city": "Chicago", "address1": "5100 Cottage Grove", "address2": "", "address3": "", "state": "IL", "country": "US", "zip_code": "60615"}, "id": "woods-and-sons-moving-services-chicago-2", "categories": [{"alias": "movers", "title": "Movers"}]}]}
{"total": 166, "businesses": [{"rating": 3.5, "review_count": 50, "name": "DJ's Bike Doctor", "url": "https://www.yelp.com/biz/djs-bike-doctor-chicago?adjust_creative=_xGZBQTFH5RSnMk3I7VtQQ&utm_campaign=yelp_api_v3&utm_medium=api_v3_business_search&utm_source=_xGZBQTFH5RSnMk3I7VtQQ", "price": "$$", "coordinates": {"latitude": 41.795229, "longitude": -87.593156}, "phone": "+17739554400", "image_url": "https://s3-media4.fl.yelpcdn.com/bphoto/ISutBdiGKJtqxf9Nt5faIQ/o.jpg", "location": {"city": "Chicago", "address1": "1344 E 55th St", "address2": "", "address3": "", "state": "IL", "country": "US", "zip_code": "60615"}, "id": "djs-bike-doctor-chicago", "categories": [{"alias": "bikes", "title": "Bikes"}]}]}
{"total": 166, "businesses": [{"rating": 4.5, "review_count": 9, "name": "Gerald Ratner Athletic Center", "url": "https://www.yelp.com/biz/gerald-ratner-athletic-center-chicago?adjust_creative=_xGZBQTFH5RSnMk3I7VtQQ&utm_campaign=yelp_api_v3&utm_medium=api_v3_business_search&utm_source=_xGZBQTFH5RSnMk3I7VtQQ", "coordinates": {"latitude": 41.7945607775546, "longitude": -87.6018019607651}, "phone": "+17737023871", "image_url": "https://s3-media4.fl.yelpcdn.com/bphoto/cZs_Ug0GeUVPNZXDCdznHw/o.jpg", "location": {"city": "Chicago", "country": "US", "address2": "", "address3": "", "state": "IL", "address1": "5530 S Ellis Ave", "zip_code": "60637"}, "id": "gerald-ratner-athletic-center-chicago", "categories": [{"alias": "gyms", "title": "Gyms"}]}]}
{"total": 166, "businesses": [{"rating": 3.5, "review_count": 23, "name": "Hair Design International", "url": "https://www.yelp.com/biz/hair-design-international-chicago?adjust_creative=_xGZBQTFH5RSnMk3I7VtQQ&utm_campaign=yelp_api_v3&utm_medium=api_v3_business_search&utm_source=_xGZBQTFH5RSnMk3I7VtQQ", "price": "$$", "coordinates": {"latitude": 41.79118, "longitude": -87.59432}, "phone": "+17733630700", "image_url": "https://s3-media4.fl.yelpcdn.com/bphoto/sZDr9VB8hcFVxOkvurq7Kw/o.jpg", "location": {"city": "Chicago", "address1": "1309 E 57th St", "address2": "", "address3": "", "state": "IL", "country": "US", "zip_code": "60637"}, "id": "hair-design-international-chicago", "categories": [{"alias": "hair", "title": "Hair Salons"}, {"alias": "othersalons", "title": "Nail Salons"}]}]}
{"total": 166, "businesses": [{"rating": 4.5, "review_count": 4, "name": "Page Too Hair Design", "url": "https://www.yelp.com/biz/page-too-hair-design-chicago?adjust_creative=_xGZBQTFH5RSnMk3I7VtQQ&utm_campaign=yelp_api_v3&utm_medium=api_v3_business_search&utm_source=_xGZBQTFH5RSnMk3I7VtQQ", "price": "$$", "coordinates": {"latitude": 41.7992651, "longitude": -87.601015}, "phone": "+17733630547", "image_url": "https://s3-media1.fl.yelpcdn.com/bphoto/RyqmvPnKp3n8IzBZ9tfFUg/o.jpg", "location": {"city": "Chicago", "address1": "1007 E 53rd St", "address2": "", "address3": "", "state": "IL", "country": "US", "zip_code": "60615"}, "id": "page-too-hair-design-chicago", "categories": [{"alias": "hair", "title": "Hair Salons"}]}]}
{"total": 166, "businesses": [{"rating": 3.0, "review_count": 23, "name": "Pearle Vision", "url": "https://www.yelp.com/biz/pearle-vision-chicago-24?adjust_creative=_xGZBQTFH5RSnMk3I7VtQQ&utm_campaign=yelp_api_v3&utm_medium=api_v3_business_search&utm_source=_xGZBQTFH5RSnMk3I7VtQQ", "price": "$$", "coordinates": {"latitude": 41.799982, "longitude": -87.596411}, "phone": "+17734938372", "image_url": "https://s3-media2.fl.yelpcdn.com/bphoto/_fDQzhd9mN8yIlYwowJXsQ/o.jpg", "location": {"city": "Chicago", "country": "US", "address2": "", "address3": "", "state": "IL", "address1": "1200 East 53rd Street", "zip_code": "60615"}, "id": "pearle-vision-chicago-24", "categories": [{"alias": "optometrists", "title": "Optometrists"}, {"alias": "opticians", "title": "Eyewear & Opticians"}]}]}
{"total": 166, "businesses": [{"rating": 5.0, "review_count": 3, "name": "The Joe and Rika Mansueto Library", "url": "https://www.yelp.com/biz/the-joe-and-rika-mansueto-library-chicago?adjust_creative=_xGZBQTFH5RSnMk3I7VtQQ&utm_campaign=yelp_api_v3&utm_medium=api_v3_business_search&utm_source=_xGZBQTFH5RSnMk3I7VtQQ", "coordinates": {"latitude": 41.7917358846542, "longitude": -87.6009254135962}, "phone": "+17737028740", "image_url": "https://s3-media4.fl.yelpcdn.com/bphoto/fB0LD_2GFRl01jjM_7KTvg/o.jpg", "location": {"city": "Chicago", "country": "US", "address2": "", "address3": "", "state": "IL", "address1": "1100 E 57th St", "zip_code": "60637"}, "id": "the-joe-and-rika-mansueto-library-chicago", "categories": [{"alias": "libraries", "title": "Libraries"}]}]}
{"total": 166, "businesses": [{"rating": 4.5, "review_count": 5, "name": "Justice of the Pies", "url": "https://www.yelp.com/biz/justice-of-the-pies-chicago?adjust_creative=_xGZBQTFH5RSnMk3I7VtQQ&utm_campaign=yelp_api_v3&utm_medium=api_v3_business_search&utm_source=_xGZBQTFH5RSnMk3I7VtQQ", "coordinates": {"latitude": 41.7918308, "longitude": -87.6028029}, "phone": "+13127677452", "image_url": "https://s3-media1.fl.yelpcdn.com/bphoto/kcHJoHQH5GO9MLmiqntLJA/o.jpg", "location": {"city": "Chicago", "address1": "924 E 57th St", "address2": "Downtown Chicago", "address3": null, "state": "IL", "country": "US", "zip_code": "60637"}, "id": "justice-of-the-pies-chicago", "categories": [{"alias": "catering", "title": "Caterers"}]}]}
{"total": 166, "businesses": [{"rating": 3.5, "review_count": 26, "name": "Foreign Car Hospital", "url": "https://www.yelp.com/biz/foreign-car-hospital-chicago?adjust_creative=_xGZBQTFH5RSnMk3I7VtQQ&utm_campaign=yelp_api_v3&utm_medium=api_v3_business_search&utm_source=_xGZBQTFH5RSnMk3I7VtQQ", "coordinates": {"latitude": 41.7972955852747, "longitude": -87.5950489193201}, "phone": "+17736433113", "image_url": "https://s3-media1.fl.yelpcdn.com/bphoto/zvLWDoX9Y-tqDdZmPMllPg/o.jpg", "location": {"city": "Chicago", "address1": "5424 S Kimbark Ave", "address2": "", "address3": "", "state": "IL", "country": "US", "zip_code": "60615"}, "id": "foreign-car-hospital-chicago", "categories": [{"alias": "autorepair", "title": "Auto Repair"}]}]}
{"total": 166, "businesses": [{"rating": 5.0, "review_count": 2, "name": "Dollop Coffee", "url": "https://www.yelp.com/biz/dollop-coffee-chicago-5?adjust_creative=_xGZBQTFH5RSnMk3I7VtQQ&utm_campaign=yelp_api_v3&utm_medium=api_v3_business_search&utm_source=_xGZBQTFH5RSnMk3I7VtQQ", "coordinates": {"latitude": 41.7949570040507, "longitude": -87.5981428474188}, "image_url": "https://s3-media2.fl.yelpcdn.com/bphoto/LyCBolB2nRYHJvtz3ZXK7w/o.jpg", "location": {"city": "Chicago", "country": "US", "address2": "", "address3": null, "state": "IL", "address1": "5500 South University Ave", "zip_code": "60637"}, "id": "dollop-coffee-chicago-5", "categories": [{"alias": "coffee", "title": "Coffee & Tea"}]}]}
{"total": 166, "businesses": [{"rating": 3.5, "review_count": 15, "name": "Golden Hanger", "url": "https://www.yelp.com/biz/golden-hanger-chicago?adjust_creative=_xGZBQTFH5RSnMk3I7VtQQ&utm_campaign=yelp_api_v3&utm_medium=api_v3_business_search&utm_source=_xGZBQTFH5RSnMk3I7VtQQ", "price": "$$", "coordinates": {"latitude": 41.7995010316372, "longitude": -87.5945922732353}, "phone": "+17736842680", "image_url": "", "location": {"city": "Chicago", "address1": "1314 E 53rd St", "address2": "", "address3": "", "state": "IL", "country": "US", "zip_code": "60615"}, "id": "golden-hanger-chicago", "categories": [{"alias": "drycleaninglaundry", "title": "Dry Cleaning & Laundry"}]}]}
{"total": 166, "businesses": [{"rating": 5.0, "review_count": 10, "name": "Canis Sapiens Dog Training", "url": "https://www.yelp.com/biz/canis-sapiens-dog-training-chicago?adjust_creative=_xGZBQTFH5RSnMk3I7VtQQ&utm_campaign=yelp_api_v3&utm_medium=api_v3_business_search&utm_source=_xGZBQTFH5RSnMk3I7VtQQ", "coordinates": {"latitude": 41.8019523620605, "longitude": -87.6034698486328}, "phone": "+17739132030", "image_url": "https://s3-media2.fl.yelpcdn.com/bphoto/E9EPkkfXhES32bgf1XMDbw/o.jpg", "location": {"city": "Chicago", "country": "US", "address2": "", "address3": "", "state": "IL", "address1": "", "zip_code": "60615"}, "id": "canis-sapiens-dog-training-chicago", "categories": [{"alias": "pet_training", "title": "Pet Training"}]}]}
{"total": 166, "businesses": [{"rating": 2.5, "review_count": 20, "name": "Starbucks", "url": "https://www.yelp.com/biz/starbucks-chicago-316?adjust_creative=_xGZBQTFH5RSnMk3I7VtQQ&utm_campaign=yelp_api_v3&utm_medium=api_v3_business_search&utm_source=_xGZBQTFH5RSnMk3I7VtQQ", "price": "$$", "coordinates": {"latitude": 41.7909807819662, "longitude": -87.6050669852918}, "image_url": "https://s3-media1.fl.yelpcdn.com/bphoto/LX_YAkBNQa9LsORcK4bLeQ/o.jpg", "location": {"city": "Chicago", "address1": "5700 S Maryland Ave", "address2": "", "address3": "", "state": "IL", "country": "US", "zip_code": "60637"}, "id": "starbucks-chicago-316", "categories": [{"alias": "coffee", "title": "Coffee & Tea"}]}]}
{"total": 166, "businesses": [{"rating": 3.5, "review_count": 6, "name": "Maroon Financial Credit Union", "url": "https://www.yelp.com/biz/maroon-financial-credit-union-chicago?adjust_creative=_xGZBQTFH5RSnMk3I7VtQQ&utm_campaign=yelp_api_v3&utm_medium=api_v3_business_search&utm_source=_xGZBQTFH5RSnMk3I7VtQQ", "coordinates": {"latitude": 41.7944189842794, "longitude": -87.6001054720112}, "phone": "+17737027179", "image_url": "", "location": {"city": "Chicago", "country": "US", "address2": "Ste C", "address3": "", "state": "IL", "address1": "5525 S Ellis Ave", "zip_code": "60637"}, "id": "maroon-financial-credit-union-chicago", "categories": [{"alias": "banks", "title": "Banks & Credit Unions"}]}]}
{"total": 166, "businesses": [{"rating": 5.0, "review_count": 1, "name": "Stagg Field tennis courts", "url": "https://www.yelp.com/biz/stagg-field-tennis-courts-chicago?adjust_creative=_xGZBQTFH5RSnMk3I7VtQQ&utm_campaign=yelp_api_v3&utm_medium=api_v3_business_search&utm_source=_xGZBQTFH5RSnMk3I7VtQQ", "coordinates": {"latitude": 41.7944725602865, "longitude": -87.6014077663422}, "phone": "+17737027684", "image_url": "", "location": {"city": "Chicago", "address1": "5530 S Ellis", "address2": "", "address3": "", "state": "IL", "country": "US", "zip_code": "60637"}, "id": "stagg-field-tennis-courts-chicago", "categories": [{"alias": "landmarks", "title": "Landmarks & Historical Buildings"}]}]}
{"total": 166, "businesses": [{"rating": 3.5, "review_count": 4, "name": "Bartlett Dining Commons", "url": "https://www.yelp.com/biz/bartlett-dining-commons-chicago?adjust_creative=_xGZBQTFH5RSnMk3I7VtQQ&utm_campaign=yelp_api_v3&utm_medium=api_v3_business_search&utm_source=_xGZBQTFH5RSnMk3I7VtQQ", "price": "$$", "coordinates": {"latitude": 41.7925023, "longitude": -87.5982722}, "phone": "", "image_url": "", "location": {"city": "Chicago", "country": "US", "address2": "5640 S University Ave", "address3": "", "state": "IL", "address1": "University of Chicago", "zip_code": "60637"}, "id": "bartlett-dining-commons-chicago", "categories": [{"alias": "tradamerican", "title": "American (Traditional)"}]}]}
{"total": 166, "businesses": [{"rating": 3.5, "review_count": 11, "name": "Ivory Cleaners", "url": "https://www.yelp.com/biz/ivory-cleaners-chicago-2?adjust_creative=_xGZBQTFH5RSnMk3I7VtQQ&utm_campaign=yelp_api_v3&utm_medium=api_v3_business_search&utm_source=_xGZBQTFH5RSnMk3I7VtQQ", "price": "$$", "coordinates": {"latitude": 41.7992651, "longitude": -87.6010366}, "phone": "+17734933425", "image_url": "https://s3-media3.fl.yelpcdn.com/bphoto/KSD6dhAwiSixN9lcjxXu8Q/o.jpg", "location": {"city": "Chicago", "address1": "1005 E 53rd St", "address2": "", "address3": "", "state": "IL", "country": "US", "zip_code": "60615"}, "id": "ivory-cleaners-chicago-2", "categories": [{"alias": "drycleaninglaundry", "title": "Dry Cleaning & Laundry"}]}]}
{"total": 166, "businesses": [{"rating": 3.5, "review_count": 8, "name": "Egyptian Style Beauty Salon", "url": "https://www.yelp.com/biz/egyptian-style-beauty-salon-chicago?adjust_creative=_xGZBQTFH5RSnMk3I7VtQQ&utm_campaign=yelp_api_v3&utm_medium=api_v3_business_search&utm_source=_xGZBQTFH5RSnMk3I7VtQQ", "price": "$$", "coordinates": {"latitude": 41.8096784, "longitude": -87.6032188}, "phone": "+17735361000", "image_url": "https://s3-media1.fl.yelpcdn.com/bphoto/DmKVvPOZSxRfjV-g8nCXSA/o.jpg", "location": {"city": "Chicago", "country": "US", "address2": "", "address3": "", "state": "IL", "address1": "914 E 47th St", "zip_code": "60653"}, "id": "egyptian-style-beauty-salon-chicago", "categories": [{"alias": "hair", "title": "Hair Salons"}]}]}
{"total": 166, "businesses": [{"rating": 4.5, "review_count": 4, "name": "CTA #2 Hyde Park Express", "url": "https://www.yelp.com/biz/cta-2-hyde-park-express-chicago?adjust_creative=_xGZBQTFH5RSnMk3I7VtQQ&utm_campaign=yelp_api_v3&utm_medium=api_v3_business_search&utm_source=_xGZBQTFH5RSnMk3I7VtQQ", "coordinates": {"latitude": 41.8019523620605, "longitude": -87.6034698486328}, "phone": "", "image_url": "", "location": {"city": "Chicago", "country": "US", "address2": "", "address3": "", "state": "IL", "address1": "", "zip_code": "60615"}, "id": "cta-2-hyde-park-express-chicago", "categories": [{"alias": "publictransport", "title": "Public Transportation"}]}]}
{"total": 166, "businesses": [{"rating": 5.0, "review_count": 2, "name": "KAM Isaiah Israel Congregation", "url": "https://www.yelp.com/biz/kam-isaiah-israel-congregation-chicago-2?adjust_creative=_xGZBQTFH5RSnMk3I7VtQQ&utm_campaign=yelp_api_v3&utm_medium=api_v3_business_search&utm_source=_xGZBQTFH5RSnMk3I7VtQQ", "coordinates": {"latitude": 41.8026735186795, "longitude": -87.598633179432}, "phone": "+17739241234", "image_url": "https://s3-media2.fl.yelpcdn.com/bphoto/KCRDJXBF4COW0sVWNbMdaQ/o.jpg", "location": {"city": "Chicago", "country": "US", "address2": "", "address3": "", "state": "IL", "address1": "1100 E Hyde Park Blvd", "zip_code": "60615"}, "id": "kam-isaiah-israel-congregation-chicago-2", "categories": [{"alias": "synagogues", "title": "Synagogues"}]}]}
{"total": 166, "businesses": [{"rating": 5.0, "review_count": 7, "name": "Danny Gordon & Associates Counseling", "url": "https://www.yelp.com/biz/danny-gordon-and-associates-counseling-chicago?adjust_creative=_xGZBQTFH5RSnMk3I7VtQQ&utm_campaign=yelp_api_v3&utm_medium=api_v3_business_search&utm_source=_xGZBQTFH5RSnMk3I7VtQQ", "coordinates": {"latitude": 41.8039629, "longitude": -87.5940991}, "phone": "+13125661702", "image_url": "https://s3-media1.fl.yelpcdn.com/bphoto/le3d7w435BR5rUEJk5PJ9Q/o.jpg", "location": {"city": "Chicago", "address1": "50th St & Kimbark", "address2": null, "address3": "", "state": "IL", "country": "US", "zip_code": "60615"}, "id": "danny-gordon-and-associates-counseling-chicago", "categories": [{"alias": "c_and_mh", "title": "Counseling & Mental Health"}]}]}
{"total": 166, "businesses": [{"rating": 5.0, "review_count": 2, "name": "The Vineyard Church At Hyde Park", "url": "https://www.yelp.com/biz/the-vineyard-church-at-hyde-park-chicago?adjust_creative=_xGZBQTFH5RSnMk3I7VtQQ&utm_campaign=yelp_api_v3&utm_medium=api_v3_business_search&utm_source=_xGZBQTFH5RSnMk3I7VtQQ", "coordinates": {"latitude": 41.7953871935606, "longitude": -87.5994671881199}, "phone": "+17739393445", "image_url": "https://s3-media2.fl.yelpcdn.com/bphoto/4mNg5OBYUivGeetrDCBKMQ/o.jpg", "location": {"city": "Chicago", "country": "US", "address2": "", "address3": "", "state": "IL", "address1": "1100 E 55th St", "zip_code": "60615"}, "id": "the-vineyard-church-at-hyde-park-chicago", "categories": [{"alias": "churches", "title": "Churches"}]}]}
{"total": 166, "businesses": [{"rating": 4.0, "review_count": 7, "name": "University of Chicago Comer Children's Hospital", "url": "https://www.yelp.com/biz/university-of-chicago-comer-childrens-hospital-chicago-2?adjust_creative=_xGZBQTFH5RSnMk3I7VtQQ&utm_campaign=yelp_api_v3&utm_medium=api_v3_business_search&utm_source=_xGZBQTFH5RSnMk3I7VtQQ", "coordinates": {"latitude": 41.7905929720399, "longitude": -87.6046986974731}, "phone": "+17737022600", "image_url": "https://s3-media3.fl.yelpcdn.com/bphoto/gyEaQccbq-krEBhTo8MvCA/o.jpg", "location": {"city": "Chicago", "country": "US", "address2": "", "address3": "", "state": "IL", "address1": "1301A E 47th St", "zip_code": "60653"}, "id": "university-of-chicago-comer-childrens-hospital-chicago-2", "categories": [{"alias": "collegeuniv", "title": "Colleges & Universities"}]}]}
{"total": 166, "businesses": [{"rating": 3.0, "review_count": 5, "name": "Advocate Medical Group", "url": "https://www.yelp.com/biz/advocate-medical-group-chicago-4?adjust_creative=_xGZBQTFH5RSnMk3I7VtQQ&utm_campaign=yelp_api_v3&utm_medium=api_v3_business_search&utm_source=_xGZBQTFH5RSnMk3I7VtQQ", "coordinates": {"latitude": 41.8088989257812, "longitude": -87.5943374633789}, "phone": "+17734938212", "image_url": "https://s3-media4.fl.yelpcdn.com/bphoto/P-pozw-eEpsyos3WlVowuw/o.jpg", "location": {"city": "Chicago", "country": "US", "address2": "", "address3": "", "state": "IL", "address1": "1301 E 47th St", "zip_code": "60615"}, "id": "advocate-medical-group-chicago-4", "categories": [{"alias": "neurologist", "title": "Neurologist"}, {"alias": "orthopedists", "title": "Orthopedists"}]}]}
{"total": 166, "businesses": [{"rating": 4.5, "review_count": 6, "name": "Kilimanjaro International", "url": "https://www.yelp.com/biz/kilimanjaro-international-chicago-2?adjust_creative=_xGZBQTFH5RSnMk3I7VtQQ&utm_campaign=yelp_api_v3&utm_medium=api_v3_business_search&utm_source=_xGZBQTFH5RSnMk3I7VtQQ", "price": "$", "coordinates": {"latitude": 41.7993151, "longitude": -87.5947199}, "phone": "+17733244860", "image_url": "", "location": {"city": "Chicago", "address1": "1305 E 53rd St", "address2": "", "address3": "", "state": "IL", "country": "US", "zip_code": "60615"}, "id": "kilimanjaro-international-chicago-2", "categories": [{"alias": "artsandcrafts", "title": "Arts & Crafts"}, {"alias": "galleries", "title": "Art Galleries"}]}]}
{"total": 166, "businesses": [{"rating": 4.5, "review_count": 3, "name": "Hyde Park Cats", "url": "https://www.yelp.com/biz/hyde-park-cats-chicago?adjust_creative=_xGZBQTFH5RSnMk3I7VtQQ&utm_campaign=yelp_api_v3&utm_medium=api_v3_business_search&utm_source=_xGZBQTFH5RSnMk3I7VtQQ", "coordinates": {"latitude": 41.8019523620605, "longitude": -87.6034698486328}, "image_url": "https://s3-media1.fl.yelpcdn.com/bphoto/ITil3u-yTml9IMxZRivAJg/o.jpg", "location": {"city": "Chicago", "address1": "", "address2": "", "address3": "", "state": "IL", "country": "US", "zip_code": "60615"}, "id": "hyde-park-cats-chicago", "categories": [{"alias": "animalshelters", "title": "Animal Shelters"}]}]}
{"total": 166, "businesses": [{"rating": 4.0, "review_count": 6, "name": "The Reynolds Club", "url": "https://www.yelp.com/biz/the-reynolds-club-chicago?adjust_creative=_xGZBQTFH5RSnMk3I7VtQQ&utm_campaign=yelp_api_v3&utm_medium=api_v3_business_search&utm_source=_xGZBQTFH5RSnMk3I7VtQQ", "coordinates": {"latitude": 41.7911821, "longitude": -87.5982283}, "phone": "", "image_url": "https://s3-media2.fl.yelpcdn.com/bphoto/3SbEK7mBZFwj6ogN1NejnA/o.jpg", "location": {"city": "Chicago", "country": "US", "address2": "", "address3": "", "state": "IL", "address1": "5706 S University Ave", "zip_code": "60637"}, "id": "the-reynolds-club-chicago", "categories": [{"alias": "venues", "title": "Venues & Event Spaces"}]}]}
{"total": 166, "businesses": [{"rating": 4.0, "review_count": 15, "name": "Rolling Bone Dog Walking", "url": "https://www.yelp.com/biz/rolling-bone-dog-walking-chicago?adjust_creative=_xGZBQTFH5RSnMk3I7VtQQ&utm_campaign=yelp_api_v3&utm_medium=api_v3_business_search&utm_source=_xGZBQTFH5RSnMk3I7VtQQ", "coordinates": {"latitude": 41.8019523620605, "longitude": -87.6034698486328}, "phone": "+17734548009", "image_url": "https://s3-media3.fl.yelpcdn.com/bphoto/UuFRIUjRCjAouxKuqbegaQ/o.jpg", "location": {"city": "Chicago", "country": "US", "address2": "", "address3": "", "state": "IL", "address1": "", "zip_code": "60615"}, "id": "rolling-bone-dog-walking-chicago", "categories": [{"alias": "pet_sitting", "title": "Pet Boarding/Pet Sitting"}, {"alias": "dogwalkers", "title": "Dog Walkers"}]}]}
{"total": 166, "businesses": [{"rating": 5.0, "review_count": 3, "name": "WHPK 88.5 FM", "url": "https://www.yelp.com/biz/whpk-88-5-fm-chicago?adjust_creative=_xGZBQTFH5RSnMk3I7VtQQ&utm_campaign=yelp_api_v3&utm_medium=api_v3_business_search&utm_source=_xGZBQTFH5RSnMk3I7VtQQ", "coordinates": {"latitude": 41.7914108307744, "longitude": -87.5980576344985}, "image_url": "https://s3-media4.fl.yelpcdn.com/bphoto/j_R5KQRNRzcVdiwP7cSn5g/o.jpg", "location": {"city": "Chicago", "address1": "57th St & University Ave", "address2": "", "address3": "", "state": "IL", "country": "US", "zip_code": "60615"}, "id": "whpk-88-5-fm-chicago", "categories": [{"alias": "radiostations", "title": "Radio Stations"}]}]}
{"total": 166, "businesses": [{"rating": 3.5, "review_count": 20, "name": "Cleopatra Hair Design II", "url": "https://www.yelp.com/biz/cleopatra-hair-design-ii-chicago?adjust_creative=_xGZBQTFH5RSnMk3I7VtQQ&utm_campaign=yelp_api_v3&utm_medium=api_v3_business_search&utm_source=_xGZBQTFH5RSnMk3I7VtQQ", "price": "$$", "coordinates": {"latitude": 41.7998, "longitude": -87.59435}, "phone": "+17736431082", "image_url": "https://s3-media1.fl.yelpcdn.com/bphoto/jIeAhgyjIi78D7MgNN4vaw/o.jpg", "location": {"city": "Chicago", "country": "US", "address2": "", "address3": "", "state": "IL", "address1": "1316 E 53rd St", "zip_code": "60615"}, "id": "cleopatra-hair-design-ii-chicago", "categories": [{"alias": "hair", "title": "Hair Salons"}]}]}
{"total": 166, "businesses": [{"rating": 3.5, "review_count": 10, "name": "Chase Bank", "url": "https://www.yelp.com/biz/chase-bank-chicago-115?adjust_creative=_xGZBQTFH5RSnMk3I7VtQQ&utm_campaign=yelp_api_v3&utm_medium=api_v3_business_search&utm_source=_xGZBQTFH5RSnMk3I7VtQQ", "coordinates": {"latitude": 41.800006, "longitude": -87.596168}, "phone": "+17732415110", "image_url": "https://s3-media4.fl.yelpcdn.com/bphoto/fMgW2kpR1SHa9IsLmAlWJg/o.jpg", "location": {"city": "Chicago", "address1": "1204 E 53rd St", "address2": "", "address3": "", "state": "IL", "country": "US", "zip_code": "60615"}, "id": "chase-bank-chicago-115", "categories": [{"alias": "banks", "title": "Banks & Credit Unions"}]}]}
{"total": 166, "businesses": [{"rating": 3.5, "review_count": 7, "name": "Hyde Park Self Storage", "url": "https://www.yelp.com/biz/hyde-park-self-storage-chicago?adjust_creative=_xGZBQTFH5RSnMk3I7VtQQ&utm_campaign=yelp_api_v3&utm_medium=api_v3_business_search&utm_source=_xGZBQTFH5RSnMk3I7VtQQ", "coordinates": {"latitude": 41.8012337386608, "longitude": -87.6063068211079}, "phone": "+17739555500", "image_url": "https://s3-media4.fl.yelpcdn.com/bphoto/zy0chZKpALnB-Wq4Y0JQvA/o.jpg", "location": {"city": "Chicago", "address1": "5155 S Cottage Grove Ave", "address2": "", "address3": "", "state": "IL", "country": "US", "zip_code": "60615"}, "id": "hyde-park-self-storage-chicago", "categories": [{"alias": "selfstorage", "title": "Self Storage"}]}]}
{"total": 166, "businesses": [{"rating": 2.5, "review_count": 11, "name": "Einstein Bros Bagels", "url": "https://www.yelp.com/biz/einstein-bros-bagels-chicago-11?adjust_creative=_xGZBQTFH5RSnMk3I7VtQQ&utm_campaign=yelp_api_v3&utm_medium=api_v3_business_search&utm_source=_xGZBQTFH5RSnMk3I7VtQQ", "price": "$", "coordinates": {"latitude": 41.7911821, "longitude": -87.5982283}, "phone": "+17738341018", "image_url": "https://s3-media4.fl.yelpcdn.com/bphoto/sK0NAwt4b7AnN2MA911i9A/o.jpg", "location": {"city": "Chicago", "country": "US", "address2": "", "address3": "", "state": "IL", "address1": "5706 S University Ave", "zip_code": "60637"}, "id": "einstein-bros-bagels-chicago-11", "categories": [{"alias": "bagels", "title": "Bagels"}]}]}
{"total": 166, "businesses": [{"rating": 2.5, "review_count": 47, "name": "CVS Pharmacy", "url": "https://www.yelp.com/biz/cvs-pharmacy-chicago-32?adjust_creative=_xGZBQTFH5RSnMk3I7VtQQ&utm_campaign=yelp_api_v3&utm_medium=api_v3_business_search&utm_source=_xGZBQTFH5RSnMk3I7VtQQ", "price": "$$", "coordinates": {"latitude": 41.799644793466, "longitude": -87.59487184736}, "phone": "+17737521425", "image_url": "https://s3-media2.fl.yelpcdn.com/bphoto/Mt3HqwqWWx_GLzW_fVOQFg/o.jpg", "location": {"city": "Chicago", "country": "US", "address2": "", "address3": "", "state": "IL", "address1": "1228 E 53rd St", "zip_code": "60615"}, "id": "cvs-pharmacy-chicago-32", "categories": [{"alias": "drugstores", "title": "Drugstores"}]}]}
{"total": 166, "businesses": [{"rating": 2.5, "review_count": 11, "name": "Kiddie Kuts", "url": "https://www.yelp.com/biz/kiddie-kuts-chicago?adjust_creative=_xGZBQTFH5RSnMk3I7VtQQ&utm_campaign=yelp_api_v3&utm_medium=api_v3_business_search&utm_source=_xGZBQTFH5RSnMk3I7VtQQ", "price": "$$", "coordinates": {"latitude": 41.8001224, "longitude": -87.5984021}, "phone": "+17732881456", "image_url": "https://s3-media4.fl.yelpcdn.com/bphoto/f7S0JMExZ8kQbigwUYJmWA/o.jpg", "location": {"city": "Chicago", "country": "US", "address2": "", "address3": "", "state": "IL", "address1": "5229 S Woodlawn Ave", "zip_code": "60615"}, "id": "kiddie-kuts-chicago", "categories": [{"alias": "hair", "title": "Hair Salons"}]}]}
{"total": 166, "businesses": [{"rating": 3.0, "review_count": 14, "name": "Sugar Magnolia", "url": "https://www.yelp.com/biz/sugar-magnolia-chicago?adjust_creative=_xGZBQTFH5RSnMk3I7VtQQ&utm_campaign=yelp_api_v3&utm_medium=api_v3_business_search&utm_source=_xGZBQTFH5RSnMk3I7VtQQ", "price": "$$$", "coordinates": {"latitude": 41.9010162353516, "longitude": -87.6270217895508}, "phone": "+13129440885", "image_url": "https://s3-media2.fl.yelpcdn.com/bphoto/NR0X2E4YE2etwOSDP0_B7A/o.jpg", "location": {"city": "Chicago", "country": "US", "address2": "", "address3": "", "state": "IL", "address1": "34 E. Oak Street", "zip_code": "60615"}, "id": "sugar-magnolia-chicago", "categories": [{"alias": "womenscloth", "title": "Women's Clothing"}]}]}
{"total": 166, "businesses": [{"rating": 3.0, "review_count": 1, "name": "Nichols Park", "url": "https://www.yelp.com/biz/nichols-park-chicago?adjust_creative=_xGZBQTFH5RSnMk3I7VtQQ&utm_campaign=yelp_api_v3&utm_medium=api_v3_business_search&utm_source=_xGZBQTFH5RSnMk3I7VtQQ", "coordinates": {"latitude": 41.7973878187005, "longitude": -87.5942730903625}, "phone": "+13127472703", "image_url": "https://s3-media2.fl.yelpcdn.com/bphoto/X3zNou1M0IqvpdV-INrHtQ/o.jpg", "location": {"city": "Chicago", "address1": "1355 E 53rd St", "address2": "", "address3": "", "state": "IL", "country": "US", "zip_code": "60615"}, "id": "nichols-park-chicago", "categories": [{"alias": "parks", "title": "Parks"}]}]}
{"total": 166, "businesses": [{"rating": 2.0, "review_count": 99, "name": "Nicky's Chinese Food", "url": "https://www.yelp.com/biz/nickys-chinese-food-chicago?adjust_creative=_xGZBQTFH5RSnMk3I7VtQQ&utm_campaign=yelp_api_v3&utm_medium=api_v3_business_search&utm_source=_xGZBQTFH5RSnMk3I7VtQQ", "price": "$", "coordinates": {"latitude": 41.800370067358, "longitude": -87.5966046005487}, "phone": "+17733245340", "image_url": "https://s3-media1.fl.yelpcdn.com/bphoto/RuAi1DVRL0CvYxlUuXBrjQ/o.jpg", "location": {"city": "Chicago", "address1": "5231 S Woodlawn Ave", "address2": "", "address3": "", "state": "IL", "country": "US", "zip_code": "60615"}, "id": "nickys-chinese-food-chicago", "categories": [{"alias": "catering", "title": "Caterers"}]}]}
{"total": 166, "businesses": [{"rating": 3.0, "review_count": 1, "name": "Florence Stout Park", "url": "https://www.yelp.com/biz/florence-stout-park-chicago?adjust_creative=_xGZBQTFH5RSnMk3I7VtQQ&utm_campaign=yelp_api_v3&utm_medium=api_v3_business_search&utm_source=_xGZBQTFH5RSnMk3I7VtQQ", "coordinates": {"latitude": 41.796633140736, "longitude": -87.600243149699}, "image_url": "https://s3-media1.fl.yelpcdn.com/bphoto/Fktgetyn5Y7EBkYTWeqzIQ/o.jpg", "location": {"city": "Chicago", "country": "US", "address2": "", "address3": "", "state": "IL", "address1": "5312 S Greenwood", "zip_code": "60615"}, "id": "florence-stout-park-chicago", "categories": [{"alias": "parks", "title": "Parks"}]}]}
{"total": 166, "businesses": [{"rating": 2.5, "review_count": 15, "name": "Kenwood Cleaners", "url": "https://www.yelp.com/biz/kenwood-cleaners-chicago?adjust_creative=_xGZBQTFH5RSnMk3I7VtQQ&utm_campaign=yelp_api_v3&utm_medium=api_v3_business_search&utm_source=_xGZBQTFH5RSnMk3I7VtQQ", "price": "$$", "coordinates": {"latitude": 41.7913251, "longitude": -87.5943125}, "phone": "+17737526155", "image_url": "", "location": {"city": "Chicago", "country": "US", "address2": "", "address3": "", "state": "IL", "address1": "1313 E 57th St", "zip_code": "60637"}, "id": "kenwood-cleaners-chicago", "categories": [{"alias": "drycleaninglaundry", "title": "Dry Cleaning & Laundry"}]}]}
{"total": 166, "businesses": [{"rating": 5.0, "review_count": 3, "name": "Flikk Thornton", "url": "https://www.yelp.com/biz/flikk-thornton-chicago-3?adjust_creative=_xGZBQTFH5RSnMk3I7VtQQ&utm_campaign=yelp_api_v3&utm_medium=api_v3_business_search&utm_source=_xGZBQTFH5RSnMk3I7VtQQ", "coordinates": {"latitude": 41.8019523620605, "longitude": -87.6034698486328}, "phone": "+13123076613", "image_url": "https://s3-media2.fl.yelpcdn.com/bphoto/6DjtYH7RawhUb5EKg7je2A/o.jpg", "location": {"city": "Chicago", "country": "US", "address2": null, "address3": "", "state": "IL", "address1": null, "zip_code": "60615"}, "id": "flikk-thornton-chicago-3", "categories": [{"alias": "eventphotography", "title": "Event Photography"}, {"alias": "sessionphotography", "title": "Session Photography"}]}]}
{"total": 166, "businesses": [{"rating": 5.0, "review_count": 3, "name": "Doulas of Chicago", "url": "https://www.yelp.com/biz/doulas-of-chicago-chicago-2?adjust_creative=_xGZBQTFH5RSnMk3I7VtQQ&utm_campaign=yelp_api_v3&utm_medium=api_v3_business_search&utm_source=_xGZBQTFH5RSnMk3I7VtQQ", "coordinates": {"latitude": 41.8003921, "longitude": -87.603826}, "phone": "+17738162192", "image_url": "https://s3-media3.fl.yelpcdn.com/bphoto/vxTACuXu0lJ7WzaE5VXAzQ/o.jpg", "location": {"city": "Chicago", "country": "US", "address2": null, "address3": "", "state": "IL", "address1": "", "zip_code": "60615"}, "id": "doulas-of-chicago-chicago-2", "categories": [{"alias": "doulas", "title": "Doulas"}, {"alias": "placentaencapsulation", "title": "Placenta Encapsulations"}]}]}
{"total": 166, "businesses": [{"rating": 4.0, "review_count": 4, "name": "Insomnia Cookies", "url": "https://www.yelp.com/biz/insomnia-cookies-chicago-6?adjust_creative=_xGZBQTFH5RSnMk3I7VtQQ&utm_campaign=yelp_api_v3&utm_medium=api_v3_business_search&utm_source=_xGZBQTFH5RSnMk3I7VtQQ", "coordinates": {"latitude": 41.794968098402, "longitude": -87.5994712114334}, "phone": "+18776326654", "image_url": "https://s3-media4.fl.yelpcdn.com/bphoto/X64fi-45wLsUQTQgpE7w3w/o.jpg", "location": {"city": "Chicago", "country": "US", "address2": "", "address3": null, "state": "IL", "address1": "1105 E 55th St", "zip_code": "60615"}, "id": "insomnia-cookies-chicago-6", "categories": [{"alias": "bakeries", "title": "Bakeries"}, {"alias": "icecream", "title": "Ice Cream & Frozen Yogurt"}]}]}
{"total": 166, "businesses": [{"rating": 4.0, "review_count": 2, "name": "St Thomas the Apostle Church", "url": "https://www.yelp.com/biz/st-thomas-the-apostle-church-chicago?adjust_creative=_xGZBQTFH5RSnMk3I7VtQQ&utm_campaign=yelp_api_v3&utm_medium=api_v3_business_search&utm_source=_xGZBQTFH5RSnMk3I7VtQQ", "coordinates": {"latitude": 41.7959363758564, "longitude": -87.5950053334236}, "phone": "+17733242626", "image_url": "https://s3-media3.fl.yelpcdn.com/bphoto/YWpWjarZjo7mgwgfaq_sNg/o.jpg", "location": {"city": "Chicago", "country": "US", "address2": "", "address3": "", "state": "IL", "address1": "5472 S Kimbark Ave", "zip_code": "60615"}, "id": "st-thomas-the-apostle-church-chicago", "categories": [{"alias": "churches", "title": "Churches"}]}]}
{"total": 166, "businesses": [{"rating": 4.0, "review_count": 4, "name": "Chicago Chorale", "url": "https://www.yelp.com/biz/chicago-chorale-chicago?adjust_creative=_xGZBQTFH5RSnMk3I7VtQQ&utm_campaign=yelp_api_v3&utm_medium=api_v3_business_search&utm_source=_xGZBQTFH5RSnMk3I7VtQQ", "coordinates": {"latitude": 41.7954949, "longitude": -87.5994497}, "phone": "+17733066195", "image_url": "https://s3-media4.fl.yelpcdn.com/bphoto/E_B0jsbkYCXpQfqnG1g2pA/o.jpg", "location": {"city": "Chicago", "address1": "1100 E 55th St", "address2": "", "address3": "", "state": "IL", "country": "US", "zip_code": "60615"}, "id": "chicago-chorale-chicago", "categories": [{"alias": "theater", "title": "Performing Arts"}]}]}
{"total": 166, "businesses": [{"rating": 4.0, "review_count": 4, "name": "Henry Crown Field House", "url": "https://www.yelp.com/biz/henry-crown-field-house-chicago?adjust_creative=_xGZBQTFH5RSnMk3I7VtQQ&utm_campaign=yelp_api_v3&utm_medium=api_v3_business_search&utm_source=_xGZBQTFH5RSnMk3I7VtQQ", "coordinates": {"latitude": 41.7935673035275, "longitude": -87.5989691162097}, "phone": "+17737534949", "image_url": "https://s3-media4.fl.yelpcdn.com/bphoto/uc0kwkABXn75IPHP1mYT1A/o.jpg", "location": {"city": "Chicago", "address1": "5550 S University Ave", "address2": "", "address3": "", "state": "IL", "country": "US", "zip_code": "60637"}, "id": "henry-crown-field-house-chicago", "categories": [{"alias": "gyms", "title": "Gyms"}]}]}
{"total": 166, "businesses": [{"rating": 3.0, "review_count": 1, "name": "Chicago Park District", "url": "https://www.yelp.com/biz/chicago-park-district-chicago-36?adjust_creative=_xGZBQTFH5RSnMk3I7VtQQ&utm_campaign=yelp_api_v3&utm_medium=api_v3_business_search&utm_source=_xGZBQTFH5RSnMk3I7VtQQ", "coordinates": {"latitude": 41.8063312768936, "longitude": -87.5934657454491}, "phone": "+17732847029", "image_url": "https://s3-media2.fl.yelpcdn.com/bphoto/Oy8Ia67eWdOQoeayBEvFWw/o.jpg", "location": {"city": "Chicago", "country": "US", "address2": "", "address3": "", "state": "IL", "address1": "4901 S Kenwood Avenue", "zip_code": "60615"}, "id": "chicago-park-district-chicago-36", "categories": [{"alias": "parks", "title": "Parks"}]}]}
{"total": 166, "businesses": [{"rating": 5.0, "review_count": 2, "name": "Marsha's Music", "url": "https://www.yelp.com/biz/marshas-music-chicago-2?adjust_creative=_xGZBQTFH5RSnMk3I7VtQQ&utm_campaign=yelp_api_v3&utm_medium=api_v3_business_search&utm_source=_xGZBQTFH5RSnMk3I7VtQQ", "price": "$$", "coordinates": {"latitude": 41.79557, "longitude": -87.593391}, "phone": "+17732883815", "image_url": "https://s3-media4.fl.yelpcdn.com/bphoto/NQv0u1SlGGCnMywqz1Twdw/o.jpg", "location": {"city": "Chicago", "address1": "Hyde Park Neighborhood Club", "address2": "5480 S Kenwood Ave", "address3": "", "state": "IL", "country": "US", "zip_code": "60615"}, "id": "marshas-music-chicago-2", "categories": [{"alias": "musicalinstrumentsandteachers", "title": "Musical Instruments & Teachers"}]}]}
{"total": 166, "businesses": [{"rating": 5.0, "review_count": 1, "name": "Frank G Avellone", "url": "https://www.yelp.com/biz/frank-g-avellone-chicago?adjust_creative=_xGZBQTFH5RSnMk3I7VtQQ&utm_campaign=yelp_api_v3&utm_medium=api_v3_business_search&utm_source=_xGZBQTFH5RSnMk3I7VtQQ", "coordinates": {"latitude": 41.7991485595703, "longitude": -87.5960083007812}, "image_url": "", "location": {"city": "Chicago", "country": "US", "address2": "Ste 2", "address3": "", "state": "IL", "address1": "1213 E 53rd St", "zip_code": "60615"}, "id": "frank-g-avellone-chicago", "categories": [{"alias": "realestatelawyers", "title": "Real Estate Law"}, {"alias": "bankruptcy", "title": "Bankruptcy Law"}, {"alias": "general_litigation", "title": "General Litigation"}]}]}
{"total": 166, "businesses": [{"rating": 4.5, "review_count": 8, "name": "First Unitarian Church of Chicago", "url": "https://www.yelp.com/biz/first-unitarian-church-of-chicago-chicago?adjust_creative=_xGZBQTFH5RSnMk3I7VtQQ&utm_campaign=yelp_api_v3&utm_medium=api_v3_business_search&utm_source=_xGZBQTFH5RSnMk3I7VtQQ", "coordinates": {"latitude": 41.7918278, "longitude": -87.5965849}, "phone": "+17733244100", "image_url": "https://s3-media4.fl.yelpcdn.com/bphoto/NgtnO7U21il0Z--WRecLtQ/o.jpg", "location": {"city": "Chicago", "address1": "5650 S Woodlawn Ave", "address2": "", "address3": "", "state": "IL", "country": "US", "zip_code": "60637"}, "id": "first-unitarian-church-of-chicago-chicago", "categories": [{"alias": "churches", "title": "Churches"}]}]}
{"total": 166, "businesses": [{"rating": 2.5, "review_count": 13, "name": "Nail Masters", "url": "https://www.yelp.com/biz/nail-masters-chicago?adjust_creative=_xGZBQTFH5RSnMk3I7VtQQ&utm_campaign=yelp_api_v3&utm_medium=api_v3_business_search&utm_source=_xGZBQTFH5RSnMk3I7VtQQ", "price": "$", "coordinates": {"latitude": 41.8029858916998, "longitude": -87.606502622366}, "phone": "+17735366245", "image_url": "https://s3-media1.fl.yelpcdn.com/bphoto/4FX5cg0TKPvpmu8NZ8y9BA/o.jpg", "location": {"city": "Chicago", "address1": "5038 S Cottage Grove Ave", "address2": "", "address3": "", "state": "IL", "country": "US", "zip_code": "60615"}, "id": "nail-masters-chicago", "categories": [{"alias": "othersalons", "title": "Nail Salons"}]}]}
{"total": 166, "businesses": [{"rating": 5.0, "review_count": 1, "name": "Hyde Park Neighborhood Club", "url": "https://www.yelp.com/biz/hyde-park-neighborhood-club-chicago?adjust_creative=_xGZBQTFH5RSnMk3I7VtQQ&utm_campaign=yelp_api_v3&utm_medium=api_v3_business_search&utm_source=_xGZBQTFH5RSnMk3I7VtQQ", "coordinates": {"latitude": 41.795528, "longitude": -87.593795}, "phone": "+17736434062", "image_url": "", "location": {"city": "Chicago", "address1": "5480 S Kenwood Ave", "address2": "", "address3": "", "state": "IL", "country": "US", "zip_code": "60615"}, "id": "hyde-park-neighborhood-club-chicago", "categories": [{"alias": "childcare", "title": "Child Care & Day Care"}]}]}
{"total": 166, "businesses": [{"rating": 5.0, "review_count": 1, "name": "KAM Isaiah Israel Nursery School", "url": "https://www.yelp.com/biz/kam-isaiah-israel-nursery-school-chicago?adjust_creative=_xGZBQTFH5RSnMk3I7VtQQ&utm_campaign=yelp_api_v3&utm_medium=api_v3_business_search&utm_source=_xGZBQTFH5RSnMk3I7VtQQ", "coordinates": {"latitude": 41.8026735186795, "longitude": -87.598633179432}, "phone": "+17739241234", "image_url": "https://s3-media4.fl.yelpcdn.com/bphoto/M6k35vtUt0XmEgn9seEXeA/o.jpg", "location": {"city": "Chicago", "address1": "1100 E Hyde Park Blvd", "address2": "", "address3": "", "state": "IL", "country": "US", "zip_code": "60615"}, "id": "kam-isaiah-israel-nursery-school-chicago", "categories": [{"alias": "preschools", "title": "Preschools"}]}]}
{"total": 166, "businesses": [{"rating": 5.0, "review_count": 1, "name": "Augustana Lutheran Church", "url": "https://www.yelp.com/biz/augustana-lutheran-church-chicago?adjust_creative=_xGZBQTFH5RSnMk3I7VtQQ&utm_campaign=yelp_api_v3&utm_medium=api_v3_business_search&utm_source=_xGZBQTFH5RSnMk3I7VtQQ", "coordinates": {"latitude": 41.794840300089, "longitude": -87.597533658951}, "phone": "+17734936451", "image_url": "", "location": {"city": "Chicago", "country": "US", "address2": "", "address3": "", "state": "IL", "address1": "5500 S Woodlawn Ave", "zip_code": "60637"}, "id": "augustana-lutheran-church-chicago", "categories": [{"alias": "churches", "title": "Churches"}]}]}
{"total": 166, "businesses": [{"rating": 5.0, "review_count": 1, "name": "Arifa's Kitchen", "url": "https://www.yelp.com/biz/arifas-kitchen-chicago?adjust_creative=_xGZBQTFH5RSnMk3I7VtQQ&utm_campaign=yelp_api_v3&utm_medium=api_v3_business_search&utm_source=_xGZBQTFH5RSnMk3I7VtQQ", "coordinates": {"latitude": 41.799801, "longitude": -87.592903}, "image_url": "", "location": {"city": "Chicago", "country": "US", "address2": "", "address3": "", "state": "IL", "address1": "1350 E 53rd St", "zip_code": "60615"}, "id": "arifas-kitchen-chicago", "categories": [{"alias": "bakeries", "title": "Bakeries"}]}]}
{"total": 166, "businesses": [{"rating": 5.0, "review_count": 1, "name": "Minute Clinic", "url": "https://www.yelp.com/biz/minute-clinic-chicago-3?adjust_creative=_xGZBQTFH5RSnMk3I7VtQQ&utm_campaign=yelp_api_v3&utm_medium=api_v3_business_search&utm_source=_xGZBQTFH5RSnMk3I7VtQQ", "coordinates": {"latitude": 41.7995872, "longitude": -87.5952835}, "phone": "+18663892727", "image_url": "", "location": {"city": "Chicago", "country": "US", "address2": "", "address3": "", "state": "IL", "address1": "1228 E 53rd St", "zip_code": "60637"}, "id": "minute-clinic-chicago-3", "categories": [{"alias": "medcenters", "title": "Medical Centers"}]}]}
{"total": 166, "businesses": [{"rating": 5.0, "review_count": 1, "name": "University of Chicago Library", "url": "https://www.yelp.com/biz/the-university-of-chicago-library-chicago?adjust_creative=_xGZBQTFH5RSnMk3I7VtQQ&utm_campaign=yelp_api_v3&utm_medium=api_v3_business_search&utm_source=_xGZBQTFH5RSnMk3I7VtQQ", "coordinates": {"latitude": 41.7923796, "longitude": -87.6000559}, "phone": "+17737028740", "image_url": "", "location": {"city": "Chicago", "address1": "1100 E 57th St", "address2": null, "address3": null, "state": "IL", "country": "US", "zip_code": "60637"}, "id": "the-university-of-chicago-library-chicago", "categories": [{"alias": "collegeuniv", "title": "Colleges & Universities"}, {"alias": "libraries", "title": "Libraries"}]}]}
{"total": 166, "businesses": [{"rating": 5.0, "review_count": 3, "name": "Little People Learning Center", "url": "https://www.yelp.com/biz/little-people-learning-center-chicago?adjust_creative=_xGZBQTFH5RSnMk3I7VtQQ&utm_campaign=yelp_api_v3&utm_medium=api_v3_business_search&utm_source=_xGZBQTFH5RSnMk3I7VtQQ", "coordinates": {"latitude": 41.7918500304222, "longitude": -87.5965174287558}, "phone": "+17739559942", "image_url": "", "location": {"city": "Chicago", "address1": "5650 S Woodlawn Ave", "address2": "", "address3": "", "state": "IL", "country": "US", "zip_code": "60637"}, "id": "little-people-learning-center-chicago", "categories": [{"alias": "childcare", "title": "Child Care & Day Care"}]}]}
{"total": 166, "businesses": [{"rating": 2.0, "review_count": 87, "name": "Mac Properties", "url": "https://www.yelp.com/biz/mac-properties-chicago-2?adjust_creative=_xGZBQTFH5RSnMk3I7VtQQ&utm_campaign=yelp_api_v3&utm_medium=api_v3_business_search&utm_source=_xGZBQTFH5RSnMk3I7VtQQ", "coordinates": {"latitude": 41.7996249, "longitude": -87.592605}, "phone": "+17735485077", "image_url": "https://s3-media4.fl.yelpcdn.com/bphoto/JmHbyZsaaGf-6sjYjiJjQQ/o.jpg", "location": {"city": "Chicago", "country": "US", "address2": "", "address3": "", "state": "IL", "address1": "1364 E 53rd St", "zip_code": "60615"}, "id": "mac-properties-chicago-2", "categories": [{"alias": "apartments", "title": "Apartments"}]}]}
{"total": 166, "businesses": [{"rating": 5.0, "review_count": 1, "name": "Another Barber Shop", "url": "https://www.yelp.com/biz/another-barber-shop-chicago?adjust_creative=_xGZBQTFH5RSnMk3I7VtQQ&utm_campaign=yelp_api_v3&utm_medium=api_v3_business_search&utm_source=_xGZBQTFH5RSnMk3I7VtQQ", "price": "$$", "coordinates": {"latitude": 41.8094889074564, "longitude": -87.6055987179279}, "phone": "+17739241207", "image_url": "https://s3-media1.fl.yelpcdn.com/bphoto/EoWHKIczswBNVeZ2DZBNGg/o.jpg", "location": {"city": "Chicago", "address1": "843 E 47th St", "address2": "", "address3": "", "state": "IL", "country": "US", "zip_code": "60653"}, "id": "another-barber-shop-chicago", "categories": [{"alias": "barbers", "title": "Barbers"}]}]}
{"total": 166, "businesses": [{"rating": 5.0, "review_count": 2, "name": "University of Chicago Folk Festival", "url": "https://www.yelp.com/biz/university-of-chicago-folk-festival-chicago?adjust_creative=_xGZBQTFH5RSnMk3I7VtQQ&utm_campaign=yelp_api_v3&utm_medium=api_v3_business_search&utm_source=_xGZBQTFH5RSnMk3I7VtQQ", "coordinates": {"latitude": 41.7913585156202, "longitude": -87.5987610965967}, "phone": "+17737027300", "image_url": "", "location": {"city": "Chicago", "country": "US", "address2": "", "address3": "", "state": "IL", "address1": "1131 E 57th St", "zip_code": "60686"}, "id": "university-of-chicago-folk-festival-chicago", "categories": [{"alias": "festivals", "title": "Festivals"}]}]}
{"total": 166, "businesses": [{"rating": 5.0, "review_count": 1, "name": "The Reluctant Vegetarian", "url": "https://www.yelp.com/biz/the-reluctant-vegetarian-chicago?adjust_creative=_xGZBQTFH5RSnMk3I7VtQQ&utm_campaign=yelp_api_v3&utm_medium=api_v3_business_search&utm_source=_xGZBQTFH5RSnMk3I7VtQQ", "coordinates": {"latitude": 41.7927955091, "longitude": -87.5964121520519}, "phone": "+13125138610", "image_url": "https://s3-media1.fl.yelpcdn.com/bphoto/XPxDYgTEHZBNS_huyiW-lQ/o.jpg", "location": {"city": "Chicago", "country": "US", "address2": "Ste 300", "address3": "", "state": "IL", "address1": "5615 S Woodlawn Ave", "zip_code": "60637"}, "id": "the-reluctant-vegetarian-chicago", "categories": [{"alias": "personalchefs", "title": "Personal Chefs"}]}]}
{"total": 166, "businesses": [{"rating": 5.0, "review_count": 1, "name": "A Paw Place", "url": "https://www.yelp.com/biz/a-paw-place-chicago-2?adjust_creative=_xGZBQTFH5RSnMk3I7VtQQ&utm_campaign=yelp_api_v3&utm_medium=api_v3_business_search&utm_source=_xGZBQTFH5RSnMk3I7VtQQ", "coordinates": {"latitude": 41.8019523620605, "longitude": -87.6034698486328}, "phone": "+17085168038", "image_url": "https://s3-media2.fl.yelpcdn.com/bphoto/PN61OSnJehUpWMm9kPcqKA/o.jpg", "location": {"city": "Chicago", "address1": "", "address2": null, "address3": "", "state": "IL", "country": "US", "zip_code": "60615"}, "id": "a-paw-place-chicago-2", "categories": [{"alias": "dogwalkers", "title": "Dog Walkers"}, {"alias": "pet_sitting", "title": "Pet Boarding/Pet Sitting"}, {"alias": "petstore", "title": "Pet Stores"}]}]}
{"total": 166, "businesses": [{"rating": 2.5, "review_count": 21, "name": "Kimbark Plaza Coin Laundry", "url": "https://www.yelp.com/biz/kimbark-plaza-coin-laundry-chicago?adjust_creative=_xGZBQTFH5RSnMk3I7VtQQ&utm_campaign=yelp_api_v3&utm_medium=api_v3_business_search&utm_source=_xGZBQTFH5RSnMk3I7VtQQ", "price": "$$", "coordinates": {"latitude": 41.7995886, "longitude": -87.5956703}, "phone": "+17734933320", "image_url": "https://s3-media3.fl.yelpcdn.com/bphoto/-mgzDa2Pe1EizWQq5Ye1sg/o.jpg", "location": {"city": "Chicago", "country": "US", "address2": "", "address3": "", "state": "IL", "address1": "1218 E 53rd St", "zip_code": "60615"}, "id": "kimbark-plaza-coin-laundry-chicago", "categories": [{"alias": "drycleaninglaundry", "title": "Dry Cleaning & Laundry"}]}]}
{"total": 166, "businesses": [{"rating": 5.0, "review_count": 3, "name": "Tech Box", "url": "https://www.yelp.com/biz/tech-box-chicago-2?adjust_creative=_xGZBQTFH5RSnMk3I7VtQQ&utm_campaign=yelp_api_v3&utm_medium=api_v3_business_search&utm_source=_xGZBQTFH5RSnMk3I7VtQQ", "price": "$$", "coordinates": {"latitude": 41.7950666, "longitude": -87.5851647}, "phone": "+17732675588", "image_url": "https://s3-media2.fl.yelpcdn.com/bphoto/6iPohFsgBZntqG4nIMH4ow/o.jpg", "location": {"city": "Chicago", "address1": "1623 E 55th St", "address2": "", "address3": "", "state": "IL", "country": "US", "zip_code": "60615"}, "id": "tech-box-chicago-2", "categories": [{"alias": "mobilephonerepair", "title": "Mobile Phone Repair"}]}]}
{"total": 166, "businesses": [{"rating": 5.0, "review_count": 1, "name": "Xs Tennis Inc", "url": "https://www.yelp.com/biz/xs-tennis-inc-chicago?adjust_creative=_xGZBQTFH5RSnMk3I7VtQQ&utm_campaign=yelp_api_v3&utm_medium=api_v3_business_search&utm_source=_xGZBQTFH5RSnMk3I7VtQQ", "coordinates": {"latitude": 41.8091814015851, "longitude": -87.5937221575567}, "phone": "+17735487529", "image_url": "", "location": {"city": "Chicago", "country": "US", "address2": null, "address3": null, "state": "IL", "address1": "1301 E 47th St", "zip_code": "60653"}, "id": "xs-tennis-inc-chicago", "categories": [{"alias": "tennis", "title": "Tennis"}]}]}
{"total": 166, "businesses": [{"rating": 3.5, "review_count": 2, "name": "The Property Law Group", "url": "https://www.yelp.com/biz/the-property-law-group-chicago?adjust_creative=_xGZBQTFH5RSnMk3I7VtQQ&utm_campaign=yelp_api_v3&utm_medium=api_v3_business_search&utm_source=_xGZBQTFH5RSnMk3I7VtQQ", "coordinates": {"latitude": 41.8096053, "longitude": -87.6000501}, "phone": "+17732684940", "image_url": "", "location": {"city": "Chicago", "address1": "1038 E 47th St", "address2": "Ste 2N", "address3": "", "state": "IL", "country": "US", "zip_code": "60653"}, "id": "the-property-law-group-chicago", "categories": [{"alias": "realestatelawyers", "title": "Real Estate Law"}]}]}
{"total": 166, "businesses": [{"rating": 5.0, "review_count": 1, "name": "Aural Tradition", "url": "https://www.yelp.com/biz/aural-tradition-chicago?adjust_creative=_xGZBQTFH5RSnMk3I7VtQQ&utm_campaign=yelp_api_v3&utm_medium=api_v3_business_search&utm_source=_xGZBQTFH5RSnMk3I7VtQQ", "coordinates": {"latitude": 41.8019523620605, "longitude": -87.6034698486328}, "image_url": "", "location": {"city": "Chicago", "country": "US", "address2": "", "address3": "", "state": "IL", "address1": "", "zip_code": "60615"}, "id": "aural-tradition-chicago", "categories": [{"alias": "musicvenues", "title": "Music Venues"}]}]}
{"total": 166, "businesses": [{"rating": 3.5, "review_count": 2, "name": "Lutheran School of Theology", "url": "https://www.yelp.com/biz/lutheran-school-of-theology-chicago?adjust_creative=_xGZBQTFH5RSnMk3I7VtQQ&utm_campaign=yelp_api_v3&utm_medium=api_v3_business_search&utm_source=_xGZBQTFH5RSnMk3I7VtQQ", "coordinates": {"latitude": 41.7954949, "longitude": -87.5994497}, "phone": "+17737530700", "image_url": "https://s3-media1.fl.yelpcdn.com/bphoto/3ET8Y8YwNDdMFPKcekKqlA/o.jpg", "location": {"city": "Chicago", "country": "US", "address2": "", "address3": "", "state": "IL", "address1": "1100 E 55th St", "zip_code": "60615"}, "id": "lutheran-school-of-theology-chicago", "categories": [{"alias": "collegeuniv", "title": "Colleges & Universities"}]}]}
{"total": 166, "businesses": [{"rating": 2.0, "review_count": 1, "name": "Subway", "url": "https://www.yelp.com/biz/subway-chicago-198?adjust_creative=_xGZBQTFH5RSnMk3I7VtQQ&utm_campaign=yelp_api_v3&utm_medium=api_v3_business_search&utm_source=_xGZBQTFH5RSnMk3I7VtQQ", "coordinates": {"latitude": 41.7911835, "longitude": -87.5982285}, "phone": "+17738341018", "image_url": "", "location": {"city": "Chicago", "country": "US", "address2": "", "address3": "", "state": "IL", "address1": "5706 University Ave", "zip_code": "60637"}, "id": "subway-chicago-198", "categories": [{"alias": "hotdogs", "title": "Fast Food"}, {"alias": "sandwiches", "title": "Sandwiches"}]}]}
{"total": 166, "businesses": [{"rating": 3.0, "review_count": 2, "name": "Hutchinson Commons", "url": "https://www.yelp.com/biz/hutchinson-commons-chicago?adjust_creative=_xGZBQTFH5RSnMk3I7VtQQ&utm_campaign=yelp_api_v3&utm_medium=api_v3_business_search&utm_source=_xGZBQTFH5RSnMk3I7VtQQ", "coordinates": {"latitude": 41.7911835, "longitude": -87.5982285}, "phone": "+17738341018", "image_url": "", "location": {"city": "Chicago", "address1": "5706 S University Ave", "address2": "", "address3": "", "state": "IL", "country": "US", "zip_code": "60637"}, "id": "hutchinson-commons-chicago", "categories": [{"alias": "afghani", "title": "Afghan"}, {"alias": "indpak", "title": "Indian"}]}]}
{"total": 166, "businesses": [{"rating": 2.0, "review_count": 23, "name": "FedEx Office Print & Ship Center", "url": "https://www.yelp.com/biz/fedex-office-print-and-ship-center-chicago-25?adjust_creative=_xGZBQTFH5RSnMk3I7VtQQ&utm_campaign=yelp_api_v3&utm_medium=api_v3_business_search&utm_source=_xGZBQTFH5RSnMk3I7VtQQ", "coordinates": {"latitude": 41.791259, "longitude": -87.594132}, "phone": "+17736432424", "image_url": "https://s3-media1.fl.yelpcdn.com/bphoto/A-EsTM1tK0KozY1iTN3DYA/o.jpg", "location": {"city": "Chicago", "country": "US", "address2": "", "address3": "", "state": "IL", "address1": "1315 E 57th St", "zip_code": "60637"}, "id": "fedex-office-print-and-ship-center-chicago-25", "categories": [{"alias": "shipping_centers", "title": "Shipping Centers"}, {"alias": "copyshops", "title": "Printing Services"}, {"alias": "signmaking", "title": "Signmaking"}]}]}
{"total": 166, "businesses": [{"rating": 2.0, "review_count": 24, "name": "Walmart Neighborhood Market", "url": "https://www.yelp.com/biz/walmart-neighborhood-market-chicago-47th-and-cottage?adjust_creative=_xGZBQTFH5RSnMk3I7VtQQ&utm_campaign=yelp_api_v3&utm_medium=api_v3_business_search&utm_source=_xGZBQTFH5RSnMk3I7VtQQ", "price": "$", "coordinates": {"latitude": 41.8088153656966, "longitude": -87.6069021227539}, "phone": "+17734200081", "image_url": "https://s3-media3.fl.yelpcdn.com/bphoto/gfAz-TnZyLP-qctRFjhr3Q/o.jpg", "location": {"city": "Chicago (47th & Cottage)", "country": "US", "address2": null, "address3": null, "state": "IL", "address1": "4720 S Cottage Grove Ave", "zip_code": "60653"}, "id": "walmart-neighborhood-market-chicago-47th-and-cottage", "categories": [{"alias": "drugstores", "title": "Drugstores"}, {"alias": "grocery", "title": "Grocery"}]}]}
{"total": 166, "businesses": [{"rating": 3.5, "review_count": 3, "name": "Clips Cuts & More", "url": "https://www.yelp.com/biz/clips-cuts-and-more-chicago?adjust_creative=_xGZBQTFH5RSnMk3I7VtQQ&utm_campaign=yelp_api_v3&utm_medium=api_v3_business_search&utm_source=_xGZBQTFH5RSnMk3I7VtQQ", "price": "$$", "coordinates": {"latitude": 41.8064902, "longitude": -87.6066449}, "phone": "+17733733277", "image_url": "", "location": {"city": "Chicago", "address1": "4852 S Cottage Grove Ave", "address2": "", "address3": "", "state": "IL", "country": "US", "zip_code": "60615"}, "id": "clips-cuts-and-more-chicago", "categories": [{"alias": "hairremoval", "title": "Hair Removal"}, {"alias": "hair", "title": "Hair Salons"}]}]}
{"total": 166, "businesses": [{"rating": 2.5, "review_count": 4, "name": "U-Haul", "url": "https://www.yelp.com/biz/u-haul-chicago-9?adjust_creative=_xGZBQTFH5RSnMk3I7VtQQ&utm_campaign=yelp_api_v3&utm_medium=api_v3_business_search&utm_source=_xGZBQTFH5RSnMk3I7VtQQ", "coordinates": {"latitude": 41.8012031, "longitude": -87.6061787}, "phone": "+17732561793", "image_url": "", "location": {"city": "Chicago", "address1": "5155 S Cottage Grove Ave", "address2": "", "address3": "", "state": "IL", "country": "US", "zip_code": "60615"}, "id": "u-haul-chicago-9", "categories": [{"alias": "selfstorage", "title": "Self Storage"}, {"alias": "truck_rental", "title": "Truck Rental"}]}]}
{"total": 166, "businesses": [{"rating": 3.5, "review_count": 2, "name": "Nordica Group", "url": "https://www.yelp.com/biz/nordica-group-chicago?adjust_creative=_xGZBQTFH5RSnMk3I7VtQQ&utm_campaign=yelp_api_v3&utm_medium=api_v3_business_search&utm_source=_xGZBQTFH5RSnMk3I7VtQQ", "coordinates": {"latitude": 41.80239, "longitude": -87.59502}, "phone": "+17736845030", "image_url": "", "location": {"city": "Chicago", "country": "US", "address2": "", "address3": "", "state": "IL", "address1": "Hyde Park Blvd", "zip_code": "60615"}, "id": "nordica-group-chicago", "categories": [{"alias": "apartments", "title": "Apartments"}]}]}
{"total": 166, "businesses": [{"rating": 2.5, "review_count": 4, "name": "Walgreens", "url": "https://www.yelp.com/biz/walgreens-chicago-209?adjust_creative=_xGZBQTFH5RSnMk3I7VtQQ&utm_campaign=yelp_api_v3&utm_medium=api_v3_business_search&utm_source=_xGZBQTFH5RSnMk3I7VtQQ", "price": "$$", "coordinates": {"latitude": 41.80296, "longitude": -87.60693}, "phone": "+17733736266", "image_url": "https://s3-media1.fl.yelpcdn.com/bphoto/_j0PrhGxiB8SaxZkr7YFHw/o.jpg", "location": {"city": "Chicago", "address1": "5036 S Cottage Grove Ave", "address2": "", "address3": "", "state": "IL", "country": "US", "zip_code": "60615"}, "id": "walgreens-chicago-209", "categories": [{"alias": "drugstores", "title": "Drugstores"}, {"alias": "photographystores", "title": "Photography Stores & Services"}, {"alias": "cosmetics", "title": "Cosmetics & Beauty Supply"}, {"alias": "convenience", "title": "Convenience Stores"}]}]}
{"total": 166, "businesses": [{"rating": 1.0, "review_count": 2, "name": "55th street Shopping Mall Parking Lot", "url": "https://www.yelp.com/biz/55th-street-shopping-mall-parking-lot-chicago?adjust_creative=_xGZBQTFH5RSnMk3I7VtQQ&utm_campaign=yelp_api_v3&utm_medium=api_v3_business_search&utm_source=_xGZBQTFH5RSnMk3I7VtQQ", "coordinates": {"latitude": 41.79513, "longitude": -87.59275}, "image_url": "", "location": {"city": "Chicago", "country": "US", "address2": "", "address3": "", "state": "IL", "address1": "55th street", "zip_code": "60615"}, "id": "55th-street-shopping-mall-parking-lot-chicago", "categories": [{"alias": "localflavor", "title": "Local Flavor"}]}]}
{"total": 166, "businesses": [{"rating": 4.0, "review_count": 1, "name": "The Beadle Residences", "url": "https://www.yelp.com/biz/the-beadle-residences-chicago-2?adjust_creative=_xGZBQTFH5RSnMk3I7VtQQ&utm_campaign=yelp_api_v3&utm_medium=api_v3_business_search&utm_source=_xGZBQTFH5RSnMk3I7VtQQ", "price": "$$", "coordinates": {"latitude": 41.8011131286621, "longitude": -87.5938949584961}, "phone": "+17734935140", "image_url": "https://s3-media3.fl.yelpcdn.com/bphoto/w7N9d85zMKpk1YfV69jamw/o.jpg", "location": {"city": "Chicago", "country": "US", "address2": "Ste 102", "address3": "", "state": "IL", "address1": "5140 S Kenwood Ave", "zip_code": "60615"}, "id": "the-beadle-residences-chicago-2", "categories": [{"alias": "apartments", "title": "Apartments"}]}]}
{"total": 166, "businesses": [{"rating": 3.0, "review_count": 2, "name": "Pangea Real Estate", "url": "https://www.yelp.com/biz/pangea-real-estate-chicago-13?adjust_creative=_xGZBQTFH5RSnMk3I7VtQQ&utm_campaign=yelp_api_v3&utm_medium=api_v3_business_search&utm_source=_xGZBQTFH5RSnMk3I7VtQQ", "coordinates": {"latitude": 41.8056183, "longitude": -87.603302}, "phone": "+13129850559", "image_url": "https://s3-media1.fl.yelpcdn.com/bphoto/r22oBcUEJNfRUdV_eo3sFw/o.jpg", "location": {"city": "Chicago", "country": "US", "address2": null, "address3": null, "state": "IL", "address1": "4901 S Drexel Blvd", "zip_code": "60615"}, "id": "pangea-real-estate-chicago-13", "categories": [{"alias": "realestatesvcs", "title": "Real Estate Services"}, {"alias": "apartments", "title": "Apartments"}, {"alias": "propertymgmt", "title": "Property Management"}]}]}
{"total": 166, "businesses": [{"rating": 4.0, "review_count": 1, "name": "Disciples Divinity House", "url": "https://www.yelp.com/biz/disciples-divinity-house-chicago?adjust_creative=_xGZBQTFH5RSnMk3I7VtQQ&utm_campaign=yelp_api_v3&utm_medium=api_v3_business_search&utm_source=_xGZBQTFH5RSnMk3I7VtQQ", "coordinates": {"latitude": 41.7915449, "longitude": -87.597773}, "phone": "+17736434411", "image_url": "", "location": {"city": "Chicago", "address1": "University Of Chicago", "address2": "1156 E 57th St", "address3": "", "state": "IL", "country": "US", "zip_code": "60637"}, "id": "disciples-divinity-house-chicago", "categories": [{"alias": "religiousschools", "title": "Religious Schools"}]}]}
{"total": 166, "businesses": [{"rating": 4.0, "review_count": 1, "name": "Chicago Carifete 2010", "url": "https://www.yelp.com/biz/chicago-carifete-2010-chicago?adjust_creative=_xGZBQTFH5RSnMk3I7VtQQ&utm_campaign=yelp_api_v3&utm_medium=api_v3_business_search&utm_source=_xGZBQTFH5RSnMk3I7VtQQ", "coordinates": {"latitude": 41.78042, "longitude": -87.59809}, "phone": "+12249441444", "image_url": "", "location": {"city": "Chicago", "country": "US", "address2": "", "address3": "", "state": "IL", "address1": "Hyde Park", "zip_code": "60637"}, "id": "chicago-carifete-2010-chicago", "categories": [{"alias": "festivals", "title": "Festivals"}]}]}
{"total": 166, "businesses": [{"rating": 2.0, "review_count": 6, "name": "Sister Nail Salon and Spa", "url": "https://www.yelp.com/biz/sister-nail-salon-and-spa-chicago?adjust_creative=_xGZBQTFH5RSnMk3I7VtQQ&utm_campaign=yelp_api_v3&utm_medium=api_v3_business_search&utm_source=_xGZBQTFH5RSnMk3I7VtQQ", "price": "$$", "coordinates": {"latitude": 41.802627, "longitude": -87.607109}, "phone": "+17736240777", "image_url": "https://s3-media1.fl.yelpcdn.com/bphoto/z6MwLH6gMxDbY7SsNJa81A/o.jpg", "location": {"city": "Chicago", "country": "US", "address2": "", "address3": "", "state": "IL", "address1": "5042 S Cottage Grove Ave", "zip_code": "60615"}, "id": "sister-nail-salon-and-spa-chicago", "categories": [{"alias": "othersalons", "title": "Nail Salons"}]}]}
{"total": 166, "businesses": [{"rating": 2.0, "review_count": 8, "name": "McKey & Poague", "url": "https://www.yelp.com/biz/mckey-and-poague-chicago?adjust_creative=_xGZBQTFH5RSnMk3I7VtQQ&utm_campaign=yelp_api_v3&utm_medium=api_v3_business_search&utm_source=_xGZBQTFH5RSnMk3I7VtQQ", "coordinates": {"latitude": 41.7952449, "longitude": -87.5934375}, "phone": "+17733636200", "image_url": "", "location": {"city": "Chicago", "country": "US", "address2": "", "address3": "", "state": "IL", "address1": "1348 E 55th St", "zip_code": "60615"}, "id": "mckey-and-poague-chicago", "categories": [{"alias": "propertymgmt", "title": "Property Management"}]}]}
{"total": 166, "businesses": [{"rating": 3.0, "review_count": 3, "name": "William H. Ray Elementary School", "url": "https://www.yelp.com/biz/william-h-ray-elementary-school-chicago?adjust_creative=_xGZBQTFH5RSnMk3I7VtQQ&utm_campaign=yelp_api_v3&utm_medium=api_v3_business_search&utm_source=_xGZBQTFH5RSnMk3I7VtQQ", "coordinates": {"latitude": 41.7926612, "longitude": -87.5946795}, "phone": "+17735350970", "image_url": "https://s3-media2.fl.yelpcdn.com/bphoto/rvLLdgaN3743RYsDqSSYpQ/o.jpg", "location": {"city": "Chicago", "address1": "5631 S Kimbark", "address2": "", "address3": "", "state": "IL", "country": "US", "zip_code": "60637"}, "id": "william-h-ray-elementary-school-chicago", "categories": [{"alias": "preschools", "title": "Preschools"}, {"alias": "elementaryschools", "title": "Elementary Schools"}]}]}
{"total": 166, "businesses": [{"rating": 4.0, "review_count": 1, "name": "Mamisma", "url": "https://www.yelp.com/biz/mamisma-chicago?adjust_creative=_xGZBQTFH5RSnMk3I7VtQQ&utm_campaign=yelp_api_v3&utm_medium=api_v3_business_search&utm_source=_xGZBQTFH5RSnMk3I7VtQQ", "coordinates": {"latitude": 41.8019523620605, "longitude": -87.6034698486328}, "image_url": "https://s3-media3.fl.yelpcdn.com/bphoto/LJPxe5h4Bi1JH54t-ofXSg/o.jpg", "location": {"city": "Chicago", "country": "US", "address2": null, "address3": "", "state": "IL", "address1": null, "zip_code": "60615"}, "id": "mamisma-chicago", "categories": [{"alias": "fooddeliveryservices", "title": "Food Delivery Services"}]}]}
{"total": 166, "businesses": [{"rating": 2.5, "review_count": 5, "name": "Peace of Mind Properties Law Offices - Ebony Wilkerson", "url": "https://www.yelp.com/biz/peace-of-mind-properties-law-offices-ebony-wilkerson-chicago?adjust_creative=_xGZBQTFH5RSnMk3I7VtQQ&utm_campaign=yelp_api_v3&utm_medium=api_v3_business_search&utm_source=_xGZBQTFH5RSnMk3I7VtQQ", "coordinates": {"latitude": 41.8097267, "longitude": -87.5999146}, "phone": "+13126722299", "image_url": "", "location": {"city": "Chicago", "country": "US", "address2": "", "address3": "", "state": "IL", "address1": "1038 E 47th St", "zip_code": "60653"}, "id": "peace-of-mind-properties-law-offices-ebony-wilkerson-chicago", "categories": [{"alias": "lawyers", "title": "Lawyers"}]}]}
{"total": 166, "businesses": [{"rating": 4.5, "review_count": 3, "name": "Aimee's Pet Care", "url": "https://www.yelp.com/biz/aimees-pet-care-chicago?adjust_creative=_xGZBQTFH5RSnMk3I7VtQQ&utm_campaign=yelp_api_v3&utm_medium=api_v3_business_search&utm_source=_xGZBQTFH5RSnMk3I7VtQQ", "coordinates": {"latitude": 41.8003921, "longitude": -87.603826}, "phone": "+17082885620", "image_url": "https://s3-media3.fl.yelpcdn.com/bphoto/25up6WG3vMlOmO_nMXKaoA/o.jpg", "location": {"city": "Chicago", "address1": "Hyde Park", "address2": "", "address3": "", "state": "IL", "country": "US", "zip_code": "60615"}, "id": "aimees-pet-care-chicago", "categories": [{"alias": "pet_sitting", "title": "Pet Boarding/Pet Sitting"}, {"alias": "dogwalkers", "title": "Dog Walkers"}]}]}
{"total": 166, "businesses": [{"rating": 3.0, "review_count": 4, "name": "Save A Lot Foods", "url": "https://www.yelp.com/biz/save-a-lot-foods-chicago?adjust_creative=_xGZBQTFH5RSnMk3I7VtQQ&utm_campaign=yelp_api_v3&utm_medium=api_v3_business_search&utm_source=_xGZBQTFH5RSnMk3I7VtQQ", "price": "$", "coordinates": {"latitude": 41.8092348285363, "longitude": -87.6057171321115}, "phone": "+17735481634", "image_url": "https://s3-media3.fl.yelpcdn.com/bphoto/ai5tc2tqCKKhxOwgx26L5w/o.jpg", "location": {"city": "Chicago", "country": "US", "address2": "", "address3": "", "state": "IL", "address1": "4701 S Cottage Grove Ave", "zip_code": "60615"}, "id": "save-a-lot-foods-chicago", "categories": [{"alias": "grocery", "title": "Grocery"}]}]}
{"total": 166, "businesses": [{"rating": 2.0, "review_count": 2, "name": "Blackstone Management", "url": "https://www.yelp.com/biz/blackstone-management-chicago?adjust_creative=_xGZBQTFH5RSnMk3I7VtQQ&utm_campaign=yelp_api_v3&utm_medium=api_v3_business_search&utm_source=_xGZBQTFH5RSnMk3I7VtQQ", "coordinates": {"latitude": 41.797550201416, "longitude": -87.5962295532227}, "phone": "+17736671568", "image_url": "", "location": {"city": "Chicago", "country": "US", "address2": "", "address3": "", "state": "IL", "address1": "5413 S Woodlawn Avenue", "zip_code": "60615"}, "id": "blackstone-management-chicago", "categories": [{"alias": "apartments", "title": "Apartments"}]}]}
{"total": 166, "businesses": [{"rating": 1.5, "review_count": 5, "name": "Friend Family Health Center", "url": "https://www.yelp.com/biz/friend-family-health-center-chicago?adjust_creative=_xGZBQTFH5RSnMk3I7VtQQ&utm_campaign=yelp_api_v3&utm_medium=api_v3_business_search&utm_source=_xGZBQTFH5RSnMk3I7VtQQ", "coordinates": {"latitude": 41.7959327617996, "longitude": -87.6053186339603}, "phone": "+17737020660", "image_url": "https://s3-media2.fl.yelpcdn.com/bphoto/IuOxLHFMscr3VOvD-Od3LA/o.jpg", "location": {"city": "Chicago", "country": "US", "address2": "", "address3": "", "state": "IL", "address1": "800 E 55th Street", "zip_code": "60615"}, "id": "friend-family-health-center-chicago", "categories": [{"alias": "familydr", "title": "Family Practice"}, {"alias": "pediatricians", "title": "Pediatricians"}, {"alias": "medcenters", "title": "Medical Centers"}]}]}
{"total": 166, "businesses": [{"rating": 2.0, "review_count": 1, "name": "Ingleside Foods", "url": "https://www.yelp.com/biz/ingleside-foods-chicago?adjust_creative=_xGZBQTFH5RSnMk3I7VtQQ&utm_campaign=yelp_api_v3&utm_medium=api_v3_business_search&utm_source=_xGZBQTFH5RSnMk3I7VtQQ", "price": "$$", "coordinates": {"latitude": 41.8015666, "longitude": -87.6026841}, "phone": "+17732888089", "image_url": "", "location": {"city": "Chicago", "country": "US", "address2": "", "address3": "", "state": "IL", "address1": "5117 S Ingleside Avenue", "zip_code": "60615"}, "id": "ingleside-foods-chicago", "categories": [{"alias": "grocery", "title": "Grocery"}]}]}
{"total": 166, "businesses": [{"rating": 5.0, "review_count": 1, "name": "Fibrenew - Gold Coast", "url": "https://www.yelp.com/biz/fibrenew-gold-coast-chicago-3?adjust_creative=_xGZBQTFH5RSnMk3I7VtQQ&utm_campaign=yelp_api_v3&utm_medium=api_v3_business_search&utm_source=_xGZBQTFH5RSnMk3I7VtQQ", "coordinates": {"latitude": 41.8019523620605, "longitude": -87.6034698486328}, "phone": "+13126175106", "image_url": "https://s3-media3.fl.yelpcdn.com/bphoto/4RPCsjaaMeCFYPdFT-NroA/o.jpg", "location": {"city": "Chicago", "address1": "", "address2": "", "address3": "", "state": "IL", "country": "US", "zip_code": "60615"}, "id": "fibrenew-gold-coast-chicago-3", "categories": [{"alias": "reupholstery", "title": "Furniture Reupholstery"}, {"alias": "autoupholstery", "title": "Auto Upholstery"}, {"alias": "vinylsiding", "title": "Vinyl Siding"}]}]}
{"total": 166, "businesses": [{"rating": 1.0, "review_count": 2, "name": "Renaissance Place Condo Association", "url": "https://www.yelp.com/biz/renaissance-place-condo-association-chicago?adjust_creative=_xGZBQTFH5RSnMk3I7VtQQ&utm_campaign=yelp_api_v3&utm_medium=api_v3_business_search&utm_source=_xGZBQTFH5RSnMk3I7VtQQ", "coordinates": {"latitude": 41.8007, "longitude": -87.60197}, "phone": "+17737520925", "image_url": "", "location": {"city": "Chicago", "country": "US", "address2": "", "address3": "", "state": "IL", "address1": "5200 S Ellis Ave", "zip_code": "60615"}, "id": "renaissance-place-condo-association-chicago", "categories": [{"alias": "realestatesvcs", "title": "Real Estate Services"}]}]}
{"total": 166, "businesses": [{"rating": 2.0, "review_count": 1, "name": "Cottage View Health Center", "url": "https://www.yelp.com/biz/cottage-view-health-center-chicago?adjust_creative=_xGZBQTFH5RSnMk3I7VtQQ&utm_campaign=yelp_api_v3&utm_medium=api_v3_business_search&utm_source=_xGZBQTFH5RSnMk3I7VtQQ", "coordinates": {"latitude": 41.8072449, "longitude": -87.6063412}, "phone": "+17735481170", "image_url": "", "location": {"city": "Chicago", "country": "US", "address2": "", "address3": "", "state": "IL", "address1": "4829 S Cottage Grove Avenue", "zip_code": "60615"}, "id": "cottage-view-health-center-chicago", "categories": [{"alias": "physicians", "title": "Doctors"}]}]}
{"total": 166, "businesses": [{"rating": 2.5, "review_count": 3, "name": "Chicago Playpen", "url": "https://www.yelp.com/biz/chicago-playpen-chicago?adjust_creative=_xGZBQTFH5RSnMk3I7VtQQ&utm_campaign=yelp_api_v3&utm_medium=api_v3_business_search&utm_source=_xGZBQTFH5RSnMk3I7VtQQ", "coordinates": {"latitude": 41.8095702, "longitude": -87.6035102}, "phone": "+17732682899", "image_url": "https://s3-media2.fl.yelpcdn.com/bphoto/hC24UYJDd8YpcSXN2w3IbA/o.jpg", "location": {"city": "Chicago", "country": "US", "address2": "", "address3": "", "state": "IL", "address1": "908 E 47th St", "zip_code": "60653"}, "id": "chicago-playpen-chicago", "categories": [{"alias": "kids_activities", "title": "Kids Activities"}, {"alias": "eventplanning", "title": "Party & Event Planning"}]}]}
{"total": 166, "businesses": [{"rating": 1.0, "review_count": 1, "name": "Woodlawn House", "url": "https://www.yelp.com/biz/woodlawn-house-chicago?adjust_creative=_xGZBQTFH5RSnMk3I7VtQQ&utm_campaign=yelp_api_v3&utm_medium=api_v3_business_search&utm_source=_xGZBQTFH5RSnMk3I7VtQQ", "coordinates": {"latitude": 41.800342, "longitude": -87.597084}, "phone": "+17739553552", "image_url": "", "location": {"city": "Chicago", "country": "US", "address2": "", "address3": "", "state": "IL", "address1": "5214 S Woodlawn Ave Apt 207", "zip_code": "60615"}, "id": "woodlawn-house-chicago", "categories": [{"alias": "apartments", "title": "Apartments"}]}]}
{"total": 166, "businesses": [{"rating": 1.0, "review_count": 1, "name": "Over The Top Repairs & Maintenance Services", "url": "https://www.yelp.com/biz/over-the-top-repairs-and-maintenance-services-chicago-2?adjust_creative=_xGZBQTFH5RSnMk3I7VtQQ&utm_campaign=yelp_api_v3&utm_medium=api_v3_business_search&utm_source=_xGZBQTFH5RSnMk3I7VtQQ", "coordinates": {"latitude": 41.806365, "longitude": -87.6044068}, "phone": "+17739460623", "image_url": "", "location": {"city": "Chicago", "country": "US", "address2": "Unit 1E", "address3": "", "state": "IL", "address1": "4836 S Drexel Blvd", "zip_code": "60615"}, "id": "over-the-top-repairs-and-maintenance-services-chicago-2", "categories": [{"alias": "contractors", "title": "Contractors"}]}]}
{"total": 166, "businesses": [{"rating": 1.5, "review_count": 4, "name": "Hyde Park Bank", "url": "https://www.yelp.com/biz/hyde-park-bank-chicago?adjust_creative=_xGZBQTFH5RSnMk3I7VtQQ&utm_campaign=yelp_api_v3&utm_medium=api_v3_business_search&utm_source=_xGZBQTFH5RSnMk3I7VtQQ", "coordinates": {"latitude": 41.7913251, "longitude": -87.5943687}, "phone": "+17737524600", "image_url": "", "location": {"city": "Chicago", "address1": "1311 E 57th St", "address2": "", "address3": "", "state": "IL", "country": "US", "zip_code": "60637"}, "id": "hyde-park-bank-chicago", "categories": [{"alias": "banks", "title": "Banks & Credit Unions"}, {"alias": "mortgagebrokers", "title": "Mortgage Brokers"}]}]}
{"total": 166, "businesses": [{"rating": 4.0, "review_count": 5, "name": "Hyde Park School of Dance", "url": "https://www.yelp.com/biz/hyde-park-school-of-dance-chicago?adjust_creative=_xGZBQTFH5RSnMk3I7VtQQ&utm_campaign=yelp_api_v3&utm_medium=api_v3_business_search&utm_source=_xGZBQTFH5RSnMk3I7VtQQ", "coordinates": {"latitude": 41.7918278, "longitude": -87.5965849}, "phone": "+17734938498", "image_url": "https://s3-media1.fl.yelpcdn.com/bphoto/_FDynDgDysMqk9WWfwQUTg/o.jpg", "location": {"city": "Chicago", "country": "US", "address2": "", "address3": "", "state": "IL", "address1": "5650 S Woodlawn Ave", "zip_code": "60637"}, "id": "hyde-park-school-of-dance-chicago", "categories": [{"alias": "dance_schools", "title": "Dance Schools"}]}]}
{"total": 166, "businesses": [{"rating": 1.0, "review_count": 1, "name": "20th Century Pest Control", "url": "https://www.yelp.com/biz/20th-century-pest-control-chicago?adjust_creative=_xGZBQTFH5RSnMk3I7VtQQ&utm_campaign=yelp_api_v3&utm_medium=api_v3_business_search&utm_source=_xGZBQTFH5RSnMk3I7VtQQ", "coordinates": {"latitude": 41.803463, "longitude": -87.59288}, "phone": "+17738969277", "image_url": "", "location": {"city": "Chicago", "address1": "1356 E Madison Park", "address2": null, "address3": "", "state": "IL", "country": "US", "zip_code": "60615"}, "id": "20th-century-pest-control-chicago", "categories": [{"alias": "pest_control", "title": "Pest Control"}]}]}
{"total": 166, "businesses": [{"rating": 5.0, "review_count": 1, "name": "Section 8 Inspection Services", "url": "https://www.yelp.com/biz/section-8-inspection-services-chicago?adjust_creative=_xGZBQTFH5RSnMk3I7VtQQ&utm_campaign=yelp_api_v3&utm_medium=api_v3_business_search&utm_source=_xGZBQTFH5RSnMk3I7VtQQ", "coordinates": {"latitude": 41.808136, "longitude": -87.602478}, "phone": "+17734572808", "image_url": "https://s3-media1.fl.yelpcdn.com/bphoto/fz1xgIX94VViO0Vpe56kQA/o.jpg", "location": {"city": "Chicago", "country": "US", "address2": null, "address3": "", "state": "IL", "address1": "4749 S Ingleside Ave", "zip_code": "60615"}, "id": "section-8-inspection-services-chicago", "categories": [{"alias": "home_inspectors", "title": "Home Inspectors"}]}]}
{"total": 166, "businesses": [{"rating": 1.0, "review_count": 1, "name": "Lieberman Management Service", "url": "https://www.yelp.com/biz/lieberman-management-service-chicago?adjust_creative=_xGZBQTFH5RSnMk3I7VtQQ&utm_campaign=yelp_api_v3&utm_medium=api_v3_business_search&utm_source=_xGZBQTFH5RSnMk3I7VtQQ", "coordinates": {"latitude": 41.7950849, "longitude": -87.6060498}, "phone": "+17737521341", "image_url": "", "location": {"city": "Chicago", "country": "US", "address2": "", "address3": "", "state": "IL", "address1": "800 E 55th St", "zip_code": "60615"}, "id": "lieberman-management-service-chicago", "categories": []}]}
{"total": 166, "businesses": [{"rating": 5.0, "review_count": 1, "name": "Adorable Kitty", "url": "https://www.yelp.com/biz/adorable-kitty-chicago-2?adjust_creative=_xGZBQTFH5RSnMk3I7VtQQ&utm_campaign=yelp_api_v3&utm_medium=api_v3_business_search&utm_source=_xGZBQTFH5RSnMk3I7VtQQ", "coordinates": {"latitude": 41.8009500950575, "longitude": -87.5934503227472}, "image_url": "", "location": {"city": "Chicago", "address1": "52nd & Kenwood", "address2": "", "address3": "", "state": "IL", "country": "US", "zip_code": "60615"}, "id": "adorable-kitty-chicago-2", "categories": [{"alias": "pet_sitting", "title": "Pet Boarding/Pet Sitting"}]}]}
{"total": 166, "businesses": [{"rating": 1.0, "review_count": 1, "name": "Novo Properties", "url": "https://www.yelp.com/biz/novo-properties-chicago-3?adjust_creative=_xGZBQTFH5RSnMk3I7VtQQ&utm_campaign=yelp_api_v3&utm_medium=api_v3_business_search&utm_source=_xGZBQTFH5RSnMk3I7VtQQ", "coordinates": {"latitude": 41.80612, "longitude": -87.60548}, "phone": "+18444420836", "image_url": "https://s3-media4.fl.yelpcdn.com/bphoto/hZu8MMFnVvG5im8KmZDv8A/o.jpg", "location": {"city": "Chicago", "address1": "816 E 49th Street", "address2": null, "address3": "", "state": "IL", "country": "US", "zip_code": "60615"}, "id": "novo-properties-chicago-3", "categories": [{"alias": "apartments", "title": "Apartments"}]}]}
{"total": 166, "businesses": [{"rating": 5.0, "review_count": 1, "name": "University Church", "url": "https://www.yelp.com/biz/university-church-chicago?adjust_creative=_xGZBQTFH5RSnMk3I7VtQQ&utm_campaign=yelp_api_v3&utm_medium=api_v3_business_search&utm_source=_xGZBQTFH5RSnMk3I7VtQQ", "coordinates": {"latitude": 41.791955307126, "longitude": -87.5980167835951}, "phone": "+17733638142", "image_url": "", "location": {"city": "Chicago", "country": "US", "address2": "", "address3": "", "state": "IL", "address1": "5655 S University Avenue", "zip_code": "60637"}, "id": "university-church-chicago", "categories": []}]}
{"total": 166, "businesses": [{"rating": 5.0, "review_count": 1, "name": "Varsity Tutors", "url": "https://www.yelp.com/biz/varsity-tutors-chicago?adjust_creative=_xGZBQTFH5RSnMk3I7VtQQ&utm_campaign=yelp_api_v3&utm_medium=api_v3_business_search&utm_source=_xGZBQTFH5RSnMk3I7VtQQ", "coordinates": {"latitude": 41.7919365316629, "longitude": -87.5980161130428}, "phone": "+18478402442", "image_url": "https://s3-media4.fl.yelpcdn.com/bphoto/jqezn6IStZ7em7e07US3jw/o.jpg", "location": {"city": "Chicago", "address1": "5657 S University", "address2": null, "address3": "", "state": "IL", "country": "US", "zip_code": "60637"}, "id": "varsity-tutors-chicago", "categories": [{"alias": "tutoring", "title": "Tutoring Centers"}]}]}
{"total": 166, "businesses": [{"rating": 1.0, "review_count": 1, "name": "Psi Upsilon Fraternity", "url": "https://www.yelp.com/biz/psi-upsilon-fraternity-chicago?adjust_creative=_xGZBQTFH5RSnMk3I7VtQQ&utm_campaign=yelp_api_v3&utm_medium=api_v3_business_search&utm_source=_xGZBQTFH5RSnMk3I7VtQQ", "coordinates": {"latitude": 41.79185, "longitude": -87.5978883}, "phone": "+17733249870", "image_url": "", "location": {"city": "Chicago", "country": "US", "address2": "", "address3": "", "state": "IL", "address1": "5639 S University Ave", "zip_code": "60637"}, "id": "psi-upsilon-fraternity-chicago", "categories": []}]}
{"total": 166, "businesses": [{"rating": 5.0, "review_count": 1, "name": "PetraStone and Tile", "url": "https://www.yelp.com/biz/petrastone-and-tile-chicago?adjust_creative=_xGZBQTFH5RSnMk3I7VtQQ&utm_campaign=yelp_api_v3&utm_medium=api_v3_business_search&utm_source=_xGZBQTFH5RSnMk3I7VtQQ", "coordinates": {"latitude": 41.807541, "longitude": -87.5947039}, "phone": "+13125695800", "image_url": "", "location": {"city": "Chicago", "country": "US", "address2": "", "address3": "", "state": "IL", "address1": "4805 S Kimbark Ave", "zip_code": "60615"}, "id": "petrastone-and-tile-chicago", "categories": [{"alias": "contractors", "title": "Contractors"}]}]}
{"total": 166, "businesses": [{"rating": 4.0, "review_count": 1, "name": "Cara Program", "url": "https://www.yelp.com/biz/cara-program-chicago-2?adjust_creative=_xGZBQTFH5RSnMk3I7VtQQ&utm_campaign=yelp_api_v3&utm_medium=api_v3_business_search&utm_source=_xGZBQTFH5RSnMk3I7VtQQ", "coordinates": {"latitude": 41.8073915, "longitude": -87.6067066}, "phone": "+17739242139", "image_url": "", "location": {"city": "Chicago", "country": "US", "address2": null, "address3": null, "state": "IL", "address1": "4804 S Cottage Grove Ave", "zip_code": "60615"}, "id": "cara-program-chicago-2", "categories": []}]}
{"total": 166, "businesses": [{"rating": 1.0, "review_count": 2, "name": "Walmart Pharmacy", "url": "https://www.yelp.com/biz/walmart-pharmacy-chicago-47th-and-cottage?adjust_creative=_xGZBQTFH5RSnMk3I7VtQQ&utm_campaign=yelp_api_v3&utm_medium=api_v3_business_search&utm_source=_xGZBQTFH5RSnMk3I7VtQQ", "coordinates": {"latitude": 41.8087993717157, "longitude": -87.606907487172}, "phone": "+17734200083", "image_url": "https://s3-media3.fl.yelpcdn.com/bphoto/se8evmWfY83kgKt4_b_lNg/o.jpg", "location": {"city": "Chicago (47th & Cottage)", "address1": "4720 S. Cottage Grove Avenue", "address2": null, "address3": null, "state": "IL", "country": "US", "zip_code": "60601"}, "id": "walmart-pharmacy-chicago-47th-and-cottage", "categories": [{"alias": "drugstores", "title": "Drugstores"}]}]}
{"total": 166, "businesses": [{"rating": 1.0, "review_count": 1, "name": "University of Chicago Physicians Group", "url": "https://www.yelp.com/biz/university-of-chicago-physicians-group-chicago-12?adjust_creative=_xGZBQTFH5RSnMk3I7VtQQ&utm_campaign=yelp_api_v3&utm_medium=api_v3_business_search&utm_source=_xGZBQTFH5RSnMk3I7VtQQ", "coordinates": {"latitude": 41.808898, "longitude": -87.594337}, "phone": "+17737022600", "image_url": "", "location": {"city": "Chicago", "address1": "1301A E 47th Street", "address2": "", "address3": "", "state": "IL", "country": "US", "zip_code": "60653"}, "id": "university-of-chicago-physicians-group-chicago-12", "categories": [{"alias": "collegeuniv", "title": "Colleges & Universities"}]}]}
{"total": 166, "businesses": [{"rating": 5.0, "review_count": 1, "name": "Sports and Ortho Physical Therapy", "url": "https://www.yelp.com/biz/sports-and-ortho-physical-therapy-chicago-3?adjust_creative=_xGZBQTFH5RSnMk3I7VtQQ&utm_campaign=yelp_api_v3&utm_medium=api_v3_business_search&utm_source=_xGZBQTFH5RSnMk3I7VtQQ", "coordinates": {"latitude": 41.8096288, "longitude": -87.5953202}, "phone": "+17733733333", "image_url": "", "location": {"city": "Chicago", "country": "US", "address2": "", "address3": "", "state": "IL", "address1": "1301 E 47th St", "zip_code": "60615"}, "id": "sports-and-ortho-physical-therapy-chicago-3", "categories": [{"alias": "physicaltherapy", "title": "Physical Therapy"}, {"alias": "sportsmed", "title": "Sports Medicine"}]}]}
{"total": 166, "businesses": [{"rating": 1.0, "review_count": 3, "name": "Direct Energy", "url": "https://www.yelp.com/biz/direct-energy-chicago?adjust_creative=_xGZBQTFH5RSnMk3I7VtQQ&utm_campaign=yelp_api_v3&utm_medium=api_v3_business_search&utm_source=_xGZBQTFH5RSnMk3I7VtQQ", "coordinates": {"latitude": 41.8019523620605, "longitude": -87.6034698486328}, "phone": "+18554611927", "image_url": "", "location": {"city": "Chicago", "address1": "", "address2": "", "address3": "", "state": "IL", "country": "US", "zip_code": "60615"}, "id": "direct-energy-chicago", "categories": [{"alias": "utilities", "title": "Utilities"}]}]}
{"total": 166, "businesses": [{"rating": 1.0, "review_count": 1, "name": "Ma'dear Home Services", "url": "https://www.yelp.com/biz/madear-home-services-chicago?adjust_creative=_xGZBQTFH5RSnMk3I7VtQQ&utm_campaign=yelp_api_v3&utm_medium=api_v3_business_search&utm_source=_xGZBQTFH5RSnMk3I7VtQQ", "coordinates": {"latitude": 41.8019523620605, "longitude": -87.6034698486328}, "phone": "+17736674663", "image_url": "", "location": {"city": "Chicago", "address1": "", "address2": "", "address3": "", "state": "IL", "country": "US", "zip_code": "60615"}, "id": "madear-home-services-chicago", "categories": [{"alias": "homehealthcare", "title": "Home Health Care"}]}]}
{"total": 166, "businesses": [{"rating": 1.0, "review_count": 1, "name": "Superman Movers", "url": "https://www.yelp.com/biz/superman-movers-chicago?adjust_creative=_xGZBQTFH5RSnMk3I7VtQQ&utm_campaign=yelp_api_v3&utm_medium=api_v3_business_search&utm_source=_xGZBQTFH5RSnMk3I7VtQQ", "coordinates": {"latitude": 41.80023, "longitude": -87.60311}, "phone": "+17737063138", "image_url": "", "location": {"city": "Chicago", "country": "US", "address2": "", "address3": "", "state": "IL", "address1": "", "zip_code": "60615"}, "id": "superman-movers-chicago", "categories": [{"alias": "movers", "title": "Movers"}]}]}
{"total": 166, "businesses": [{"rating": 4.5, "review_count": 88, "name": "Windy City Blinds", "url": "https://www.yelp.com/biz/windy-city-blinds-chicago?adjust_creative=_xGZBQTFH5RSnMk3I7VtQQ&utm_campaign=yelp_api_v3&utm_medium=api_v3_business_search&utm_source=_xGZBQTFH5RSnMk3I7VtQQ", "coordinates": {"latitude": 41.8529059, "longitude": -87.6413537}, "phone": "+17735284244", "image_url": "https://s3-media2.fl.yelpcdn.com/bphoto/_SI0c4eV5qbyM1r1t9xwrA/o.jpg", "location": {"city": "Chicago", "country": "US", "address2": "", "address3": "", "state": "IL", "address1": "500 W Cermak Rd", "zip_code": "60616"}, "id": "windy-city-blinds-chicago", "categories": [{"alias": "blinds", "title": "Shades & Blinds"}]}]}
{"total": 166, "businesses": [{"rating": 4.5, "review_count": 61, "name": "Out-U-Go! Pet Care Services", "url": "https://www.yelp.com/biz/out-u-go-pet-care-services-chicago-3?adjust_creative=_xGZBQTFH5RSnMk3I7VtQQ&utm_campaign=yelp_api_v3&utm_medium=api_v3_business_search&utm_source=_xGZBQTFH5RSnMk3I7VtQQ", "coordinates": {"latitude": 41.8575666729138, "longitude": -87.6361177237172}, "phone": "+13123243141", "image_url": "https://s3-media1.fl.yelpcdn.com/bphoto/89Xw0mNMpHLHcmmhK57t4A/o.jpg", "location": {"city": "Chicago", "country": "US", "address2": null, "address3": "", "state": "IL", "address1": "329 W 18th St", "zip_code": "60616"}, "id": "out-u-go-pet-care-services-chicago-3", "categories": [{"alias": "dogwalkers", "title": "Dog Walkers"}, {"alias": "pet_sitting", "title": "Pet Boarding/Pet Sitting"}]}]}
{"total": 166, "businesses": [{"rating": 5.0, "review_count": 21, "name": "Claudio Heating & Cooling", "url": "https://www.yelp.com/biz/claudio-heating-and-cooling-chicago?adjust_creative=_xGZBQTFH5RSnMk3I7VtQQ&utm_campaign=yelp_api_v3&utm_medium=api_v3_business_search&utm_source=_xGZBQTFH5RSnMk3I7VtQQ", "coordinates": {"latitude": 41.7968597412109, "longitude": -87.7045211791992}, "phone": "+17737372222", "image_url": "https://s3-media2.fl.yelpcdn.com/bphoto/2lPcVHlTbx3i80JdXU4CJA/o.jpg", "location": {"city": "Chicago", "country": "US", "address2": "", "address3": "", "state": "IL", "address1": "5307 S Sawyer Ave", "zip_code": "60632"}, "id": "claudio-heating-and-cooling-chicago", "categories": [{"alias": "hvac", "title": "Heating & Air Conditioning/HVAC"}]}]}
{"total": 166, "businesses": [{"rating": 5.0, "review_count": 26, "name": "Urban Street Window Works", "url": "https://www.yelp.com/biz/urban-street-window-works-chicago?adjust_creative=_xGZBQTFH5RSnMk3I7VtQQ&utm_campaign=yelp_api_v3&utm_medium=api_v3_business_search&utm_source=_xGZBQTFH5RSnMk3I7VtQQ", "coordinates": {"latitude": 41.9196022253113, "longitude": -87.6776873598664}, "phone": "+13127157077", "image_url": "https://s3-media4.fl.yelpcdn.com/bphoto/VqE8fVGbV50xMK6d6XfEFg/o.jpg", "location": {"city": "Chicago", "address1": null, "address2": null, "address3": "", "state": "IL", "country": "US", "zip_code": "60647"}, "id": "urban-street-window-works-chicago", "categories": [{"alias": "windowwashing", "title": "Window Washing"}]}]}
{"total": 166, "businesses": [{"rating": 5.0, "review_count": 6, "name": "Wayne Beals - Beals & Associates", "url": "https://www.yelp.com/biz/wayne-beals-beals-and-associates-oak-park?adjust_creative=_xGZBQTFH5RSnMk3I7VtQQ&utm_campaign=yelp_api_v3&utm_medium=api_v3_business_search&utm_source=_xGZBQTFH5RSnMk3I7VtQQ", "coordinates": {"latitude": 41.8722251, "longitude": -87.79873}, "phone": "+13127723257", "image_url": "https://s3-media2.fl.yelpcdn.com/bphoto/PVbPPewBkTQwD-57qYmXFg/o.jpg", "location": {"city": "Oak Park", "address1": "947 Garfield", "address2": null, "address3": "", "state": "IL", "country": "US", "zip_code": "60403"}, "id": "wayne-beals-beals-and-associates-oak-park", "categories": [{"alias": "realestateagents", "title": "Real Estate Agents"}]}]}
{"total": 166, "businesses": [{"rating": 5.0, "review_count": 2, "name": "Nettles Inspections", "url": "https://www.yelp.com/biz/nettles-inspections-chicago-2?adjust_creative=_xGZBQTFH5RSnMk3I7VtQQ&utm_campaign=yelp_api_v3&utm_medium=api_v3_business_search&utm_source=_xGZBQTFH5RSnMk3I7VtQQ", "coordinates": {"latitude": 41.9897232055664, "longitude": -87.702033996582}, "phone": "+18477379762", "image_url": "https://s3-media1.fl.yelpcdn.com/bphoto/b81fwBtv5gVRj8X0x773IQ/o.jpg", "location": {"city": "Chicago", "country": "US", "address2": "", "address3": "", "state": "IL", "address1": "", "zip_code": "60659"}, "id": "nettles-inspections-chicago-2", "categories": [{"alias": "home_inspectors", "title": "Home Inspectors"}]}]}
{"total": 166, "businesses": [{"rating": 3.5, "review_count": 6, "name": "Illinois Home Improvement Corporation", "url": "https://www.yelp.com/biz/illinois-home-improvement-corporation-chicago?adjust_creative=_xGZBQTFH5RSnMk3I7VtQQ&utm_campaign=yelp_api_v3&utm_medium=api_v3_business_search&utm_source=_xGZBQTFH5RSnMk3I7VtQQ", "coordinates": {"latitude": 41.9755477905273, "longitude": -87.752799987793}, "phone": "+17737941400", "image_url": "https://s3-media3.fl.yelpcdn.com/bphoto/NV1UQT6MzqhNwxv7HN2MDg/o.jpg", "location": {"city": "Chicago", "address1": "5216 N Elston Ave", "address2": "", "address3": "", "state": "IL", "country": "US", "zip_code": "60630"}, "id": "illinois-home-improvement-corporation-chicago", "categories": [{"alias": "roofing", "title": "Roofing"}, {"alias": "contractors", "title": "Contractors"}]}]}
{"total": 166, "businesses": [{"rating": 2.0, "review_count": 6, "name": "North Star Heating & Air", "url": "https://www.yelp.com/biz/north-star-heating-and-air-evanston?adjust_creative=_xGZBQTFH5RSnMk3I7VtQQ&utm_campaign=yelp_api_v3&utm_medium=api_v3_business_search&utm_source=_xGZBQTFH5RSnMk3I7VtQQ", "coordinates": {"latitude": 42.057693, "longitude": -87.693652}, "phone": "+18478699600", "image_url": "https://s3-media4.fl.yelpcdn.com/bphoto/J3CWQVtszU76nXKGMebAww/o.jpg", "location": {"city": "Evanston", "address1": "2200 Green Bay Rd", "address2": null, "address3": "", "state": "IL", "country": "US", "zip_code": "60201"}, "id": "north-star-heating-and-air-evanston", "categories": [{"alias": "hvac", "title": "Heating & Air Conditioning/HVAC"}]}]}
{"total": 166, "businesses": []}
