{"total": 258, "businesses": [{"rating": 5.0, "review_count": 21, "name": "LSTC Refectory", "url": "https://www.yelp.com/biz/lstc-refectory-chicago-2?adjust_creative=4ANmej72Lq5uvu_h_d83AQ&utm_campaign=yelp_api_v3&utm_medium=api_v3_business_search&utm_source=4ANmej72Lq5uvu_h_d83AQ", "price": "$", "coordinates": {"latitude": 41.795710987436, "longitude": -87.5984633193176}, "phone": "+17732560702", "image_url": "https://s3-media3.fl.yelpcdn.com/bphoto/4QeAqUnqEoRi2q55RqI5uQ/o.jpg", "location": {"city": "Chicago", "country": "US", "address2": "", "address3": "", "state": "IL", "address1": "1100 E 55th St", "zip_code": "60615"}, "id": "lstc-refectory-chicago-2", "categories": [{"alias": "cafeteria", "title": "Cafeteria"}]}]}
{"total": 258, "businesses": [{"rating": 4.0, "review_count": 70, "name": "Frederick C Robie House", "url": "https://www.yelp.com/biz/frederick-c-robie-house-chicago?adjust_creative=4ANmej72Lq5uvu_h_d83AQ&utm_campaign=yelp_api_v3&utm_medium=api_v3_business_search&utm_source=4ANmej72Lq5uvu_h_d83AQ", "coordinates": {"latitude": 41.789842386542, "longitude": -87.59596562559}, "phone": "+13129944000", "image_url": "https://s3-media3.fl.yelpcdn.com/bphoto/cQ8wlqfbQEtkrT1QDKUXiQ/o.jpg", "location": {"city": "Chicago", "address1": "5757 S Woodlawn Ave", "address2": null, "address3": "", "state": "IL", "country": "US", "zip_code": "60637"}, "id": "frederick-c-robie-house-chicago", "categories": [{"alias": "landmarks", "title": "Landmarks & Historical Buildings"}]}]}
{"total": 258, "businesses": [{"rating": 4.0, "review_count": 108, "name": "Cafe 53", "url": "https://www.yelp.com/biz/cafe-53-chicago?adjust_creative=4ANmej72Lq5uvu_h_d83AQ&utm_campaign=yelp_api_v3&utm_medium=api_v3_business_search&utm_source=4ANmej72Lq5uvu_h_d83AQ", "price": "$", "coordinates": {"latitude": 41.7993585664382, "longitude": -87.5923947061704}, "phone": "+17734931000", "image_url": "https://s3-media1.fl.yelpcdn.com/bphoto/UmIKBFDhcQMjZlOMcEqL0A/o.jpg", "location": {"city": "Chicago", "address1": "1369 E 53rd St", "address2": "", "address3": "", "state": "IL", "country": "US", "zip_code": "60615"}, "id": "cafe-53-chicago", "categories": [{"alias": "sandwiches", "title": "Sandwiches"}, {"alias": "gelato", "title": "Gelato"}, {"alias": "halal", "title": "Halal"}]}]}
{"total": 258, "businesses": [{"rating": 4.0, "review_count": 100, "name": "Nile Restaurant", "url": "https://www.yelp.com/biz/nile-restaurant-chicago?adjust_creative=4ANmej72Lq5uvu_h_d83AQ&utm_campaign=yelp_api_v3&utm_medium=api_v3_business_search&utm_source=4ANmej72Lq5uvu_h_d83AQ", "price": "$$", "coordinates": {"latitude": 41.795194271094, "longitude": -87.5970609234034}, "phone": "+17733249499", "image_url": "https://s3-media4.fl.yelpcdn.com/bphoto/7zxjccsuhGbNG6ejiQn2UA/o.jpg", "location": {"city": "Chicago", "country": "US", "address2": "", "address3": "", "state": "IL", "address1": "1162 E 55th St", "zip_code": "60615"}, "id": "nile-restaurant-chicago", "categories": [{"alias": "mideastern", "title": "Middle Eastern"}]}]}
{"total": 258, "businesses": [{"rating": 4.0, "review_count": 159, "name": "Zaleski & Horvath MarketCafe", "url": "https://www.yelp.com/biz/zaleski-and-horvath-marketcafe-chicago-3?adjust_creative=4ANmej72Lq5uvu_h_d83AQ&utm_campaign=yelp_api_v3&utm_medium=api_v3_business_search&utm_source=4ANmej72Lq5uvu_h_d83AQ", "price": "$$", "coordinates": {"latitude": 41.7913330427955, "longitude": -87.5938536622402}, "phone": "+17735387372", "image_url": "https://s3-media1.fl.yelpcdn.com/bphoto/GP6vULMN0bHi1eszCC27bw/o.jpg", "location": {"city": "Chicago", "country": "US", "address2": "", "address3": "", "state": "IL", "address1": "1323 E 57th St", "zip_code": "60637"}, "id": "zaleski-and-horvath-marketcafe-chicago-3", "categories": [{"alias": "coffee", "title": "Coffee & Tea"}, {"alias": "gourmet", "title": "Specialty Food"}]}]}
{"total": 258, "businesses": [{"rating": 4.0, "review_count": 287, "name": "The Sit Down Cafe & Sushi Bar", "url": "https://www.yelp.com/biz/the-sit-down-cafe-and-sushi-bar-chicago?adjust_creative=4ANmej72Lq5uvu_h_d83AQ&utm_campaign=yelp_api_v3&utm_medium=api_v3_business_search&utm_source=4ANmej72Lq5uvu_h_d83AQ", "price": "$$", "coordinates": {"latitude": 41.7996180687972, "longitude": -87.594427254948}, "phone": "+17733243700", "image_url": "https://s3-media3.fl.yelpcdn.com/bphoto/zEU2rpVK3lI-yyabHkISFg/o.jpg", "location": {"city": "Chicago", "country": "US", "address2": "", "address3": null, "state": "IL", "address1": "1312 E 53rd St", "zip_code": "60615"}, "id": "the-sit-down-cafe-and-sushi-bar-chicago", "categories": [{"alias": "sushi", "title": "Sushi Bars"}, {"alias": "gluten_free", "title": "Gluten-Free"}, {"alias": "pizza", "title": "Pizza"}]}]}
{"total": 258, "businesses": [{"rating": 4.0, "review_count": 54, "name": "The University of Chicago Pub", "url": "https://www.yelp.com/biz/the-university-of-chicago-pub-chicago?adjust_creative=4ANmej72Lq5uvu_h_d83AQ&utm_campaign=yelp_api_v3&utm_medium=api_v3_business_search&utm_source=4ANmej72Lq5uvu_h_d83AQ", "price": "$", "coordinates": {"latitude": 41.78871, "longitude": -87.59559}, "phone": "+17737029737", "image_url": "https://s3-media1.fl.yelpcdn.com/bphoto/eX605M8IJ9LvuLSJkvQDYA/o.jpg", "location": {"city": "Chicago", "country": "US", "address2": "1212 E 59th St", "address3": "", "state": "IL", "address1": "Ida Noyes Lower Lv", "zip_code": "60637"}, "id": "the-university-of-chicago-pub-chicago", "categories": [{"alias": "pubs", "title": "Pubs"}]}]}
{"total": 258, "businesses": [{"rating": 4.5, "review_count": 39, "name": "Grounds of Being: The Divinity School Coffee Shop", "url": "https://www.yelp.com/biz/grounds-of-being-the-divinity-school-coffee-shop-chicago?adjust_creative=4ANmej72Lq5uvu_h_d83AQ&utm_campaign=yelp_api_v3&utm_medium=api_v3_business_search&utm_source=4ANmej72Lq5uvu_h_d83AQ", "price": "$", "coordinates": {"latitude": 41.7890248388694, "longitude": -87.6001329930437}, "phone": "+17738349052", "image_url": "https://s3-media2.fl.yelpcdn.com/bphoto/tkaagz-rKWQe7ARzBzkkdg/o.jpg", "location": {"city": "Chicago", "country": "US", "address2": "", "address3": "", "state": "IL", "address1": "1025 E 58th St", "zip_code": "60637"}, "id": "grounds-of-being-the-divinity-school-coffee-shop-chicago", "categories": [{"alias": "coffee", "title": "Coffee & Tea"}, {"alias": "bagels", "title": "Bagels"}]}]}
{"total": 258, "businesses": [{"rating": 3.5, "review_count": 630, "name": "Medici On 57th", "url": "https://www.yelp.com/biz/medici-on-57th-chicago?adjust_creative=4ANmej72Lq5uvu_h_d83AQ&utm_campaign=yelp_api_v3&utm_medium=api_v3_business_search&utm_source=4ANmej72Lq5uvu_h_d83AQ", "price": "$$", "coordinates": {"latitude": 41.7911949157715, "longitude": -87.59375}, "phone": "+17736677394", "image_url": "https://s3-media2.fl.yelpcdn.com/bphoto/2lOh9qYdv5t6H5NCphEoLw/o.jpg", "location": {"city": "Chicago", "country": "US", "address2": "", "address3": "", "state": "IL", "address1": "1327 E 57th St", "zip_code": "60637"}, "id": "medici-on-57th-chicago", "categories": [{"alias": "bakeries", "title": "Bakeries"}, {"alias": "delis", "title": "Delis"}, {"alias": "sandwiches", "title": "Sandwiches"}]}]}
{"total": 258, "businesses": [{"rating": 4.0, "review_count": 112, "name": "Plein Air Cafe & Eatery", "url": "https://www.yelp.com/biz/plein-air-cafe-and-eatery-chicago-2?adjust_creative=4ANmej72Lq5uvu_h_d83AQ&utm_campaign=yelp_api_v3&utm_medium=api_v3_business_search&utm_source=4ANmej72Lq5uvu_h_d83AQ", "price": "$$", "coordinates": {"latitude": 41.790035, "longitude": -87.596407}, "phone": "+17739667531", "image_url": "https://s3-media2.fl.yelpcdn.com/bphoto/xowtnNmtT9JQvnqFF58yqg/o.jpg", "location": {"city": "Chicago", "country": "US", "address2": "", "address3": "", "state": "IL", "address1": "5751 S Woodlawn Ave", "zip_code": "60637"}, "id": "plein-air-cafe-and-eatery-chicago-2", "categories": [{"alias": "cafes", "title": "Cafes"}]}]}
{"total": 258, "businesses": [{"rating": 4.0, "review_count": 194, "name": "Litehouse Whole Food Grill", "url": "https://www.yelp.com/biz/litehouse-whole-food-grill-chicago?adjust_creative=4ANmej72Lq5uvu_h_d83AQ&utm_campaign=yelp_api_v3&utm_medium=api_v3_business_search&utm_source=4ANmej72Lq5uvu_h_d83AQ", "price": "$", "coordinates": {"latitude": 41.7993515298515, "longitude": -87.5922412481643}, "phone": "+17736332587", "image_url": "https://s3-media1.fl.yelpcdn.com/bphoto/5pC2xQxE5R9FLxHykfDSYA/o.jpg", "location": {"city": "Chicago", "country": "US", "address2": "", "address3": "", "state": "IL", "address1": "1373 E 53rd St", "zip_code": "60615"}, "id": "litehouse-whole-food-grill-chicago", "categories": [{"alias": "newamerican", "title": "American (New)"}, {"alias": "hotdogs", "title": "Fast Food"}]}]}
{"total": 258, "businesses": [{"rating": 4.5, "review_count": 17, "name": "Windy's", "url": "https://www.yelp.com/biz/windys-chicago?adjust_creative=4ANmej72Lq5uvu_h_d83AQ&utm_campaign=yelp_api_v3&utm_medium=api_v3_business_search&utm_source=4ANmej72Lq5uvu_h_d83AQ", "price": "$", "coordinates": {"latitude": 41.7992751, "longitude": -87.6007654}, "phone": "+17732886505", "image_url": "https://s3-media4.fl.yelpcdn.com/bphoto/b4NleCtE6MQijio1tLUOhg/o.jpg", "location": {"city": "Chicago", "address1": "1013 E 53rd St", "address2": "", "address3": "", "state": "IL", "country": "US", "zip_code": "60615"}, "id": "windys-chicago", "categories": [{"alias": "delis", "title": "Delis"}, {"alias": "sandwiches", "title": "Sandwiches"}]}]}
{"total": 258, "businesses": [{"rating": 3.5, "review_count": 126, "name": "Woodlawn Tap", "url": "https://www.yelp.com/biz/woodlawn-tap-chicago?adjust_creative=4ANmej72Lq5uvu_h_d83AQ&utm_campaign=yelp_api_v3&utm_medium=api_v3_business_search&utm_source=4ANmej72Lq5uvu_h_d83AQ", "price": "$", "coordinates": {"latitude": 41.7952007039879, "longitude": -87.5968811334164}, "phone": "+17736435516", "image_url": "https://s3-media2.fl.yelpcdn.com/bphoto/CkPtHLnxbBJ7yqCVr2Zj1Q/o.jpg", "location": {"city": "Chicago", "country": "US", "address2": "", "address3": "", "state": "IL", "address1": "1172 E 55th St", "zip_code": "60615"}, "id": "woodlawn-tap-chicago", "categories": [{"alias": "divebars", "title": "Dive Bars"}, {"alias": "tradamerican", "title": "American (Traditional)"}, {"alias": "pubs", "title": "Pubs"}]}]}
{"total": 258, "businesses": [{"rating": 3.5, "review_count": 224, "name": "Salonica", "url": "https://www.yelp.com/biz/salonica-chicago?adjust_creative=4ANmej72Lq5uvu_h_d83AQ&utm_campaign=yelp_api_v3&utm_medium=api_v3_business_search&utm_source=4ANmej72Lq5uvu_h_d83AQ", "price": "$", "coordinates": {"latitude": 41.7916340191296, "longitude": -87.5901181094787}, "phone": "+17737523899", "image_url": "https://s3-media4.fl.yelpcdn.com/bphoto/4OUUwnrjUZcash3sa0xJvQ/o.jpg", "location": {"city": "Chicago", "address1": "1440 E 57th St", "address2": null, "address3": "", "state": "IL", "country": "US", "zip_code": "60637"}, "id": "salonica-chicago", "categories": [{"alias": "diners", "title": "Diners"}, {"alias": "breakfast_brunch", "title": "Breakfast & Brunch"}]}]}
{"total": 258, "businesses": [{"rating": 3.5, "review_count": 206, "name": "Harold's Chicken Shack", "url": "https://www.yelp.com/biz/harolds-chicken-shack-chicago-29?adjust_creative=4ANmej72Lq5uvu_h_d83AQ&utm_campaign=yelp_api_v3&utm_medium=api_v3_business_search&utm_source=4ANmej72Lq5uvu_h_d83AQ", "price": "$", "coordinates": {"latitude": 41.7998199, "longitude": -87.5962}, "phone": "+17737529260", "image_url": "https://s3-media1.fl.yelpcdn.com/bphoto/GpsmahKCN2Ne_KbS4n8Z2g/o.jpg", "location": {"city": "Chicago", "country": "US", "address2": null, "address3": "", "state": "IL", "address1": "1208 E 53rd St", "zip_code": "60615"}, "id": "harolds-chicken-shack-chicago-29", "categories": [{"alias": "tradamerican", "title": "American (Traditional)"}]}]}
{"total": 258, "businesses": [{"rating": 3.5, "review_count": 235, "name": "Cedars Mediterranean Kitchen", "url": "https://www.yelp.com/biz/cedars-mediterranean-kitchen-chicago?adjust_creative=4ANmej72Lq5uvu_h_d83AQ&utm_campaign=yelp_api_v3&utm_medium=api_v3_business_search&utm_source=4ANmej72Lq5uvu_h_d83AQ", "price": "$$", "coordinates": {"latitude": 41.7999084410129, "longitude": -87.5962261272235}, "phone": "+17733246227", "image_url": "https://s3-media1.fl.yelpcdn.com/bphoto/LuJViNOZAgAwBPcWk7yDfg/o.jpg", "location": {"city": "Chicago", "country": "US", "address2": "", "address3": "", "state": "IL", "address1": "1206 E 53rd St", "zip_code": "60615"}, "id": "cedars-mediterranean-kitchen-chicago", "categories": [{"alias": "mideastern", "title": "Middle Eastern"}, {"alias": "turkish", "title": "Turkish"}, {"alias": "mediterranean", "title": "Mediterranean"}]}]}
{"total": 258, "businesses": [{"rating": 4.0, "review_count": 69, "name": "Bergstein's NY Delicatessen - Hyde Park", "url": "https://www.yelp.com/biz/bergsteins-ny-delicatessen-hyde-park-chicago?adjust_creative=4ANmej72Lq5uvu_h_d83AQ&utm_campaign=yelp_api_v3&utm_medium=api_v3_business_search&utm_source=4ANmej72Lq5uvu_h_d83AQ", "price": "$", "coordinates": {"latitude": 41.795196328376, "longitude": -87.5969780030329}, "phone": "+17738910429", "image_url": "https://s3-media4.fl.yelpcdn.com/bphoto/EIYpgtr135tC3h9aXeLnwQ/o.jpg", "location": {"city": "Chicago", "country": "US", "address2": "", "address3": "", "state": "IL", "address1": "1164 E 55th St", "zip_code": "60615"}, "id": "bergsteins-ny-delicatessen-hyde-park-chicago", "categories": [{"alias": "delis", "title": "Delis"}, {"alias": "bagels", "title": "Bagels"}, {"alias": "sandwiches", "title": "Sandwiches"}]}]}
{"total": 258, "businesses": [{"rating": 5.0, "review_count": 42, "name": "Peter McCarthy Electric", "url": "https://www.yelp.com/biz/peter-mccarthy-electric-chicago-3?adjust_creative=4ANmej72Lq5uvu_h_d83AQ&utm_campaign=yelp_api_v3&utm_medium=api_v3_business_search&utm_source=4ANmej72Lq5uvu_h_d83AQ", "coordinates": {"latitude": 41.799256, "longitude": -87.585114}, "phone": "+17738423649", "image_url": "https://s3-media1.fl.yelpcdn.com/bphoto/CudQXJY5AzPqckk9pnJ7FQ/o.jpg", "location": {"city": "Chicago", "address1": "5307 S Cornell Ave", "address2": null, "address3": "", "state": "IL", "country": "US", "zip_code": "60615"}, "id": "peter-mccarthy-electric-chicago-3", "categories": [{"alias": "electricians", "title": "Electricians"}]}]}
{"total": 258, "businesses": [{"rating": 4.5, "review_count": 35, "name": "Fabiana's Bakery", "url": "https://www.yelp.com/biz/fabianas-bakery-chicago?adjust_creative=4ANmej72Lq5uvu_h_d83AQ&utm_campaign=yelp_api_v3&utm_medium=api_v3_business_search&utm_source=4ANmej72Lq5uvu_h_d83AQ", "price": "$$", "coordinates": {"latitude": 41.7914851, "longitude": -87.5980573}, "phone": "+17736589842", "image_url": "https://s3-media4.fl.yelpcdn.com/bphoto/UKg2YC-VY2FwlwpD_yQN_g/o.jpg", "location": {"city": "Chicago", "country": "US", "address2": "", "address3": "", "state": "IL", "address1": "5655 S University Ave", "zip_code": "60637"}, "id": "fabianas-bakery-chicago", "categories": [{"alias": "bakeries", "title": "Bakeries"}]}]}
{"total": 258, "businesses": [{"rating": 3.5, "review_count": 239, "name": "Noodles Etc", "url": "https://www.yelp.com/biz/noodles-etc-chicago-2?adjust_creative=4ANmej72Lq5uvu_h_d83AQ&utm_campaign=yelp_api_v3&utm_medium=api_v3_business_search&utm_source=4ANmej72Lq5uvu_h_d83AQ", "price": "$", "coordinates": {"latitude": 41.791379093426, "longitude": -87.593389399445}, "phone": "+17736842801", "image_url": "https://s3-media4.fl.yelpcdn.com/bphoto/QeTDB1QMZcYeUzlus6wJCA/o.jpg", "location": {"city": "Chicago", "country": "US", "address2": "", "address3": "", "state": "IL", "address1": "1333 E 57th St", "zip_code": "60637"}, "id": "noodles-etc-chicago-2", "categories": [{"alias": "noodles", "title": "Noodles"}]}]}
{"total": 258, "businesses": [{"rating": 4.5, "review_count": 73, "name": "Oriental Institute Museum", "url": "https://www.yelp.com/biz/oriental-institute-museum-chicago?adjust_creative=4ANmej72Lq5uvu_h_d83AQ&utm_campaign=yelp_api_v3&utm_medium=api_v3_business_search&utm_source=4ANmej72Lq5uvu_h_d83AQ", "coordinates": {"latitude": 41.7892181, "longitude": -87.5978136}, "phone": "+17737029520", "image_url": "https://s3-media3.fl.yelpcdn.com/bphoto/fGy_nIHk_lWOWFzF_OEaSg/o.jpg", "location": {"city": "Chicago", "country": "US", "address2": null, "address3": "", "state": "IL", "address1": "1155 E 58th St", "zip_code": "60637"}, "id": "oriental-institute-museum-chicago", "categories": [{"alias": "museums", "title": "Museums"}]}]}
{"total": 258, "businesses": [{"rating": 4.5, "review_count": 108, "name": "Hyde Park Animal Clinic", "url": "https://www.yelp.com/biz/hyde-park-animal-clinic-chicago?adjust_creative=4ANmej72Lq5uvu_h_d83AQ&utm_campaign=yelp_api_v3&utm_medium=api_v3_business_search&utm_source=4ANmej72Lq5uvu_h_d83AQ", "coordinates": {"latitude": 41.7993430110246, "longitude": -87.5925694088031}, "phone": "+17733244484", "image_url": "https://s3-media2.fl.yelpcdn.com/bphoto/jnOuZta3TIDrqoPCaH8JjA/o.jpg", "location": {"city": "Chicago", "country": "US", "address2": "", "address3": "", "state": "IL", "address1": "1363 E 53rd St", "zip_code": "60615"}, "id": "hyde-park-animal-clinic-chicago", "categories": [{"alias": "vet", "title": "Veterinarians"}, {"alias": "pet_sitting", "title": "Pet Boarding/Pet Sitting"}]}]}
{"total": 258, "businesses": [{"rating": 4.5, "review_count": 211, "name": "Hyde Park Produce", "url": "https://www.yelp.com/biz/hyde-park-produce-chicago?adjust_creative=4ANmej72Lq5uvu_h_d83AQ&utm_campaign=yelp_api_v3&utm_medium=api_v3_business_search&utm_source=4ANmej72Lq5uvu_h_d83AQ", "price": "$", "coordinates": {"latitude": 41.7998676162039, "longitude": -87.5954072695776}, "phone": "+17733247100", "image_url": "https://s3-media4.fl.yelpcdn.com/bphoto/Rq9yDTR6FTX6WdBjZWMroQ/o.jpg", "location": {"city": "Chicago", "country": "US", "address2": "", "address3": "", "state": "IL", "address1": "1226 E 53rd St", "zip_code": "60615"}, "id": "hyde-park-produce-chicago", "categories": [{"alias": "markets", "title": "Fruits & Veggies"}, {"alias": "grocery", "title": "Grocery"}]}]}
{"total": 258, "businesses": [{"rating": 4.0, "review_count": 26, "name": "Red Snapper Fish Chicken", "url": "https://www.yelp.com/biz/red-snapper-fish-chicken-chicago?adjust_creative=4ANmej72Lq5uvu_h_d83AQ&utm_campaign=yelp_api_v3&utm_medium=api_v3_business_search&utm_source=4ANmej72Lq5uvu_h_d83AQ", "price": "$", "coordinates": {"latitude": 41.7997852989943, "longitude": -87.5912056490779}, "phone": "+17732416666", "image_url": "https://s3-media1.fl.yelpcdn.com/bphoto/R9uaKE8JCdwJxUlF-oiroA/o.jpg", "location": {"city": "Chicago", "country": "US", "address2": "", "address3": "", "state": "IL", "address1": "1418 E 53rd St", "zip_code": "60615"}, "id": "red-snapper-fish-chicken-chicago", "categories": [{"alias": "hotdogs", "title": "Fast Food"}, {"alias": "fishnchips", "title": "Fish & Chips"}]}]}
{"total": 258, "businesses": [{"rating": 3.5, "review_count": 57, "name": "Pockets", "url": "https://www.yelp.com/biz/pockets-chicago-27?adjust_creative=4ANmej72Lq5uvu_h_d83AQ&utm_campaign=yelp_api_v3&utm_medium=api_v3_business_search&utm_source=4ANmej72Lq5uvu_h_d83AQ", "price": "$", "coordinates": {"latitude": 41.799368046201, "longitude": -87.594687275307}, "phone": "+17736671313", "image_url": "https://s3-media3.fl.yelpcdn.com/bphoto/tlWNztTZatZ5SlndQ1TjRg/o.jpg", "location": {"city": "Chicago", "country": "US", "address2": "", "address3": "", "state": "IL", "address1": "1309 E 53rd St", "zip_code": "60615"}, "id": "pockets-chicago-27", "categories": [{"alias": "sandwiches", "title": "Sandwiches"}]}]}
{"total": 258, "businesses": [{"rating": 4.5, "review_count": 63, "name": "57th Street Books", "url": "https://www.yelp.com/biz/57th-street-books-chicago?adjust_creative=4ANmej72Lq5uvu_h_d83AQ&utm_campaign=yelp_api_v3&utm_medium=api_v3_business_search&utm_source=4ANmej72Lq5uvu_h_d83AQ", "price": "$$", "coordinates": {"latitude": 41.791351368171, "longitude": -87.5946687644508}, "phone": "+17736841300", "image_url": "https://s3-media4.fl.yelpcdn.com/bphoto/wXjHTP6XGTyAiUJqMGHRZg/o.jpg", "location": {"city": "Chicago", "country": "US", "address2": "", "address3": "", "state": "IL", "address1": "1301 E 57th St", "zip_code": "60637"}, "id": "57th-street-books-chicago", "categories": [{"alias": "bookstores", "title": "Bookstores"}]}]}
{"total": 258, "businesses": [{"rating": 4.5, "review_count": 8, "name": "Ex Libris", "url": "https://www.yelp.com/biz/ex-libris-chicago?adjust_creative=4ANmej72Lq5uvu_h_d83AQ&utm_campaign=yelp_api_v3&utm_medium=api_v3_business_search&utm_source=4ANmej72Lq5uvu_h_d83AQ", "price": "$", "coordinates": {"latitude": 41.7915141, "longitude": -87.5997908}, "image_url": "https://s3-media2.fl.yelpcdn.com/bphoto/iSXqBpkjBshasTTo4Bmzzg/o.jpg", "location": {"city": "Chicago", "country": "US", "address2": "1100 E 57th St", "address3": "", "state": "IL", "address1": "The Joseph Regenstein Library", "zip_code": "60637"}, "id": "ex-libris-chicago", "categories": [{"alias": "coffee", "title": "Coffee & Tea"}]}]}
{"total": 258, "businesses": [{"rating": 4.0, "review_count": 11, "name": "Midway Plaisance Rink", "url": "https://www.yelp.com/biz/midway-plaisance-rink-chicago?adjust_creative=4ANmej72Lq5uvu_h_d83AQ&utm_campaign=yelp_api_v3&utm_medium=api_v3_business_search&utm_source=4ANmej72Lq5uvu_h_d83AQ", "coordinates": {"latitude": 41.78682329079, "longitude": -87.5989305141342}, "phone": "+13127452470", "image_url": "https://s3-media2.fl.yelpcdn.com/bphoto/1NIrsPcBLNbU4ty9ulNMVw/o.jpg", "location": {"city": "Chicago", "country": "US", "address2": "", "address3": "", "state": "IL", "address1": "1130 Midway Plaisance N", "zip_code": "60637"}, "id": "midway-plaisance-rink-chicago", "categories": [{"alias": "skatingrinks", "title": "Skating Rinks"}, {"alias": "parks", "title": "Parks"}]}]}
{"total": 258, "businesses": [{"rating": 3.5, "review_count": 29, "name": "Cemitas Puebla", "url": "https://www.yelp.com/biz/cemitas-puebla-chicago-11?adjust_creative=4ANmej72Lq5uvu_h_d83AQ&utm_campaign=yelp_api_v3&utm_medium=api_v3_business_search&utm_source=4ANmej72Lq5uvu_h_d83AQ", "price": "$$", "coordinates": {"latitude": 41.7913367116765, "longitude": -87.5939433132448}, "image_url": "https://s3-media3.fl.yelpcdn.com/bphoto/E433leH1KA5Z209X-OI0ZA/o.jpg", "location": {"city": "Chicago", "country": "US", "address2": "", "address3": null, "state": "IL", "address1": "1321 E 57th St", "zip_code": "60637"}, "id": "cemitas-puebla-chicago-11", "categories": [{"alias": "mexican", "title": "Mexican"}]}]}
{"total": 258, "businesses": [{"rating": 3.5, "review_count": 22, "name": "Quadrangle Club", "url": "https://www.yelp.com/biz/quadrangle-club-chicago?adjust_creative=4ANmej72Lq5uvu_h_d83AQ&utm_campaign=yelp_api_v3&utm_medium=api_v3_business_search&utm_source=4ANmej72Lq5uvu_h_d83AQ", "price": "$$", "coordinates": {"latitude": 41.7913988, "longitude": -87.5976079}, "phone": "+17737027221", "image_url": "https://s3-media4.fl.yelpcdn.com/bphoto/R8jkV-OAMnR7VtGIe81_vQ/o.jpg", "location": {"city": "Chicago", "country": "US", "address2": "", "address3": "", "state": "IL", "address1": "1155 E 57th St", "zip_code": "60637"}, "id": "quadrangle-club-chicago", "categories": [{"alias": "venues", "title": "Venues & Event Spaces"}, {"alias": "tradamerican", "title": "American (Traditional)"}]}]}
{"total": 258, "businesses": [{"rating": 4.5, "review_count": 44, "name": "Smart Museum of Art", "url": "https://www.yelp.com/biz/smart-museum-of-art-chicago?adjust_creative=4ANmej72Lq5uvu_h_d83AQ&utm_campaign=yelp_api_v3&utm_medium=api_v3_business_search&utm_source=4ANmej72Lq5uvu_h_d83AQ", "coordinates": {"latitude": 41.7947272, "longitude": -87.5998949}, "phone": "+17737020200", "image_url": "https://s3-media3.fl.yelpcdn.com/bphoto/r9yeU4ZrCnnUWO2UNLLv9g/o.jpg", "location": {"city": "Chicago", "country": "US", "address2": null, "address3": "", "state": "IL", "address1": "5550 S Greenwood Ave", "zip_code": "60637"}, "id": "smart-museum-of-art-chicago", "categories": [{"alias": "artmuseums", "title": "Art Museums"}]}]}
{"total": 258, "businesses": [{"rating": 4.0, "review_count": 74, "name": "Parker's, Holistic Pet Market", "url": "https://www.yelp.com/biz/parkers-holistic-pet-market-chicago-2?adjust_creative=4ANmej72Lq5uvu_h_d83AQ&utm_campaign=yelp_api_v3&utm_medium=api_v3_business_search&utm_source=4ANmej72Lq5uvu_h_d83AQ", "coordinates": {"latitude": 41.7953236, "longitude": -87.5931823}, "phone": "+17736437387", "image_url": "https://s3-media1.fl.yelpcdn.com/bphoto/F3VbaQADHn1rsWaLzVYL7A/o.jpg", "location": {"city": "Chicago", "country": "US", "address2": "", "address3": "", "state": "IL", "address1": "1342 E 55th St", "zip_code": "60615"}, "id": "parkers-holistic-pet-market-chicago-2", "categories": [{"alias": "petstore", "title": "Pet Stores"}, {"alias": "groomer", "title": "Pet Groomers"}]}]}
{"total": 258, "businesses": [{"rating": 3.5, "review_count": 39, "name": "Starbucks", "url": "https://www.yelp.com/biz/starbucks-chicago-122?adjust_creative=4ANmej72Lq5uvu_h_d83AQ&utm_campaign=yelp_api_v3&utm_medium=api_v3_business_search&utm_source=4ANmej72Lq5uvu_h_d83AQ", "price": "$", "coordinates": {"latitude": 41.7950800806284, "longitude": -87.5972228497267}, "phone": "+17732561930", "image_url": "https://s3-media4.fl.yelpcdn.com/bphoto/YGDdUiQapzEi9ZgNpa76Kg/o.jpg", "location": {"city": "Chicago", "address1": "1174 E 55th St", "address2": "", "address3": "", "state": "IL", "country": "US", "zip_code": "60615"}, "id": "starbucks-chicago-122", "categories": [{"alias": "coffee", "title": "Coffee & Tea"}]}]}
{"total": 258, "businesses": [{"rating": 3.0, "review_count": 132, "name": "Yusho", "url": "https://www.yelp.com/biz/yusho-chicago-4?adjust_creative=4ANmej72Lq5uvu_h_d83AQ&utm_campaign=yelp_api_v3&utm_medium=api_v3_business_search&utm_source=4ANmej72Lq5uvu_h_d83AQ", "price": "$$", "coordinates": {"latitude": 41.7993423510138, "longitude": -87.5948768714022}, "phone": "+17736431652", "image_url": "https://s3-media1.fl.yelpcdn.com/bphoto/eb232T0GGKA-pU9F5FwDwg/o.jpg", "location": {"city": "Chicago", "country": "US", "address2": "", "address3": "", "state": "IL", "address1": "1301 E 53rd St", "zip_code": "60615"}, "id": "yusho-chicago-4", "categories": [{"alias": "ramen", "title": "Ramen"}]}]}
{"total": 258, "businesses": [{"rating": 3.0, "review_count": 196, "name": "Shinju Sushi", "url": "https://www.yelp.com/biz/shinju-sushi-chicago?adjust_creative=4ANmej72Lq5uvu_h_d83AQ&utm_campaign=yelp_api_v3&utm_medium=api_v3_business_search&utm_source=4ANmej72Lq5uvu_h_d83AQ", "price": "$$", "coordinates": {"latitude": 41.7992599, "longitude": -87.59219}, "phone": "+17739666669", "image_url": "https://s3-media4.fl.yelpcdn.com/bphoto/xdX3WOWGnKfRhZ9Y6wY-jw/o.jpg", "location": {"city": "Chicago", "country": "US", "address2": "", "address3": "", "state": "IL", "address1": "1375 E 53rd St", "zip_code": "60615"}, "id": "shinju-sushi-chicago", "categories": [{"alias": "japanese", "title": "Japanese"}, {"alias": "sushi", "title": "Sushi Bars"}]}]}
{"total": 258, "businesses": [{"rating": 3.5, "review_count": 94, "name": "Hyde Park Taco Station", "url": "https://www.yelp.com/biz/hyde-park-taco-station-chicago?adjust_creative=4ANmej72Lq5uvu_h_d83AQ&utm_campaign=yelp_api_v3&utm_medium=api_v3_business_search&utm_source=4ANmej72Lq5uvu_h_d83AQ", "price": "$", "coordinates": {"latitude": 41.7993505395574, "longitude": -87.5920339191647}, "phone": "+17738911118", "image_url": "https://s3-media4.fl.yelpcdn.com/bphoto/epreT4gbWM2uYii1lAMHYA/o.jpg", "location": {"city": "Chicago", "country": "US", "address2": "", "address3": "", "state": "IL", "address1": "5300 S Dorchester Ave", "zip_code": "60615"}, "id": "hyde-park-taco-station-chicago", "categories": [{"alias": "mexican", "title": "Mexican"}]}]}
{"total": 258, "businesses": [{"rating": 4.5, "review_count": 45, "name": "Blackstone Bicycle Works", "url": "https://www.yelp.com/biz/blackstone-bicycle-works-chicago?adjust_creative=4ANmej72Lq5uvu_h_d83AQ&utm_campaign=yelp_api_v3&utm_medium=api_v3_business_search&utm_source=4ANmej72Lq5uvu_h_d83AQ", "price": "$", "coordinates": {"latitude": 41.78407, "longitude": -87.59057}, "phone": "+17732415458", "image_url": "https://s3-media3.fl.yelpcdn.com/bphoto/swldehdR9XxrHgGDxooZFw/o.jpg", "location": {"city": "Chicago", "country": "US", "address2": "", "address3": "", "state": "IL", "address1": "6100 S Blackstone Ave", "zip_code": "60637"}, "id": "blackstone-bicycle-works-chicago", "categories": [{"alias": "bikes", "title": "Bikes"}, {"alias": "bike_repair_maintenance", "title": "Bike Repair/Maintenance"}]}]}
{"total": 258, "businesses": [{"rating": 5.0, "review_count": 14, "name": "Rockefeller Memorial Chapel", "url": "https://www.yelp.com/biz/rockefeller-memorial-chapel-chicago?adjust_creative=4ANmej72Lq5uvu_h_d83AQ&utm_campaign=yelp_api_v3&utm_medium=api_v3_business_search&utm_source=4ANmej72Lq5uvu_h_d83AQ", "coordinates": {"latitude": 41.7892429, "longitude": -87.5965349}, "phone": "+17737022100", "image_url": "https://s3-media2.fl.yelpcdn.com/bphoto/Bxe_qEX_Mpnh4_t_Jvox8g/o.jpg", "location": {"city": "Chicago", "address1": "5850 S Woodlawn Ave", "address2": "", "address3": "", "state": "IL", "country": "US", "zip_code": "60637"}, "id": "rockefeller-memorial-chapel-chicago", "categories": [{"alias": "churches", "title": "Churches"}, {"alias": "venues", "title": "Venues & Event Spaces"}]}]}
{"total": 258, "businesses": [{"rating": 4.5, "review_count": 19, "name": "Gemini Carpet Cleaning", "url": "https://www.yelp.com/biz/gemini-carpet-cleaning-chicago-3?adjust_creative=4ANmej72Lq5uvu_h_d83AQ&utm_campaign=yelp_api_v3&utm_medium=api_v3_business_search&utm_source=4ANmej72Lq5uvu_h_d83AQ", "coordinates": {"latitude": 41.79771, "longitude": -87.6008}, "phone": "+17737063460", "image_url": "https://s3-media1.fl.yelpcdn.com/bphoto/WmKPXB96QcUlLr_xp8KF7g/o.jpg", "location": {"city": "Chicago", "address1": "5401 S Ellis Ave", "address2": "", "address3": "", "state": "IL", "country": "US", "zip_code": "60615"}, "id": "gemini-carpet-cleaning-chicago-3", "categories": [{"alias": "homecleaning", "title": "Home Cleaning"}, {"alias": "carpet_cleaning", "title": "Carpet Cleaning"}]}]}
{"total": 258, "businesses": [{"rating": 4.5, "review_count": 6, "name": "Bixler Playlot and Park", "url": "https://www.yelp.com/biz/bixler-playlot-and-park-chicago?adjust_creative=4ANmej72Lq5uvu_h_d83AQ&utm_campaign=yelp_api_v3&utm_medium=api_v3_business_search&utm_source=4ANmej72Lq5uvu_h_d83AQ", "coordinates": {"latitude": 41.79146, "longitude": -87.59322}, "phone": "+13127427529", "image_url": "https://s3-media4.fl.yelpcdn.com/bphoto/JCQyrnEFIqLm6tNqSfCh1A/o.jpg", "location": {"city": "Chicago", "country": "US", "address2": "", "address3": "", "state": "IL", "address1": "57th Street and Kenwood Street", "zip_code": "60686"}, "id": "bixler-playlot-and-park-chicago", "categories": [{"alias": "parks", "title": "Parks"}]}]}
{"total": 258, "businesses": [{"rating": 5.0, "review_count": 3, "name": "Harper Cafe", "url": "https://www.yelp.com/biz/harper-cafe-chicago?adjust_creative=4ANmej72Lq5uvu_h_d83AQ&utm_campaign=yelp_api_v3&utm_medium=api_v3_business_search&utm_source=4ANmej72Lq5uvu_h_d83AQ", "price": "$", "coordinates": {"latitude": 41.7879028, "longitude": -87.5987244}, "phone": "+17737028787", "image_url": "https://s3-media3.fl.yelpcdn.com/bphoto/Q6A_JNfLxiMWw-i2Rj0q0A/o.jpg", "location": {"city": "Chicago", "address1": "1116 E 59th St.", "address2": "3rd Floor", "address3": "", "state": "IL", "country": "US", "zip_code": "60637"}, "id": "harper-cafe-chicago", "categories": [{"alias": "coffee", "title": "Coffee & Tea"}]}]}
{"total": 258, "businesses": [{"rating": 3.0, "review_count": 114, "name": "Seven Ten Lanes", "url": "https://www.yelp.com/biz/seven-ten-lanes-chicago?adjust_creative=4ANmej72Lq5uvu_h_d83AQ&utm_campaign=yelp_api_v3&utm_medium=api_v3_business_search&utm_source=4ANmej72Lq5uvu_h_d83AQ", "price": "$$", "coordinates": {"latitude": 41.7949647456408, "longitude": -87.6003228127956}, "phone": "+17733472695", "image_url": "https://s3-media2.fl.yelpcdn.com/bphoto/Tyyz-aFAAM-sa93hgW3GMA/o.jpg", "location": {"city": "Chicago", "country": "US", "address2": "", "address3": "", "state": "IL", "address1": "1055 E 55th St", "zip_code": "60637"}, "id": "seven-ten-lanes-chicago", "categories": [{"alias": "lounges", "title": "Lounges"}, {"alias": "tradamerican", "title": "American (Traditional)"}, {"alias": "bowling", "title": "Bowling"}]}]}
{"total": 258, "businesses": [{"rating": 2.5, "review_count": 180, "name": "Leona's Pizza & Italian Restaurant", "url": "https://www.yelp.com/biz/leonas-pizza-and-italian-restaurant-chicago-5?adjust_creative=4ANmej72Lq5uvu_h_d83AQ&utm_campaign=yelp_api_v3&utm_medium=api_v3_business_search&utm_source=4ANmej72Lq5uvu_h_d83AQ", "price": "$$", "coordinates": {"latitude": 41.7998955447217, "longitude": -87.5952323368751}, "phone": "+17733632600", "image_url": "https://s3-media1.fl.yelpcdn.com/bphoto/KMjiBtJ5840N8BJgHpTGzw/o.jpg", "location": {"city": "Chicago", "country": "US", "address2": "", "address3": "", "state": "IL", "address1": "1236 E 53rd St", "zip_code": "60615"}, "id": "leonas-pizza-and-italian-restaurant-chicago-5", "categories": [{"alias": "italian", "title": "Italian"}, {"alias": "pizza", "title": "Pizza"}]}]}
{"total": 258, "businesses": [{"rating": 2.5, "review_count": 188, "name": "Giordano's", "url": "https://www.yelp.com/biz/giordanos-chicago-7?adjust_creative=4ANmej72Lq5uvu_h_d83AQ&utm_campaign=yelp_api_v3&utm_medium=api_v3_business_search&utm_source=4ANmej72Lq5uvu_h_d83AQ", "price": "$$", "coordinates": {"latitude": 41.7991224756374, "longitude": -87.590327937988}, "phone": "+17739470200", "image_url": "https://s3-media1.fl.yelpcdn.com/bphoto/dIkribhOgL4ze6fc-8Gtiw/o.jpg", "location": {"city": "Chicago", "country": "US", "address2": "", "address3": "", "state": "IL", "address1": "5311 S Blackstone Ave", "zip_code": "60615"}, "id": "giordanos-chicago-7", "categories": [{"alias": "pizza", "title": "Pizza"}, {"alias": "italian", "title": "Italian"}, {"alias": "salad", "title": "Salad"}]}]}
{"total": 258, "businesses": [{"rating": 4.5, "review_count": 19, "name": "Joseph Regenstein Library", "url": "https://www.yelp.com/biz/joseph-regenstein-library-chicago?adjust_creative=4ANmej72Lq5uvu_h_d83AQ&utm_campaign=yelp_api_v3&utm_medium=api_v3_business_search&utm_source=4ANmej72Lq5uvu_h_d83AQ", "coordinates": {"latitude": 41.7915141, "longitude": -87.5997908}, "phone": "+17737024685", "image_url": "https://s3-media2.fl.yelpcdn.com/bphoto/6gqIpl4-NKlnoVG50ioUDQ/o.jpg", "location": {"city": "Chicago", "country": "US", "address2": "", "address3": "", "state": "IL", "address1": "1100 E 57th St", "zip_code": "60637"}, "id": "joseph-regenstein-library-chicago", "categories": [{"alias": "libraries", "title": "Libraries"}]}]}
{"total": 258, "businesses": [{"rating": 3.5, "review_count": 26, "name": "Valley Of Jordan", "url": "https://www.yelp.com/biz/valley-of-jordan-chicago?adjust_creative=4ANmej72Lq5uvu_h_d83AQ&utm_campaign=yelp_api_v3&utm_medium=api_v3_business_search&utm_source=4ANmej72Lq5uvu_h_d83AQ", "price": "$", "coordinates": {"latitude": 41.7993608862162, "longitude": -87.6009786128998}, "phone": "+17733639810", "image_url": "https://s3-media1.fl.yelpcdn.com/bphoto/7arh_T9njtUg6eusTKZ53w/o.jpg", "location": {"city": "Chicago", "country": "US", "address2": "", "address3": "", "state": "IL", "address1": "1009 E 53rd St", "zip_code": "60615"}, "id": "valley-of-jordan-chicago", "categories": [{"alias": "mideastern", "title": "Middle Eastern"}]}]}
{"total": 258, "businesses": [{"rating": 5.0, "review_count": 17, "name": "Futons-N-More", "url": "https://www.yelp.com/biz/futons-n-more-chicago?adjust_creative=4ANmej72Lq5uvu_h_d83AQ&utm_campaign=yelp_api_v3&utm_medium=api_v3_business_search&utm_source=4ANmej72Lq5uvu_h_d83AQ", "price": "$$", "coordinates": {"latitude": 41.7996249, "longitude": -87.5923116}, "phone": "+17733247083", "image_url": "https://s3-media4.fl.yelpcdn.com/bphoto/vH3EE41wgRdaQjk8d1zXmA/o.jpg", "location": {"city": "Chicago", "country": "US", "address2": "", "address3": "", "state": "IL", "address1": "1370 E 53rd St", "zip_code": "60615"}, "id": "futons-n-more-chicago", "categories": [{"alias": "furniture", "title": "Furniture Stores"}, {"alias": "mattresses", "title": "Mattresses"}]}]}
{"total": 258, "businesses": [{"rating": 3.0, "review_count": 48, "name": "Nathan's Chicago Style", "url": "https://www.yelp.com/biz/nathans-chicago-style-chicago?adjust_creative=4ANmej72Lq5uvu_h_d83AQ&utm_campaign=yelp_api_v3&utm_medium=api_v3_business_search&utm_source=4ANmej72Lq5uvu_h_d83AQ", "price": "$", "coordinates": {"latitude": 41.7996249, "longitude": -87.5922875}, "phone": "+17732885353", "image_url": "https://s3-media3.fl.yelpcdn.com/bphoto/m1kTWNFEUIS8nVDSJkTqgA/o.jpg", "location": {"city": "Chicago", "country": "US", "address2": "", "address3": "", "state": "IL", "address1": "1372 E 53rd St", "zip_code": "60615"}, "id": "nathans-chicago-style-chicago", "categories": [{"alias": "vegetarian", "title": "Vegetarian"}, {"alias": "caribbean", "title": "Caribbean"}, {"alias": "catering", "title": "Caterers"}]}]}
{"total": 258, "businesses": [{"rating": 4.0, "review_count": 36, "name": "Hyde Park Records", "url": "https://www.yelp.com/biz/hyde-park-records-chicago-2?adjust_creative=4ANmej72Lq5uvu_h_d83AQ&utm_campaign=yelp_api_v3&utm_medium=api_v3_business_search&utm_source=4ANmej72Lq5uvu_h_d83AQ", "price": "$$", "coordinates": {"latitude": 41.7993685445889, "longitude": -87.5920908259841}, "phone": "+17732886588", "image_url": "https://s3-media1.fl.yelpcdn.com/bphoto/eQIUMTv9rb0pyOC1b_aD6A/o.jpg", "location": {"city": "Chicago", "country": "US", "address2": "", "address3": "", "state": "IL", "address1": "1377 E 53rd St", "zip_code": "60615"}, "id": "hyde-park-records-chicago-2", "categories": [{"alias": "musicvideo", "title": "Music & DVDs"}, {"alias": "vinyl_records", "title": "Vinyl Records"}]}]}
{"total": 258, "businesses": [{"rating": 5.0, "review_count": 19, "name": "Hyde Park Computer Center", "url": "https://www.yelp.com/biz/hyde-park-computer-center-chicago-2?adjust_creative=4ANmej72Lq5uvu_h_d83AQ&utm_campaign=yelp_api_v3&utm_medium=api_v3_business_search&utm_source=4ANmej72Lq5uvu_h_d83AQ", "coordinates": {"latitude": 41.79941657859, "longitude": -87.5901250901563}, "phone": "+17736439501", "image_url": "https://s3-media4.fl.yelpcdn.com/bphoto/vI9JaZ4wWNyxbyzrC3xDdQ/o.jpg", "location": {"city": "Chicago", "country": "US", "address2": "", "address3": "", "state": "IL", "address1": "1441 E 53rd St", "zip_code": "60615"}, "id": "hyde-park-computer-center-chicago-2", "categories": [{"alias": "itservices", "title": "IT Services & Computer Repair"}]}]}
{"total": 258, "businesses": [{"rating": 4.0, "review_count": 52, "name": "Kimbark Beverage Shoppe", "url": "https://www.yelp.com/biz/kimbark-beverage-shoppe-chicago-2?adjust_creative=4ANmej72Lq5uvu_h_d83AQ&utm_campaign=yelp_api_v3&utm_medium=api_v3_business_search&utm_source=4ANmej72Lq5uvu_h_d83AQ", "price": "$$", "coordinates": {"latitude": 41.7995899, "longitude": -87.595824}, "phone": "+17734933355", "image_url": "https://s3-media2.fl.yelpcdn.com/bphoto/Lhj7J-mYOBNK3lqJ3VyPSw/o.jpg", "location": {"city": "Chicago", "address1": "1214 E 53rd St", "address2": "", "address3": "", "state": "IL", "country": "US", "zip_code": "60615"}, "id": "kimbark-beverage-shoppe-chicago-2", "categories": [{"alias": "beer_and_wine", "title": "Beer, Wine & Spirits"}]}]}
{"total": 258, "businesses": [{"rating": 4.0, "review_count": 61, "name": "The University of Chicago", "url": "https://www.yelp.com/biz/the-university-of-chicago-chicago-12?adjust_creative=4ANmej72Lq5uvu_h_d83AQ&utm_campaign=yelp_api_v3&utm_medium=api_v3_business_search&utm_source=4ANmej72Lq5uvu_h_d83AQ", "coordinates": {"latitude": 41.7901496887207, "longitude": -87.5998001098633}, "phone": "+12244074044", "image_url": "https://s3-media4.fl.yelpcdn.com/bphoto/hZsiRsVGCnEnIZq8pLK_iQ/o.jpg", "location": {"city": "Chicago", "country": "US", "address2": "", "address3": "", "state": "IL", "address1": "5801 S Ellis Ave", "zip_code": "60637"}, "id": "the-university-of-chicago-chicago-12", "categories": [{"alias": "collegeuniv", "title": "Colleges & Universities"}]}]}
{"total": 258, "businesses": [{"rating": 4.5, "review_count": 41, "name": "Dms Moving Service", "url": "https://www.yelp.com/biz/dms-moving-service-chicago?adjust_creative=4ANmej72Lq5uvu_h_d83AQ&utm_campaign=yelp_api_v3&utm_medium=api_v3_business_search&utm_source=4ANmej72Lq5uvu_h_d83AQ", "coordinates": {"latitude": 41.7840343, "longitude": -87.5962784}, "phone": "+17737529115", "image_url": "https://s3-media4.fl.yelpcdn.com/bphoto/5-QppebnZ8JuobhXp2ohxA/o.jpg", "location": {"city": "Chicago", "country": "US", "address2": null, "address3": null, "state": "IL", "address1": "6103 S Woodlawn Ave", "zip_code": "60637"}, "id": "dms-moving-service-chicago", "categories": [{"alias": "movers", "title": "Movers"}]}]}
{"total": 258, "businesses": [{"rating": 4.5, "review_count": 11, "name": "The Joseph Bond Chapel", "url": "https://www.yelp.com/biz/the-joseph-bond-chapel-chicago?adjust_creative=4ANmej72Lq5uvu_h_d83AQ&utm_campaign=yelp_api_v3&utm_medium=api_v3_business_search&utm_source=4ANmej72Lq5uvu_h_d83AQ", "coordinates": {"latitude": 41.7878849, "longitude": -87.6001051}, "phone": "+17737022100", "image_url": "https://s3-media4.fl.yelpcdn.com/bphoto/T14ikXxoqY00k2xEm7hp3Q/o.jpg", "location": {"city": "Chicago", "country": "US", "address2": null, "address3": "", "state": "IL", "address1": "1050 E 59th St", "zip_code": "60637"}, "id": "the-joseph-bond-chapel-chicago", "categories": [{"alias": "churches", "title": "Churches"}]}]}
{"total": 258, "businesses": [{"rating": 5.0, "review_count": 12, "name": "Sprocket & Stone", "url": "https://www.yelp.com/biz/sprocket-and-stone-chicago?adjust_creative=4ANmej72Lq5uvu_h_d83AQ&utm_campaign=yelp_api_v3&utm_medium=api_v3_business_search&utm_source=4ANmej72Lq5uvu_h_d83AQ", "coordinates": {"latitude": 41.7993181153944, "longitude": -87.600754941205}, "phone": "+17739664777", "image_url": "https://s3-media3.fl.yelpcdn.com/bphoto/bLPpX6RVeVronUCWtBt5fA/o.jpg", "location": {"city": "Chicago", "address1": "1013 E 53rd St", "address2": null, "address3": "", "state": "IL", "country": "US", "zip_code": "60615"}, "id": "sprocket-and-stone-chicago", "categories": [{"alias": "petstore", "title": "Pet Stores"}]}]}
{"total": 258, "businesses": [{"rating": 4.5, "review_count": 19, "name": "Doc Films", "url": "https://www.yelp.com/biz/doc-films-chicago?adjust_creative=4ANmej72Lq5uvu_h_d83AQ&utm_campaign=yelp_api_v3&utm_medium=api_v3_business_search&utm_source=4ANmej72Lq5uvu_h_d83AQ", "coordinates": {"latitude": 41.7881609819701, "longitude": -87.5955498218536}, "phone": "+17737028574", "image_url": "https://s3-media1.fl.yelpcdn.com/bphoto/NkcRqc0fceTxEcVLrtvOUw/o.jpg", "location": {"city": "Chicago", "country": "US", "address2": "", "address3": "", "state": "IL", "address1": "1212 E 59th St", "zip_code": "60637"}, "id": "doc-films-chicago", "categories": [{"alias": "movietheaters", "title": "Cinema"}]}]}
{"total": 258, "businesses": [{"rating": 3.5, "review_count": 25, "name": "Boston Market", "url": "https://www.yelp.com/biz/boston-market-chicago-3?adjust_creative=4ANmej72Lq5uvu_h_d83AQ&utm_campaign=yelp_api_v3&utm_medium=api_v3_business_search&utm_source=4ANmej72Lq5uvu_h_d83AQ", "price": "$", "coordinates": {"latitude": 41.7996582224253, "longitude": -87.5905899222851}, "phone": "+17732882600", "image_url": "https://s3-media1.fl.yelpcdn.com/bphoto/Sj4H6nHelwWEhDWjWQyS0g/o.jpg", "location": {"city": "Chicago", "country": "US", "address2": "", "address3": "", "state": "IL", "address1": "1424 E 53rd St", "zip_code": "60615"}, "id": "boston-market-chicago-3", "categories": [{"alias": "tradamerican", "title": "American (Traditional)"}, {"alias": "comfortfood", "title": "Comfort Food"}]}]}
{"total": 258, "businesses": [{"rating": 4.0, "review_count": 84, "name": "ZBerry", "url": "https://www.yelp.com/biz/zberry-chicago?adjust_creative=4ANmej72Lq5uvu_h_d83AQ&utm_campaign=yelp_api_v3&utm_medium=api_v3_business_search&utm_source=4ANmej72Lq5uvu_h_d83AQ", "price": "$", "coordinates": {"latitude": 41.7996393274519, "longitude": -87.5923514134042}, "phone": "+17738558754", "image_url": "https://s3-media4.fl.yelpcdn.com/bphoto/NTqJW7FeZUDOxHnvo6oCrg/o.jpg", "location": {"city": "Chicago", "country": "US", "address2": "", "address3": "", "state": "IL", "address1": "1368 E 53rd St", "zip_code": "60615"}, "id": "zberry-chicago", "categories": [{"alias": "icecream", "title": "Ice Cream & Frozen Yogurt"}]}]}
{"total": 258, "businesses": [{"rating": 3.0, "review_count": 44, "name": "Wingers", "url": "https://www.yelp.com/biz/wingers-chicago?adjust_creative=4ANmej72Lq5uvu_h_d83AQ&utm_campaign=yelp_api_v3&utm_medium=api_v3_business_search&utm_source=4ANmej72Lq5uvu_h_d83AQ", "price": "$", "coordinates": {"latitude": 41.7996254, "longitude": -87.5923386}, "phone": "+17736676000", "image_url": "https://s3-media1.fl.yelpcdn.com/bphoto/RvRhcSMFgNWCSY_317UnmQ/o.jpg", "location": {"city": "Chicago", "address1": "1368 E 53rd St", "address2": "", "address3": "", "state": "IL", "country": "US", "zip_code": "60615"}, "id": "wingers-chicago", "categories": [{"alias": "tradamerican", "title": "American (Traditional)"}, {"alias": "burgers", "title": "Burgers"}, {"alias": "chicken_wings", "title": "Chicken Wings"}]}]}
{"total": 258, "businesses": [{"rating": 4.5, "review_count": 12, "name": "Seminary Co-Op Bookstores", "url": "https://www.yelp.com/biz/seminary-co-op-bookstores-chicago-2?adjust_creative=4ANmej72Lq5uvu_h_d83AQ&utm_campaign=yelp_api_v3&utm_medium=api_v3_business_search&utm_source=4ANmej72Lq5uvu_h_d83AQ", "price": "$$", "coordinates": {"latitude": 41.7902101402343, "longitude": -87.5960861482909}, "phone": "+17737524381", "image_url": "https://s3-media3.fl.yelpcdn.com/bphoto/P9Lbc6ifFyMz_O2_oBoL4g/o.jpg", "location": {"city": "Chicago", "country": "US", "address2": "", "address3": "", "state": "IL", "address1": "5751 S Woodlawn Ave", "zip_code": "60637"}, "id": "seminary-co-op-bookstores-chicago-2", "categories": [{"alias": "bookstores", "title": "Bookstores"}]}]}
{"total": 258, "businesses": [{"rating": 4.5, "review_count": 19, "name": "Court Theatre", "url": "https://www.yelp.com/biz/court-theatre-chicago?adjust_creative=4ANmej72Lq5uvu_h_d83AQ&utm_campaign=yelp_api_v3&utm_medium=api_v3_business_search&utm_source=4ANmej72Lq5uvu_h_d83AQ", "coordinates": {"latitude": 41.7940017269384, "longitude": -87.6009714889448}, "phone": "+17737534472", "image_url": "https://s3-media3.fl.yelpcdn.com/bphoto/lW1w4tH_hct-oqbkt9OxYw/o.jpg", "location": {"city": "Chicago", "country": "US", "address2": "", "address3": "", "state": "IL", "address1": "5535 S Ellis Ave", "zip_code": "60637"}, "id": "court-theatre-chicago", "categories": [{"alias": "theater", "title": "Performing Arts"}]}]}
{"total": 258, "businesses": [{"rating": 5.0, "review_count": 6, "name": "University of Chicago Graduate School of Business", "url": "https://www.yelp.com/biz/university-of-chicago-graduate-school-of-business-chicago?adjust_creative=4ANmej72Lq5uvu_h_d83AQ&utm_campaign=yelp_api_v3&utm_medium=api_v3_business_search&utm_source=4ANmej72Lq5uvu_h_d83AQ", "coordinates": {"latitude": 41.7891219624453, "longitude": -87.5955912474636}, "phone": "+17737027743", "image_url": "https://s3-media1.fl.yelpcdn.com/bphoto/6PxKnAchWqiyFEoA9i5s6A/o.jpg", "location": {"city": "Chicago", "address1": "5807 S Woodlawn Ave", "address2": null, "address3": "", "state": "IL", "country": "US", "zip_code": "60637"}, "id": "university-of-chicago-graduate-school-of-business-chicago", "categories": [{"alias": "collegeuniv", "title": "Colleges & Universities"}]}]}
{"total": 258, "businesses": [{"rating": 4.5, "review_count": 27, "name": "Hyde Park Hair Salon", "url": "https://www.yelp.com/biz/hyde-park-hair-salon-chicago?adjust_creative=4ANmej72Lq5uvu_h_d83AQ&utm_campaign=yelp_api_v3&utm_medium=api_v3_business_search&utm_source=4ANmej72Lq5uvu_h_d83AQ", "price": "$$", "coordinates": {"latitude": 41.7997693, "longitude": -87.5905534}, "phone": "+17734936028", "image_url": "https://s3-media4.fl.yelpcdn.com/bphoto/CVJ4mzhg4beTVadFCrHKLg/o.jpg", "location": {"city": "Chicago", "country": "US", "address2": "Ste 1A", "address3": "", "state": "IL", "address1": "5234 S Blackstone Ave", "zip_code": "60615"}, "id": "hyde-park-hair-salon-chicago", "categories": [{"alias": "barbers", "title": "Barbers"}, {"alias": "hair", "title": "Hair Salons"}]}]}
{"total": 258, "businesses": [{"rating": 4.5, "review_count": 28, "name": "Freehling Pot and Pan Company", "url": "https://www.yelp.com/biz/freehling-pot-and-pan-company-chicago?adjust_creative=4ANmej72Lq5uvu_h_d83AQ&utm_campaign=yelp_api_v3&utm_medium=api_v3_business_search&utm_source=4ANmej72Lq5uvu_h_d83AQ", "price": "$$", "coordinates": {"latitude": 41.7993507346278, "longitude": -87.5924924901417}, "phone": "+17736438080", "image_url": "https://s3-media1.fl.yelpcdn.com/bphoto/UZD93jt7B9T-u68x0c67eQ/o.jpg", "location": {"city": "Chicago", "country": "US", "address2": "", "address3": "", "state": "IL", "address1": "1365 E 53rd St", "zip_code": "60615"}, "id": "freehling-pot-and-pan-company-chicago", "categories": [{"alias": "kitchenandbath", "title": "Kitchen & Bath"}]}]}
{"total": 258, "businesses": [{"rating": 5.0, "review_count": 7, "name": "The Revival", "url": "https://www.yelp.com/biz/the-revival-chicago?adjust_creative=4ANmej72Lq5uvu_h_d83AQ&utm_campaign=yelp_api_v3&utm_medium=api_v3_business_search&utm_source=4ANmej72Lq5uvu_h_d83AQ", "price": "$$", "coordinates": {"latitude": 41.79536, "longitude": -87.59698}, "phone": "+18668114111", "image_url": "https://s3-media1.fl.yelpcdn.com/bphoto/5OkFbD-IG6-qIrLKxgZF-w/o.jpg", "location": {"city": "Chicago", "country": "US", "address2": "", "address3": "", "state": "IL", "address1": "1160 E. 55th St", "zip_code": "60615"}, "id": "the-revival-chicago", "categories": [{"alias": "comedyclubs", "title": "Comedy Clubs"}, {"alias": "venues", "title": "Venues & Event Spaces"}]}]}
{"total": 258, "businesses": [{"rating": 3.0, "review_count": 13, "name": "Cobb Coffee Shop", "url": "https://www.yelp.com/biz/cobb-coffee-shop-chicago?adjust_creative=4ANmej72Lq5uvu_h_d83AQ&utm_campaign=yelp_api_v3&utm_medium=api_v3_business_search&utm_source=4ANmej72Lq5uvu_h_d83AQ", "price": "$", "coordinates": {"latitude": 41.7900565, "longitude": -87.6010614}, "image_url": "https://s3-media4.fl.yelpcdn.com/bphoto/qhu64q8FhKHtYHXe9ypw8w/o.jpg", "location": {"city": "Chicago", "country": "US", "address2": "Basement", "address3": "", "state": "IL", "address1": "5811 S Ellis", "zip_code": "60637"}, "id": "cobb-coffee-shop-chicago", "categories": [{"alias": "coffee", "title": "Coffee & Tea"}]}]}
{"total": 258, "businesses": [{"rating": 4.0, "review_count": 23, "name": "Mr T's Shoe Service", "url": "https://www.yelp.com/biz/mr-ts-shoe-service-chicago-2?adjust_creative=4ANmej72Lq5uvu_h_d83AQ&utm_campaign=yelp_api_v3&utm_medium=api_v3_business_search&utm_source=4ANmej72Lq5uvu_h_d83AQ", "coordinates": {"latitude": 41.7992651, "longitude": -87.601015}, "phone": "+17737521538", "image_url": "https://s3-media1.fl.yelpcdn.com/bphoto/zRj0_sZKTxfWhMopqXOYGw/o.jpg", "location": {"city": "Chicago", "address1": "1007 E 53rd St", "address2": null, "address3": "", "state": "IL", "country": "US", "zip_code": "60615"}, "id": "mr-ts-shoe-service-chicago-2", "categories": [{"alias": "shoerepair", "title": "Shoe Repair"}]}]}
{"total": 258, "businesses": [{"rating": 5.0, "review_count": 14, "name": "Hyde Bark Dog Walking", "url": "https://www.yelp.com/biz/hyde-bark-dog-walking-chicago?adjust_creative=4ANmej72Lq5uvu_h_d83AQ&utm_campaign=yelp_api_v3&utm_medium=api_v3_business_search&utm_source=4ANmej72Lq5uvu_h_d83AQ", "coordinates": {"latitude": 41.804935, "longitude": -87.585823}, "phone": "+13122566886", "image_url": "https://s3-media1.fl.yelpcdn.com/bphoto/0zg0fSJj12XEMpGbd7LmdQ/o.jpg", "location": {"city": "Chicago", "country": "US", "address2": null, "address3": "", "state": "IL", "address1": "4940 S East End Ave", "zip_code": "60615"}, "id": "hyde-bark-dog-walking-chicago", "categories": [{"alias": "dogwalkers", "title": "Dog Walkers"}, {"alias": "pet_sitting", "title": "Pet Boarding/Pet Sitting"}]}]}
{"total": 258, "businesses": [{"rating": 4.0, "review_count": 21, "name": "61st Street Farmers Market", "url": "https://www.yelp.com/biz/61st-street-farmers-market-chicago?adjust_creative=4ANmej72Lq5uvu_h_d83AQ&utm_campaign=yelp_api_v3&utm_medium=api_v3_business_search&utm_source=4ANmej72Lq5uvu_h_d83AQ", "price": "$$", "coordinates": {"latitude": 41.78407, "longitude": -87.59057}, "phone": "+17732416044", "image_url": "https://s3-media3.fl.yelpcdn.com/bphoto/anK65Ho8UpTpWN9q_sY98w/o.jpg", "location": {"city": "Chicago", "country": "US", "address2": "", "address3": "", "state": "IL", "address1": "6100 S Blackstone Ave", "zip_code": "60637"}, "id": "61st-street-farmers-market-chicago", "categories": [{"alias": "farmersmarket", "title": "Farmers Market"}]}]}
{"total": 258, "businesses": [{"rating": 4.5, "review_count": 29, "name": "Extreme Clean Cleaning Services", "url": "https://www.yelp.com/biz/extreme-clean-cleaning-services-chicago-2?adjust_creative=4ANmej72Lq5uvu_h_d83AQ&utm_campaign=yelp_api_v3&utm_medium=api_v3_business_search&utm_source=4ANmej72Lq5uvu_h_d83AQ", "coordinates": {"latitude": 41.8019523620605, "longitude": -87.6034698486328}, "phone": "+17733197155", "image_url": "https://s3-media1.fl.yelpcdn.com/bphoto/TW7FDjSBTtGP7qNmlp4OZw/o.jpg", "location": {"city": "Chicago", "country": "US", "address2": null, "address3": "", "state": "IL", "address1": "", "zip_code": "60615"}, "id": "extreme-clean-cleaning-services-chicago-2", "categories": [{"alias": "homecleaning", "title": "Home Cleaning"}, {"alias": "officecleaning", "title": "Office Cleaning"}]}]}
{"total": 258, "businesses": [{"rating": 5.0, "review_count": 5, "name": "Wellness By Jon", "url": "https://www.yelp.com/biz/wellness-by-jon-chicago?adjust_creative=4ANmej72Lq5uvu_h_d83AQ&utm_campaign=yelp_api_v3&utm_medium=api_v3_business_search&utm_source=4ANmej72Lq5uvu_h_d83AQ", "coordinates": {"latitude": 41.80039, "longitude": -87.60382}, "phone": "+17736557536", "image_url": "https://s3-media4.fl.yelpcdn.com/bphoto/6a2G2h4kFz9Mocbs4YuuHw/o.jpg", "location": {"city": "Chicago", "country": "US", "address2": null, "address3": null, "state": "IL", "address1": "", "zip_code": "60615"}, "id": "wellness-by-jon-chicago", "categories": [{"alias": "massage_therapy", "title": "Massage Therapy"}]}]}
{"total": 258, "businesses": [{"rating": 3.0, "review_count": 31, "name": "Dunkin' Donuts / Baskin-Robbins", "url": "https://www.yelp.com/biz/dunkin-donuts-baskin-robbins-chicago-31?adjust_creative=4ANmej72Lq5uvu_h_d83AQ&utm_campaign=yelp_api_v3&utm_medium=api_v3_business_search&utm_source=4ANmej72Lq5uvu_h_d83AQ", "price": "$", "coordinates": {"latitude": 41.7996418, "longitude": -87.5909098}, "phone": "+17732885719", "image_url": "https://s3-media4.fl.yelpcdn.com/bphoto/hyK0XknJ4f2xroD_Ss-U2w/o.jpg", "location": {"city": "Chicago", "country": "US", "address2": "Ste 5", "address3": "", "state": "IL", "address1": "1418 E 53rd St", "zip_code": "60615"}, "id": "dunkin-donuts-baskin-robbins-chicago-31", "categories": [{"alias": "donuts", "title": "Donuts"}, {"alias": "icecream", "title": "Ice Cream & Frozen Yogurt"}, {"alias": "coffee", "title": "Coffee & Tea"}]}]}
{"total": 258, "businesses": [{"rating": 3.5, "review_count": 34, "name": "Jack's Fork in the Road", "url": "https://www.yelp.com/biz/jacks-fork-in-the-road-chicago?adjust_creative=4ANmej72Lq5uvu_h_d83AQ&utm_campaign=yelp_api_v3&utm_medium=api_v3_business_search&utm_source=4ANmej72Lq5uvu_h_d83AQ", "price": "$$", "coordinates": {"latitude": 41.7896135800455, "longitude": -87.6012275801019}, "phone": "+17083055796", "image_url": "https://s3-media4.fl.yelpcdn.com/bphoto/ZtBycJkkHKVSDlKTC3w1rQ/o.jpg", "location": {"city": "Chicago", "country": "US", "address2": "", "address3": "", "state": "IL", "address1": "5801 S Ellis Ave", "zip_code": "60637"}, "id": "jacks-fork-in-the-road-chicago", "categories": [{"alias": "foodtrucks", "title": "Food Trucks"}]}]}
{"total": 258, "businesses": [{"rating": 3.5, "review_count": 30, "name": "Bettye O. Day Spa", "url": "https://www.yelp.com/biz/bettye-o-day-spa-chicago-2?adjust_creative=4ANmej72Lq5uvu_h_d83AQ&utm_campaign=yelp_api_v3&utm_medium=api_v3_business_search&utm_source=4ANmej72Lq5uvu_h_d83AQ", "price": "$$", "coordinates": {"latitude": 41.79985, "longitude": -87.5907}, "phone": "+17737523600", "image_url": "https://s3-media3.fl.yelpcdn.com/bphoto/sh2bG6VVMKcUX0XTTAPWzA/o.jpg", "location": {"city": "Chicago", "country": "US", "address2": "Ste 304", "address3": "", "state": "IL", "address1": "1424-28 E 53rd St", "zip_code": "60615"}, "id": "bettye-o-day-spa-chicago-2", "categories": [{"alias": "spas", "title": "Day Spas"}]}]}
{"total": 258, "businesses": [{"rating": 3.5, "review_count": 24, "name": "Hair Design International", "url": "https://www.yelp.com/biz/hair-design-international-chicago?adjust_creative=4ANmej72Lq5uvu_h_d83AQ&utm_campaign=yelp_api_v3&utm_medium=api_v3_business_search&utm_source=4ANmej72Lq5uvu_h_d83AQ", "price": "$$", "coordinates": {"latitude": 41.79118, "longitude": -87.59432}, "phone": "+17733630700", "image_url": "https://s3-media4.fl.yelpcdn.com/bphoto/sZDr9VB8hcFVxOkvurq7Kw/o.jpg", "location": {"city": "Chicago", "country": "US", "address2": "", "address3": "", "state": "IL", "address1": "1309 E 57th St", "zip_code": "60637"}, "id": "hair-design-international-chicago", "categories": [{"alias": "hair", "title": "Hair Salons"}, {"alias": "othersalons", "title": "Nail Salons"}]}]}
{"total": 258, "businesses": [{"rating": 4.0, "review_count": 11, "name": "Hyde Park Barber Studio", "url": "https://www.yelp.com/biz/hyde-park-barber-studio-chicago?adjust_creative=4ANmej72Lq5uvu_h_d83AQ&utm_campaign=yelp_api_v3&utm_medium=api_v3_business_search&utm_source=4ANmej72Lq5uvu_h_d83AQ", "price": "$$", "coordinates": {"latitude": 41.8022742911312, "longitude": -87.5901661267473}, "phone": "+17734938080", "image_url": "https://s3-media1.fl.yelpcdn.com/bphoto/yhS74Swk7HMdGln0inr-qQ/o.jpg", "location": {"city": "Chicago", "country": "US", "address2": "", "address3": "", "state": "IL", "address1": "1431 E Hyde Park Blvd", "zip_code": "60615"}, "id": "hyde-park-barber-studio-chicago", "categories": [{"alias": "barbers", "title": "Barbers"}]}]}
{"total": 258, "businesses": [{"rating": 3.5, "review_count": 48, "name": "DJ's Bike Doctor", "url": "https://www.yelp.com/biz/djs-bike-doctor-chicago?adjust_creative=4ANmej72Lq5uvu_h_d83AQ&utm_campaign=yelp_api_v3&utm_medium=api_v3_business_search&utm_source=4ANmej72Lq5uvu_h_d83AQ", "price": "$$", "coordinates": {"latitude": 41.795229, "longitude": -87.593156}, "phone": "+17739554400", "image_url": "https://s3-media4.fl.yelpcdn.com/bphoto/ISutBdiGKJtqxf9Nt5faIQ/o.jpg", "location": {"city": "Chicago", "country": "US", "address2": "", "address3": "", "state": "IL", "address1": "1344 E 55th St", "zip_code": "60615"}, "id": "djs-bike-doctor-chicago", "categories": [{"alias": "bikes", "title": "Bikes"}]}]}
{"total": 258, "businesses": [{"rating": 5.0, "review_count": 5, "name": "Reva and David Logan Center For the Arts", "url": "https://www.yelp.com/biz/reva-and-david-logan-center-for-the-arts-chicago?adjust_creative=4ANmej72Lq5uvu_h_d83AQ&utm_campaign=yelp_api_v3&utm_medium=api_v3_business_search&utm_source=4ANmej72Lq5uvu_h_d83AQ", "coordinates": {"latitude": 41.7836730676663, "longitude": -87.6039612293243}, "phone": "+17737022787", "image_url": "https://s3-media4.fl.yelpcdn.com/bphoto/Ho-WH2BBGrjqZV175rfU0Q/o.jpg", "location": {"city": "Chicago", "country": "US", "address2": "", "address3": "", "state": "IL", "address1": "915 E 60th St", "zip_code": "60637"}, "id": "reva-and-david-logan-center-for-the-arts-chicago", "categories": [{"alias": "culturalcenter", "title": "Cultural Center"}]}]}
{"total": 258, "businesses": [{"rating": 5.0, "review_count": 15, "name": "The Red Carpet Cleaning", "url": "https://www.yelp.com/biz/the-red-carpet-cleaning-chicago?adjust_creative=4ANmej72Lq5uvu_h_d83AQ&utm_campaign=yelp_api_v3&utm_medium=api_v3_business_search&utm_source=4ANmej72Lq5uvu_h_d83AQ", "coordinates": {"latitude": 41.8045201152563, "longitude": -87.582656443119}, "phone": "+17733288733", "image_url": "https://s3-media4.fl.yelpcdn.com/bphoto/kY-fISE_cWr8eBG9xBK4rg/o.jpg", "location": {"city": "Chicago", "country": "US", "address2": "", "address3": "", "state": "IL", "address1": "5050 S Lake Shore Dr", "zip_code": "60615"}, "id": "the-red-carpet-cleaning-chicago", "categories": [{"alias": "carpet_cleaning", "title": "Carpet Cleaning"}]}]}
{"total": 258, "businesses": [{"rating": 2.0, "review_count": 42, "name": "Papa John's Pizza", "url": "https://www.yelp.com/biz/papa-johns-pizza-chicago-19?adjust_creative=4ANmej72Lq5uvu_h_d83AQ&utm_campaign=yelp_api_v3&utm_medium=api_v3_business_search&utm_source=4ANmej72Lq5uvu_h_d83AQ", "price": "$$", "coordinates": {"latitude": 41.7996407, "longitude": -87.5909119}, "phone": "+17737527272", "image_url": "https://s3-media1.fl.yelpcdn.com/bphoto/WHLusTm4tqFWtECl10cIGg/o.jpg", "location": {"city": "Chicago", "country": "US", "address2": "", "address3": "", "state": "IL", "address1": "1418 E 53rd St", "zip_code": "60615"}, "id": "papa-johns-pizza-chicago-19", "categories": [{"alias": "pizza", "title": "Pizza"}]}]}
{"total": 258, "businesses": [{"rating": 3.5, "review_count": 6, "name": "Caf\u00e9 Logan", "url": "https://www.yelp.com/biz/caf%C3%A9-logan-chicago?adjust_creative=4ANmej72Lq5uvu_h_d83AQ&utm_campaign=yelp_api_v3&utm_medium=api_v3_business_search&utm_source=4ANmej72Lq5uvu_h_d83AQ", "price": "$$", "coordinates": {"latitude": 41.7857386, "longitude": -87.6038178}, "phone": "+17737022787", "image_url": "https://s3-media3.fl.yelpcdn.com/bphoto/heRfOWefwbtVboY_gXFp_Q/o.jpg", "location": {"city": "Chicago", "country": "US", "address2": "", "address3": "", "state": "IL", "address1": "915 E 60th St", "zip_code": "60637"}, "id": "caf\u00e9-logan-chicago", "categories": [{"alias": "cafes", "title": "Cafes"}]}]}
{"total": 258, "businesses": [{"rating": 5.0, "review_count": 4, "name": "Renaissance Society", "url": "https://www.yelp.com/biz/renaissance-society-chicago?adjust_creative=4ANmej72Lq5uvu_h_d83AQ&utm_campaign=yelp_api_v3&utm_medium=api_v3_business_search&utm_source=4ANmej72Lq5uvu_h_d83AQ", "price": "$", "coordinates": {"latitude": 41.7900565, "longitude": -87.6010614}, "phone": "+17737028670", "image_url": "https://s3-media4.fl.yelpcdn.com/bphoto/Or8dvYg0iFoE7laRWiqEkw/o.jpg", "location": {"city": "Chicago", "country": "US", "address2": "", "address3": "", "state": "IL", "address1": "5811 S Ellis Ave", "zip_code": "60637"}, "id": "renaissance-society-chicago", "categories": [{"alias": "galleries", "title": "Art Galleries"}]}]}
{"total": 258, "businesses": [{"rating": 4.5, "review_count": 9, "name": "Gerald Ratner Athletic Center", "url": "https://www.yelp.com/biz/gerald-ratner-athletic-center-chicago?adjust_creative=4ANmej72Lq5uvu_h_d83AQ&utm_campaign=yelp_api_v3&utm_medium=api_v3_business_search&utm_source=4ANmej72Lq5uvu_h_d83AQ", "coordinates": {"latitude": 41.7945607775546, "longitude": -87.6018019607651}, "phone": "+17737023871", "image_url": "https://s3-media4.fl.yelpcdn.com/bphoto/cZs_Ug0GeUVPNZXDCdznHw/o.jpg", "location": {"city": "Chicago", "country": "US", "address2": "", "address3": "", "state": "IL", "address1": "5530 S Ellis Ave", "zip_code": "60637"}, "id": "gerald-ratner-athletic-center-chicago", "categories": [{"alias": "gyms", "title": "Gyms"}]}]}
{"total": 258, "businesses": [{"rating": 5.0, "review_count": 4, "name": "Amira Farrakhan", "url": "https://www.yelp.com/biz/amira-farrakhan-chicago?adjust_creative=4ANmej72Lq5uvu_h_d83AQ&utm_campaign=yelp_api_v3&utm_medium=api_v3_business_search&utm_source=4ANmej72Lq5uvu_h_d83AQ", "price": "$", "coordinates": {"latitude": 41.7994445843882, "longitude": -87.6004791459106}, "phone": "+13126320882", "image_url": "https://s3-media1.fl.yelpcdn.com/bphoto/V8ociSSng4rT6Jg1ll1Ybw/o.jpg", "location": {"city": "Chicago", "address1": "333 Noth Michigan Ave", "address2": "", "address3": "", "state": "IL", "country": "US", "zip_code": "60601"}, "id": "amira-farrakhan-chicago", "categories": [{"alias": "hairstylists", "title": "Hair Stylists"}]}]}
{"total": 258, "businesses": [{"rating": 5.0, "review_count": 3, "name": "The Joe and Rika Mansueto Library", "url": "https://www.yelp.com/biz/the-joe-and-rika-mansueto-library-chicago?adjust_creative=4ANmej72Lq5uvu_h_d83AQ&utm_campaign=yelp_api_v3&utm_medium=api_v3_business_search&utm_source=4ANmej72Lq5uvu_h_d83AQ", "coordinates": {"latitude": 41.7917358846542, "longitude": -87.6009254135962}, "phone": "+17737028740", "image_url": "https://s3-media4.fl.yelpcdn.com/bphoto/fB0LD_2GFRl01jjM_7KTvg/o.jpg", "location": {"city": "Chicago", "address1": "1100 E 57th St", "address2": "", "address3": "", "state": "IL", "country": "US", "zip_code": "60637"}, "id": "the-joe-and-rika-mansueto-library-chicago", "categories": [{"alias": "libraries", "title": "Libraries"}]}]}
{"total": 258, "businesses": [{"rating": 4.5, "review_count": 5, "name": "Justice of the Pies", "url": "https://www.yelp.com/biz/justice-of-the-pies-chicago?adjust_creative=4ANmej72Lq5uvu_h_d83AQ&utm_campaign=yelp_api_v3&utm_medium=api_v3_business_search&utm_source=4ANmej72Lq5uvu_h_d83AQ", "coordinates": {"latitude": 41.7918308, "longitude": -87.6028029}, "phone": "+13127677452", "image_url": "https://s3-media1.fl.yelpcdn.com/bphoto/kcHJoHQH5GO9MLmiqntLJA/o.jpg", "location": {"city": "Chicago", "country": "US", "address2": "Downtown Chicago", "address3": null, "state": "IL", "address1": "924 E 57th St", "zip_code": "60637"}, "id": "justice-of-the-pies-chicago", "categories": [{"alias": "catering", "title": "Caterers"}]}]}
{"total": 258, "businesses": [{"rating": 5.0, "review_count": 3, "name": "Vincent David Johnson Photography", "url": "https://www.yelp.com/biz/vincent-david-johnson-photography-chicago?adjust_creative=4ANmej72Lq5uvu_h_d83AQ&utm_campaign=yelp_api_v3&utm_medium=api_v3_business_search&utm_source=4ANmej72Lq5uvu_h_d83AQ", "coordinates": {"latitude": 41.8003921, "longitude": -87.603826}, "phone": "+17739241493", "image_url": "https://s3-media2.fl.yelpcdn.com/bphoto/Uw3pytdORp9Al53PlRIrGg/o.jpg", "location": {"city": "Chicago", "country": "US", "address2": "", "address3": "", "state": "IL", "address1": "", "zip_code": "60615"}, "id": "vincent-david-johnson-photography-chicago", "categories": [{"alias": "eventphotography", "title": "Event Photography"}]}]}
{"total": 258, "businesses": [{"rating": 5.0, "review_count": 6, "name": "Urban Village Church", "url": "https://www.yelp.com/biz/urban-village-church-chicago-8?adjust_creative=4ANmej72Lq5uvu_h_d83AQ&utm_campaign=yelp_api_v3&utm_medium=api_v3_business_search&utm_source=4ANmej72Lq5uvu_h_d83AQ", "coordinates": {"latitude": 41.7860645, "longitude": -87.5913825}, "phone": "+13122685300", "image_url": "https://s3-media3.fl.yelpcdn.com/bphoto/3rowZq4C-TwQErzMFYQjLQ/o.jpg", "location": {"city": "Chicago", "country": "US", "address2": "", "address3": "", "state": "IL", "address1": "1407 E 60th St", "zip_code": "60637"}, "id": "urban-village-church-chicago-8", "categories": [{"alias": "churches", "title": "Churches"}]}]}
{"total": 258, "businesses": [{"rating": 5.0, "review_count": 2, "name": "Dollop Coffee", "url": "https://www.yelp.com/biz/dollop-coffee-chicago-5?adjust_creative=4ANmej72Lq5uvu_h_d83AQ&utm_campaign=yelp_api_v3&utm_medium=api_v3_business_search&utm_source=4ANmej72Lq5uvu_h_d83AQ", "price": "$$", "coordinates": {"latitude": 41.7949570040507, "longitude": -87.5981428474188}, "image_url": "https://s3-media2.fl.yelpcdn.com/bphoto/LyCBolB2nRYHJvtz3ZXK7w/o.jpg", "location": {"city": "Chicago", "country": "US", "address2": "", "address3": null, "state": "IL", "address1": "5500 South University Ave", "zip_code": "60637"}, "id": "dollop-coffee-chicago-5", "categories": [{"alias": "coffee", "title": "Coffee & Tea"}]}]}
{"total": 258, "businesses": [{"rating": 3.5, "review_count": 26, "name": "Foreign Car Hospital", "url": "https://www.yelp.com/biz/foreign-car-hospital-chicago?adjust_creative=4ANmej72Lq5uvu_h_d83AQ&utm_campaign=yelp_api_v3&utm_medium=api_v3_business_search&utm_source=4ANmej72Lq5uvu_h_d83AQ", "coordinates": {"latitude": 41.7972955852747, "longitude": -87.5950489193201}, "phone": "+17736433113", "image_url": "https://s3-media1.fl.yelpcdn.com/bphoto/zvLWDoX9Y-tqDdZmPMllPg/o.jpg", "location": {"city": "Chicago", "country": "US", "address2": "", "address3": "", "state": "IL", "address1": "5424 S Kimbark Ave", "zip_code": "60615"}, "id": "foreign-car-hospital-chicago", "categories": [{"alias": "autorepair", "title": "Auto Repair"}]}]}
{"total": 258, "businesses": [{"rating": 3.5, "review_count": 4, "name": "Bartlett Dining Commons", "url": "https://www.yelp.com/biz/bartlett-dining-commons-chicago?adjust_creative=4ANmej72Lq5uvu_h_d83AQ&utm_campaign=yelp_api_v3&utm_medium=api_v3_business_search&utm_source=4ANmej72Lq5uvu_h_d83AQ", "price": "$$", "coordinates": {"latitude": 41.7925023, "longitude": -87.5982722}, "phone": "", "image_url": "", "location": {"city": "Chicago", "country": "US", "address2": "5640 S University Ave", "address3": "", "state": "IL", "address1": "University of Chicago", "zip_code": "60637"}, "id": "bartlett-dining-commons-chicago", "categories": [{"alias": "tradamerican", "title": "American (Traditional)"}]}]}
{"total": 258, "businesses": [{"rating": 3.5, "review_count": 6, "name": "Maroon Financial Credit Union", "url": "https://www.yelp.com/biz/maroon-financial-credit-union-chicago?adjust_creative=4ANmej72Lq5uvu_h_d83AQ&utm_campaign=yelp_api_v3&utm_medium=api_v3_business_search&utm_source=4ANmej72Lq5uvu_h_d83AQ", "coordinates": {"latitude": 41.7944189842794, "longitude": -87.6001054720112}, "phone": "+17737027179", "image_url": "", "location": {"city": "Chicago", "address1": "5525 S Ellis Ave", "address2": "Ste C", "address3": "", "state": "IL", "country": "US", "zip_code": "60637"}, "id": "maroon-financial-credit-union-chicago", "categories": [{"alias": "banks", "title": "Banks & Credit Unions"}]}]}
{"total": 258, "businesses": [{"rating": 4.5, "review_count": 4, "name": "Page Too Hair Design", "url": "https://www.yelp.com/biz/page-too-hair-design-chicago?adjust_creative=4ANmej72Lq5uvu_h_d83AQ&utm_campaign=yelp_api_v3&utm_medium=api_v3_business_search&utm_source=4ANmej72Lq5uvu_h_d83AQ", "price": "$$", "coordinates": {"latitude": 41.7992651, "longitude": -87.601015}, "phone": "+17733630547", "image_url": "https://s3-media1.fl.yelpcdn.com/bphoto/RyqmvPnKp3n8IzBZ9tfFUg/o.jpg", "location": {"city": "Chicago", "country": "US", "address2": "", "address3": "", "state": "IL", "address1": "1007 E 53rd St", "zip_code": "60615"}, "id": "page-too-hair-design-chicago", "categories": [{"alias": "hair", "title": "Hair Salons"}]}]}
{"total": 258, "businesses": [{"rating": 3.0, "review_count": 23, "name": "Pearle Vision", "url": "https://www.yelp.com/biz/pearle-vision-chicago-24?adjust_creative=4ANmej72Lq5uvu_h_d83AQ&utm_campaign=yelp_api_v3&utm_medium=api_v3_business_search&utm_source=4ANmej72Lq5uvu_h_d83AQ", "price": "$$", "coordinates": {"latitude": 41.799982, "longitude": -87.596411}, "phone": "+17734938372", "image_url": "https://s3-media2.fl.yelpcdn.com/bphoto/_fDQzhd9mN8yIlYwowJXsQ/o.jpg", "location": {"city": "Chicago", "country": "US", "address2": "", "address3": "", "state": "IL", "address1": "1200 East 53rd Street", "zip_code": "60615"}, "id": "pearle-vision-chicago-24", "categories": [{"alias": "optometrists", "title": "Optometrists"}, {"alias": "opticians", "title": "Eyewear & Opticians"}]}]}
{"total": 258, "businesses": [{"rating": 4.5, "review_count": 5, "name": "Stamp'Lays Executive Salon", "url": "https://www.yelp.com/biz/stamplays-executive-salon-chicago?adjust_creative=4ANmej72Lq5uvu_h_d83AQ&utm_campaign=yelp_api_v3&utm_medium=api_v3_business_search&utm_source=4ANmej72Lq5uvu_h_d83AQ", "price": "$$$", "coordinates": {"latitude": 41.7993835192709, "longitude": -87.5923021875544}, "phone": "+17732416200", "image_url": "", "location": {"city": "Chicago", "country": "US", "address2": null, "address3": "", "state": "IL", "address1": "1371 E 53rd St", "zip_code": "60615"}, "id": "stamplays-executive-salon-chicago", "categories": [{"alias": "hair", "title": "Hair Salons"}]}]}
{"total": 258, "businesses": [{"rating": 5.0, "review_count": 1, "name": "Stagg Field tennis courts", "url": "https://www.yelp.com/biz/stagg-field-tennis-courts-chicago?adjust_creative=4ANmej72Lq5uvu_h_d83AQ&utm_campaign=yelp_api_v3&utm_medium=api_v3_business_search&utm_source=4ANmej72Lq5uvu_h_d83AQ", "coordinates": {"latitude": 41.7944725602865, "longitude": -87.6014077663422}, "phone": "+17737027684", "image_url": "", "location": {"city": "Chicago", "country": "US", "address2": "", "address3": "", "state": "IL", "address1": "5530 S Ellis", "zip_code": "60637"}, "id": "stagg-field-tennis-courts-chicago", "categories": [{"alias": "landmarks", "title": "Landmarks & Historical Buildings"}]}]}
{"total": 258, "businesses": [{"rating": 3.5, "review_count": 15, "name": "Golden Hanger", "url": "https://www.yelp.com/biz/golden-hanger-chicago?adjust_creative=4ANmej72Lq5uvu_h_d83AQ&utm_campaign=yelp_api_v3&utm_medium=api_v3_business_search&utm_source=4ANmej72Lq5uvu_h_d83AQ", "price": "$$", "coordinates": {"latitude": 41.7995010316372, "longitude": -87.5945922732353}, "phone": "+17736842680", "image_url": "", "location": {"city": "Chicago", "address1": "1314 E 53rd St", "address2": "", "address3": "", "state": "IL", "country": "US", "zip_code": "60615"}, "id": "golden-hanger-chicago", "categories": [{"alias": "drycleaninglaundry", "title": "Dry Cleaning & Laundry"}]}]}
{"total": 258, "businesses": [{"rating": 4.5, "review_count": 3, "name": "Harper Memorial Library at the Commons", "url": "https://www.yelp.com/biz/harper-memorial-library-at-the-commons-chicago?adjust_creative=4ANmej72Lq5uvu_h_d83AQ&utm_campaign=yelp_api_v3&utm_medium=api_v3_business_search&utm_source=4ANmej72Lq5uvu_h_d83AQ", "coordinates": {"latitude": 41.7880134115711, "longitude": -87.5996356754507}, "image_url": "https://s3-media3.fl.yelpcdn.com/bphoto/C-FPict5zNFWbABbSdGJgA/o.jpg", "location": {"city": "Chicago", "country": "US", "address2": "3rd Fl", "address3": "", "state": "IL", "address1": "1116 E 59th St", "zip_code": "60637"}, "id": "harper-memorial-library-at-the-commons-chicago", "categories": [{"alias": "collegeuniv", "title": "Colleges & Universities"}]}]}
{"total": 258, "businesses": [{"rating": 3.0, "review_count": 6, "name": "Midway Market", "url": "https://www.yelp.com/biz/midway-market-chicago?adjust_creative=4ANmej72Lq5uvu_h_d83AQ&utm_campaign=yelp_api_v3&utm_medium=api_v3_business_search&utm_source=4ANmej72Lq5uvu_h_d83AQ", "price": "$$$$", "coordinates": {"latitude": 41.7853088, "longitude": -87.6010284}, "phone": "+17737023347", "image_url": "https://s3-media3.fl.yelpcdn.com/bphoto/0zpOcEReHENtYKQAbKl7Cg/o.jpg", "location": {"city": "Chicago", "country": "US", "address2": "", "address3": "", "state": "IL", "address1": "6031 S. Ellis Ave", "zip_code": "60637"}, "id": "midway-market-chicago", "categories": [{"alias": "grocery", "title": "Grocery"}, {"alias": "coffee", "title": "Coffee & Tea"}, {"alias": "convenience", "title": "Convenience Stores"}]}]}
{"total": 258, "businesses": [{"rating": 5.0, "review_count": 10, "name": "Canis Sapiens Dog Training", "url": "https://www.yelp.com/biz/canis-sapiens-dog-training-chicago?adjust_creative=4ANmej72Lq5uvu_h_d83AQ&utm_campaign=yelp_api_v3&utm_medium=api_v3_business_search&utm_source=4ANmej72Lq5uvu_h_d83AQ", "coordinates": {"latitude": 41.8019523620605, "longitude": -87.6034698486328}, "phone": "+17739132030", "image_url": "https://s3-media2.fl.yelpcdn.com/bphoto/E9EPkkfXhES32bgf1XMDbw/o.jpg", "location": {"city": "Chicago", "country": "US", "address2": "", "address3": "", "state": "IL", "address1": "", "zip_code": "60615"}, "id": "canis-sapiens-dog-training-chicago", "categories": [{"alias": "pet_training", "title": "Pet Training"}]}]}
{"total": 258, "businesses": [{"rating": 3.5, "review_count": 11, "name": "Ivory Cleaners", "url": "https://www.yelp.com/biz/ivory-cleaners-chicago-2?adjust_creative=4ANmej72Lq5uvu_h_d83AQ&utm_campaign=yelp_api_v3&utm_medium=api_v3_business_search&utm_source=4ANmej72Lq5uvu_h_d83AQ", "price": "$$", "coordinates": {"latitude": 41.7992651, "longitude": -87.6010366}, "phone": "+17734933425", "image_url": "https://s3-media3.fl.yelpcdn.com/bphoto/KSD6dhAwiSixN9lcjxXu8Q/o.jpg", "location": {"city": "Chicago", "address1": "1005 E 53rd St", "address2": "", "address3": "", "state": "IL", "country": "US", "zip_code": "60615"}, "id": "ivory-cleaners-chicago-2", "categories": [{"alias": "drycleaninglaundry", "title": "Dry Cleaning & Laundry"}]}]}
{"total": 258, "businesses": [{"rating": 4.5, "review_count": 4, "name": "Ida Noyes Hall", "url": "https://www.yelp.com/biz/ida-noyes-hall-chicago?adjust_creative=4ANmej72Lq5uvu_h_d83AQ&utm_campaign=yelp_api_v3&utm_medium=api_v3_business_search&utm_source=4ANmej72Lq5uvu_h_d83AQ", "coordinates": {"latitude": 41.787971496582, "longitude": -87.5955810546875}, "phone": "+17737021234", "image_url": "https://s3-media1.fl.yelpcdn.com/bphoto/eIgguMyTULFxRb9t7CsAgA/o.jpg", "location": {"city": "Chicago", "address1": "University of Chicago", "address2": "1212 E 59th St", "address3": "", "state": "IL", "country": "US", "zip_code": "60637"}, "id": "ida-noyes-hall-chicago", "categories": [{"alias": "collegeuniv", "title": "Colleges & Universities"}, {"alias": "educationservices", "title": "Educational Services"}]}]}
{"total": 258, "businesses": [{"rating": 2.5, "review_count": 5, "name": "Classics Cafe", "url": "https://www.yelp.com/biz/classics-cafe-chicago?adjust_creative=4ANmej72Lq5uvu_h_d83AQ&utm_campaign=yelp_api_v3&utm_medium=api_v3_business_search&utm_source=4ANmej72Lq5uvu_h_d83AQ", "price": "$", "coordinates": {"latitude": 41.7878749, "longitude": -87.6009407}, "phone": "", "image_url": "", "location": {"city": "Chicago", "country": "US", "address2": "", "address3": "", "state": "IL", "address1": "1010 E 59th St", "zip_code": "60637"}, "id": "classics-cafe-chicago", "categories": [{"alias": "coffee", "title": "Coffee & Tea"}]}]}
{"total": 258, "businesses": [{"rating": 5.0, "review_count": 2, "name": "The Vineyard Church At Hyde Park", "url": "https://www.yelp.com/biz/the-vineyard-church-at-hyde-park-chicago?adjust_creative=4ANmej72Lq5uvu_h_d83AQ&utm_campaign=yelp_api_v3&utm_medium=api_v3_business_search&utm_source=4ANmej72Lq5uvu_h_d83AQ", "coordinates": {"latitude": 41.7953871935606, "longitude": -87.5994671881199}, "phone": "+17739393445", "image_url": "https://s3-media2.fl.yelpcdn.com/bphoto/4mNg5OBYUivGeetrDCBKMQ/o.jpg", "location": {"city": "Chicago", "address1": "1100 E 55th St", "address2": "", "address3": "", "state": "IL", "country": "US", "zip_code": "60615"}, "id": "the-vineyard-church-at-hyde-park-chicago", "categories": [{"alias": "churches", "title": "Churches"}]}]}
{"total": 258, "businesses": [{"rating": 4.0, "review_count": 6, "name": "The Reynolds Club", "url": "https://www.yelp.com/biz/the-reynolds-club-chicago?adjust_creative=4ANmej72Lq5uvu_h_d83AQ&utm_campaign=yelp_api_v3&utm_medium=api_v3_business_search&utm_source=4ANmej72Lq5uvu_h_d83AQ", "coordinates": {"latitude": 41.7911821, "longitude": -87.5982283}, "phone": "", "image_url": "https://s3-media2.fl.yelpcdn.com/bphoto/3SbEK7mBZFwj6ogN1NejnA/o.jpg", "location": {"city": "Chicago", "country": "US", "address2": "", "address3": "", "state": "IL", "address1": "5706 S University Ave", "zip_code": "60637"}, "id": "the-reynolds-club-chicago", "categories": [{"alias": "venues", "title": "Venues & Event Spaces"}]}]}
{"total": 258, "businesses": [{"rating": 4.0, "review_count": 3, "name": "Kovler Cafe", "url": "https://www.yelp.com/biz/kovler-cafe-chicago?adjust_creative=4ANmej72Lq5uvu_h_d83AQ&utm_campaign=yelp_api_v3&utm_medium=api_v3_business_search&utm_source=4ANmej72Lq5uvu_h_d83AQ", "price": "$", "coordinates": {"latitude": 41.7892711928253, "longitude": -87.5951834998404}, "image_url": "", "location": {"city": "Chicago", "address1": "University Of Chicago", "address2": "5807 Woodland Ave", "address3": "", "state": "IL", "country": "US", "zip_code": "60637"}, "id": "kovler-cafe-chicago", "categories": [{"alias": "cafeteria", "title": "Cafeteria"}, {"alias": "buffets", "title": "Buffets"}]}]}
{"total": 258, "businesses": [{"rating": 5.0, "review_count": 3, "name": "WHPK 88.5 FM", "url": "https://www.yelp.com/biz/whpk-88-5-fm-chicago?adjust_creative=4ANmej72Lq5uvu_h_d83AQ&utm_campaign=yelp_api_v3&utm_medium=api_v3_business_search&utm_source=4ANmej72Lq5uvu_h_d83AQ", "coordinates": {"latitude": 41.7914108307744, "longitude": -87.5980576344985}, "image_url": "https://s3-media4.fl.yelpcdn.com/bphoto/j_R5KQRNRzcVdiwP7cSn5g/o.jpg", "location": {"city": "Chicago", "country": "US", "address2": "", "address3": "", "state": "IL", "address1": "57th St & University Ave", "zip_code": "60615"}, "id": "whpk-88-5-fm-chicago", "categories": [{"alias": "radiostations", "title": "Radio Stations"}]}]}
{"total": 258, "businesses": [{"rating": 4.5, "review_count": 4, "name": "CTA #2 Hyde Park Express", "url": "https://www.yelp.com/biz/cta-2-hyde-park-express-chicago?adjust_creative=4ANmej72Lq5uvu_h_d83AQ&utm_campaign=yelp_api_v3&utm_medium=api_v3_business_search&utm_source=4ANmej72Lq5uvu_h_d83AQ", "coordinates": {"latitude": 41.8019523620605, "longitude": -87.6034698486328}, "phone": "", "image_url": "", "location": {"city": "Chicago", "country": "US", "address2": "", "address3": "", "state": "IL", "address1": "", "zip_code": "60615"}, "id": "cta-2-hyde-park-express-chicago", "categories": [{"alias": "publictransport", "title": "Public Transportation"}]}]}
{"total": 258, "businesses": [{"rating": 3.0, "review_count": 3, "name": "Subway", "url": "https://www.yelp.com/biz/subway-chicago-110?adjust_creative=4ANmej72Lq5uvu_h_d83AQ&utm_campaign=yelp_api_v3&utm_medium=api_v3_business_search&utm_source=4ANmej72Lq5uvu_h_d83AQ", "price": "$", "coordinates": {"latitude": 41.7998887398854, "longitude": -87.5916185284915}, "phone": "+17732888400", "image_url": "https://s3-media3.fl.yelpcdn.com/bphoto/uPM6ZqXcJKupTOJRZUqKXA/o.jpg", "location": {"city": "Chicago", "country": "US", "address2": "", "address3": "", "state": "IL", "address1": "1363 E 53rd St", "zip_code": "60615"}, "id": "subway-chicago-110", "categories": [{"alias": "sandwiches", "title": "Sandwiches"}, {"alias": "hotdogs", "title": "Fast Food"}]}]}
{"total": 258, "businesses": [{"rating": 4.5, "review_count": 15, "name": "Hyde Park Chiropractic Wellness Center", "url": "https://www.yelp.com/biz/hyde-park-chiropractic-wellness-center-chicago?adjust_creative=4ANmej72Lq5uvu_h_d83AQ&utm_campaign=yelp_api_v3&utm_medium=api_v3_business_search&utm_source=4ANmej72Lq5uvu_h_d83AQ", "coordinates": {"latitude": 41.79985, "longitude": -87.5907}, "phone": "+17734937034", "image_url": "https://s3-media3.fl.yelpcdn.com/bphoto/K3pk8iLrajFL8jOmMYypxA/o.jpg", "location": {"city": "Chicago", "country": "US", "address2": "", "address3": "", "state": "IL", "address1": "1424 E 53rd St", "zip_code": "60615"}, "id": "hyde-park-chiropractic-wellness-center-chicago", "categories": [{"alias": "acupuncture", "title": "Acupuncture"}, {"alias": "chiropractors", "title": "Chiropractors"}]}]}
{"total": 258, "businesses": [{"rating": 5.0, "review_count": 2, "name": "KAM Isaiah Israel Congregation", "url": "https://www.yelp.com/biz/kam-isaiah-israel-congregation-chicago-2?adjust_creative=4ANmej72Lq5uvu_h_d83AQ&utm_campaign=yelp_api_v3&utm_medium=api_v3_business_search&utm_source=4ANmej72Lq5uvu_h_d83AQ", "coordinates": {"latitude": 41.8026735186795, "longitude": -87.598633179432}, "phone": "+17739241234", "image_url": "https://s3-media2.fl.yelpcdn.com/bphoto/KCRDJXBF4COW0sVWNbMdaQ/o.jpg", "location": {"city": "Chicago", "country": "US", "address2": "", "address3": "", "state": "IL", "address1": "1100 E Hyde Park Blvd", "zip_code": "60615"}, "id": "kam-isaiah-israel-congregation-chicago-2", "categories": [{"alias": "synagogues", "title": "Synagogues"}]}]}
{"total": 258, "businesses": [{"rating": 4.5, "review_count": 6, "name": "Kilimanjaro International", "url": "https://www.yelp.com/biz/kilimanjaro-international-chicago-2?adjust_creative=4ANmej72Lq5uvu_h_d83AQ&utm_campaign=yelp_api_v3&utm_medium=api_v3_business_search&utm_source=4ANmej72Lq5uvu_h_d83AQ", "price": "$", "coordinates": {"latitude": 41.7993151, "longitude": -87.5947199}, "phone": "+17733244860", "image_url": "", "location": {"city": "Chicago", "country": "US", "address2": "", "address3": "", "state": "IL", "address1": "1305 E 53rd St", "zip_code": "60615"}, "id": "kilimanjaro-international-chicago-2", "categories": [{"alias": "artsandcrafts", "title": "Arts & Crafts"}, {"alias": "galleries", "title": "Art Galleries"}]}]}
{"total": 258, "businesses": [{"rating": 4.0, "review_count": 7, "name": "American Mattress", "url": "https://www.yelp.com/biz/american-mattress-chicago-16?adjust_creative=4ANmej72Lq5uvu_h_d83AQ&utm_campaign=yelp_api_v3&utm_medium=api_v3_business_search&utm_source=4ANmej72Lq5uvu_h_d83AQ", "coordinates": {"latitude": 41.7998377721063, "longitude": -87.591393338192}, "phone": "+17733711031", "image_url": "https://s3-media4.fl.yelpcdn.com/bphoto/yaWkuPzQOz50hyLVz2RRDw/o.jpg", "location": {"city": "Chicago", "address1": "1408 E 53rd St", "address2": null, "address3": null, "state": "IL", "country": "US", "zip_code": "60615"}, "id": "american-mattress-chicago-16", "categories": [{"alias": "mattresses", "title": "Mattresses"}]}]}
{"total": 258, "businesses": [{"rating": 2.0, "review_count": 13, "name": "The University of Chicago Bookstore Cafe", "url": "https://www.yelp.com/biz/the-university-of-chicago-bookstore-cafe-chicago?adjust_creative=4ANmej72Lq5uvu_h_d83AQ&utm_campaign=yelp_api_v3&utm_medium=api_v3_business_search&utm_source=4ANmej72Lq5uvu_h_d83AQ", "price": "$$", "coordinates": {"latitude": 41.7896949, "longitude": -87.6022686}, "phone": "+17737027712", "image_url": "https://s3-media3.fl.yelpcdn.com/bphoto/QAI___9fOU7KIGOJHIRiLQ/o.jpg", "location": {"city": "Chicago", "country": "US", "address2": "", "address3": "", "state": "IL", "address1": "970 E 58th St", "zip_code": "60637"}, "id": "the-university-of-chicago-bookstore-cafe-chicago", "categories": [{"alias": "coffee", "title": "Coffee & Tea"}]}]}
{"total": 258, "businesses": [{"rating": 2.5, "review_count": 11, "name": "Einstein Bros Bagels", "url": "https://www.yelp.com/biz/einstein-bros-bagels-chicago-11?adjust_creative=4ANmej72Lq5uvu_h_d83AQ&utm_campaign=yelp_api_v3&utm_medium=api_v3_business_search&utm_source=4ANmej72Lq5uvu_h_d83AQ", "price": "$", "coordinates": {"latitude": 41.7911821, "longitude": -87.5982283}, "phone": "+17738341018", "image_url": "https://s3-media4.fl.yelpcdn.com/bphoto/sK0NAwt4b7AnN2MA911i9A/o.jpg", "location": {"city": "Chicago", "country": "US", "address2": "", "address3": "", "state": "IL", "address1": "5706 S University Ave", "zip_code": "60637"}, "id": "einstein-bros-bagels-chicago-11", "categories": [{"alias": "bagels", "title": "Bagels"}]}]}
{"total": 258, "businesses": [{"rating": 4.5, "review_count": 3, "name": "Hyde Park Cats", "url": "https://www.yelp.com/biz/hyde-park-cats-chicago?adjust_creative=4ANmej72Lq5uvu_h_d83AQ&utm_campaign=yelp_api_v3&utm_medium=api_v3_business_search&utm_source=4ANmej72Lq5uvu_h_d83AQ", "coordinates": {"latitude": 41.8019523620605, "longitude": -87.6034698486328}, "image_url": "https://s3-media1.fl.yelpcdn.com/bphoto/ITil3u-yTml9IMxZRivAJg/o.jpg", "location": {"city": "Chicago", "country": "US", "address2": "", "address3": "", "state": "IL", "address1": "", "zip_code": "60615"}, "id": "hyde-park-cats-chicago", "categories": [{"alias": "animalshelters", "title": "Animal Shelters"}]}]}
{"total": 258, "businesses": [{"rating": 3.5, "review_count": 20, "name": "Cleopatra Hair Design II", "url": "https://www.yelp.com/biz/cleopatra-hair-design-ii-chicago?adjust_creative=4ANmej72Lq5uvu_h_d83AQ&utm_campaign=yelp_api_v3&utm_medium=api_v3_business_search&utm_source=4ANmej72Lq5uvu_h_d83AQ", "price": "$$", "coordinates": {"latitude": 41.7998, "longitude": -87.59435}, "phone": "+17736431082", "image_url": "https://s3-media1.fl.yelpcdn.com/bphoto/jIeAhgyjIi78D7MgNN4vaw/o.jpg", "location": {"city": "Chicago", "country": "US", "address2": "", "address3": "", "state": "IL", "address1": "1316 E 53rd St", "zip_code": "60615"}, "id": "cleopatra-hair-design-ii-chicago", "categories": [{"alias": "hair", "title": "Hair Salons"}]}]}
{"total": 258, "businesses": [{"rating": 4.0, "review_count": 3, "name": "The University of Chicago Bookstore", "url": "https://www.yelp.com/biz/the-university-of-chicago-bookstore-chicago?adjust_creative=4ANmej72Lq5uvu_h_d83AQ&utm_campaign=yelp_api_v3&utm_medium=api_v3_business_search&utm_source=4ANmej72Lq5uvu_h_d83AQ", "price": "$$", "coordinates": {"latitude": 41.7895543, "longitude": -87.6020922}, "phone": "+17737027712", "image_url": "https://s3-media3.fl.yelpcdn.com/bphoto/4dwa1HO2Tz1C0YuhWLLX5A/o.jpg", "location": {"city": "Chicago", "country": "US", "address2": "", "address3": "", "state": "IL", "address1": "970 E 58th St", "zip_code": "60637"}, "id": "the-university-of-chicago-bookstore-chicago", "categories": [{"alias": "bookstores", "title": "Bookstores"}]}]}
{"total": 258, "businesses": [{"rating": 4.0, "review_count": 15, "name": "Rolling Bone Dog Walking", "url": "https://www.yelp.com/biz/rolling-bone-dog-walking-chicago?adjust_creative=4ANmej72Lq5uvu_h_d83AQ&utm_campaign=yelp_api_v3&utm_medium=api_v3_business_search&utm_source=4ANmej72Lq5uvu_h_d83AQ", "coordinates": {"latitude": 41.8019523620605, "longitude": -87.6034698486328}, "phone": "+17734548009", "image_url": "https://s3-media3.fl.yelpcdn.com/bphoto/UuFRIUjRCjAouxKuqbegaQ/o.jpg", "location": {"city": "Chicago", "country": "US", "address2": "", "address3": "", "state": "IL", "address1": "", "zip_code": "60615"}, "id": "rolling-bone-dog-walking-chicago", "categories": [{"alias": "pet_sitting", "title": "Pet Boarding/Pet Sitting"}, {"alias": "dogwalkers", "title": "Dog Walkers"}]}]}
{"total": 258, "businesses": [{"rating": 3.5, "review_count": 10, "name": "Chase Bank", "url": "https://www.yelp.com/biz/chase-bank-chicago-115?adjust_creative=4ANmej72Lq5uvu_h_d83AQ&utm_campaign=yelp_api_v3&utm_medium=api_v3_business_search&utm_source=4ANmej72Lq5uvu_h_d83AQ", "coordinates": {"latitude": 41.800006, "longitude": -87.596168}, "phone": "+17732415110", "image_url": "https://s3-media4.fl.yelpcdn.com/bphoto/fMgW2kpR1SHa9IsLmAlWJg/o.jpg", "location": {"city": "Chicago", "country": "US", "address2": "", "address3": "", "state": "IL", "address1": "1204 E 53rd St", "zip_code": "60615"}, "id": "chase-bank-chicago-115", "categories": [{"alias": "banks", "title": "Banks & Credit Unions"}]}]}
{"total": 258, "businesses": [{"rating": 3.0, "review_count": 10, "name": "Bernard Mitchell Hospital", "url": "https://www.yelp.com/biz/bernard-mitchell-hospital-chicago?adjust_creative=4ANmej72Lq5uvu_h_d83AQ&utm_campaign=yelp_api_v3&utm_medium=api_v3_business_search&utm_source=4ANmej72Lq5uvu_h_d83AQ", "coordinates": {"latitude": 41.7891763, "longitude": -87.6047461}, "phone": "+17737021220", "image_url": "https://s3-media4.fl.yelpcdn.com/bphoto/xvByis85_WIUp5Oeao6X8w/o.jpg", "location": {"city": "Chicago", "country": "US", "address2": "", "address3": "", "state": "IL", "address1": "5815 S Maryland Ave", "zip_code": "60637"}, "id": "bernard-mitchell-hospital-chicago", "categories": [{"alias": "hospitals", "title": "Hospitals"}]}]}
{"total": 258, "businesses": [{"rating": 3.0, "review_count": 15, "name": "University Dental Associates", "url": "https://www.yelp.com/biz/university-dental-associates-chicago?adjust_creative=4ANmej72Lq5uvu_h_d83AQ&utm_campaign=yelp_api_v3&utm_medium=api_v3_business_search&utm_source=4ANmej72Lq5uvu_h_d83AQ", "coordinates": {"latitude": 41.79985, "longitude": -87.5907}, "phone": "+17736673636", "image_url": "", "location": {"city": "Chicago", "address1": "1424-28 E 53rd St", "address2": "Ste 209", "address3": "", "state": "IL", "country": "US", "zip_code": "60615"}, "id": "university-dental-associates-chicago", "categories": [{"alias": "generaldentistry", "title": "General Dentistry"}]}]}
{"total": 258, "businesses": [{"rating": 4.5, "review_count": 2, "name": "The Quadrangle", "url": "https://www.yelp.com/biz/the-quadrangle-no-title?adjust_creative=4ANmej72Lq5uvu_h_d83AQ&utm_campaign=yelp_api_v3&utm_medium=api_v3_business_search&utm_source=4ANmej72Lq5uvu_h_d83AQ", "coordinates": {"latitude": 41.7896008879027, "longitude": -87.5997018814087}, "phone": "", "image_url": "https://s3-media1.fl.yelpcdn.com/bphoto/Uy4p7yGc7yy5HN3WCNcAwg/o.jpg", "location": {"city": "Chicago", "address1": "University of Chicago", "address2": "", "address3": "", "state": "IL", "country": "US", "zip_code": "60637"}, "id": "the-quadrangle-no-title", "categories": [{"alias": "collegeuniv", "title": "Colleges & Universities"}]}]}
{"total": 258, "businesses": [{"rating": 2.5, "review_count": 15, "name": "Kenwood Cleaners", "url": "https://www.yelp.com/biz/kenwood-cleaners-chicago?adjust_creative=4ANmej72Lq5uvu_h_d83AQ&utm_campaign=yelp_api_v3&utm_medium=api_v3_business_search&utm_source=4ANmej72Lq5uvu_h_d83AQ", "price": "$$", "coordinates": {"latitude": 41.7913251, "longitude": -87.5943125}, "phone": "+17737526155", "image_url": "", "location": {"city": "Chicago", "country": "US", "address2": "", "address3": "", "state": "IL", "address1": "1313 E 57th St", "zip_code": "60637"}, "id": "kenwood-cleaners-chicago", "categories": [{"alias": "drycleaninglaundry", "title": "Dry Cleaning & Laundry"}]}]}
{"total": 258, "businesses": [{"rating": 3.5, "review_count": 11, "name": "Blues Barber Shop", "url": "https://www.yelp.com/biz/blues-barber-shop-chicago?adjust_creative=4ANmej72Lq5uvu_h_d83AQ&utm_campaign=yelp_api_v3&utm_medium=api_v3_business_search&utm_source=4ANmej72Lq5uvu_h_d83AQ", "price": "$", "coordinates": {"latitude": 41.7995392531157, "longitude": -87.5922379642725}, "phone": "+17739557156", "image_url": "https://s3-media1.fl.yelpcdn.com/bphoto/vts0sm1mgeNvls_2fvoppg/o.jpg", "location": {"city": "Chicago", "country": "US", "address2": "", "address3": "", "state": "IL", "address1": "1376 E 53rd St", "zip_code": "60615"}, "id": "blues-barber-shop-chicago", "categories": [{"alias": "barbers", "title": "Barbers"}]}]}
{"total": 258, "businesses": [{"rating": 2.5, "review_count": 47, "name": "CVS Pharmacy", "url": "https://www.yelp.com/biz/cvs-pharmacy-chicago-32?adjust_creative=4ANmej72Lq5uvu_h_d83AQ&utm_campaign=yelp_api_v3&utm_medium=api_v3_business_search&utm_source=4ANmej72Lq5uvu_h_d83AQ", "price": "$$", "coordinates": {"latitude": 41.799644793466, "longitude": -87.59487184736}, "phone": "+17737521425", "image_url": "https://s3-media2.fl.yelpcdn.com/bphoto/Mt3HqwqWWx_GLzW_fVOQFg/o.jpg", "location": {"city": "Chicago", "country": "US", "address2": "", "address3": "", "state": "IL", "address1": "1228 E 53rd St", "zip_code": "60615"}, "id": "cvs-pharmacy-chicago-32", "categories": [{"alias": "drugstores", "title": "Drugstores"}]}]}
{"total": 258, "businesses": [{"rating": 3.0, "review_count": 1, "name": "Nichols Park", "url": "https://www.yelp.com/biz/nichols-park-chicago?adjust_creative=4ANmej72Lq5uvu_h_d83AQ&utm_campaign=yelp_api_v3&utm_medium=api_v3_business_search&utm_source=4ANmej72Lq5uvu_h_d83AQ", "coordinates": {"latitude": 41.7973878187005, "longitude": -87.5942730903625}, "phone": "+13127472703", "image_url": "https://s3-media2.fl.yelpcdn.com/bphoto/X3zNou1M0IqvpdV-INrHtQ/o.jpg", "location": {"city": "Chicago", "country": "US", "address2": "", "address3": "", "state": "IL", "address1": "1355 E 53rd St", "zip_code": "60615"}, "id": "nichols-park-chicago", "categories": [{"alias": "parks", "title": "Parks"}]}]}
{"total": 258, "businesses": [{"rating": 4.5, "review_count": 2, "name": "Lawshea Rufus, DDS", "url": "https://www.yelp.com/biz/lawshea-rufus-dds-chicago?adjust_creative=4ANmej72Lq5uvu_h_d83AQ&utm_campaign=yelp_api_v3&utm_medium=api_v3_business_search&utm_source=4ANmej72Lq5uvu_h_d83AQ", "coordinates": {"latitude": 41.79985, "longitude": -87.5907}, "phone": "+17733241237", "image_url": "", "location": {"city": "Chicago", "country": "US", "address2": "", "address3": "", "state": "IL", "address1": "1424 E 53rd St", "zip_code": "60615"}, "id": "lawshea-rufus-dds-chicago", "categories": [{"alias": "generaldentistry", "title": "General Dentistry"}]}]}
{"total": 258, "businesses": [{"rating": 2.5, "review_count": 11, "name": "Kiddie Kuts", "url": "https://www.yelp.com/biz/kiddie-kuts-chicago?adjust_creative=4ANmej72Lq5uvu_h_d83AQ&utm_campaign=yelp_api_v3&utm_medium=api_v3_business_search&utm_source=4ANmej72Lq5uvu_h_d83AQ", "price": "$$", "coordinates": {"latitude": 41.8001224, "longitude": -87.5984021}, "phone": "+17732881456", "image_url": "https://s3-media4.fl.yelpcdn.com/bphoto/f7S0JMExZ8kQbigwUYJmWA/o.jpg", "location": {"city": "Chicago", "country": "US", "address2": "", "address3": "", "state": "IL", "address1": "5229 S Woodlawn Ave", "zip_code": "60615"}, "id": "kiddie-kuts-chicago", "categories": [{"alias": "hair", "title": "Hair Salons"}]}]}
{"total": 258, "businesses": [{"rating": 4.5, "review_count": 8, "name": "First Unitarian Church of Chicago", "url": "https://www.yelp.com/biz/first-unitarian-church-of-chicago-chicago?adjust_creative=4ANmej72Lq5uvu_h_d83AQ&utm_campaign=yelp_api_v3&utm_medium=api_v3_business_search&utm_source=4ANmej72Lq5uvu_h_d83AQ", "coordinates": {"latitude": 41.7918278, "longitude": -87.5965849}, "phone": "+17733244100", "image_url": "https://s3-media4.fl.yelpcdn.com/bphoto/NgtnO7U21il0Z--WRecLtQ/o.jpg", "location": {"city": "Chicago", "country": "US", "address2": "", "address3": "", "state": "IL", "address1": "5650 S Woodlawn Ave", "zip_code": "60637"}, "id": "first-unitarian-church-of-chicago-chicago", "categories": [{"alias": "churches", "title": "Churches"}]}]}
{"total": 258, "businesses": [{"rating": 3.0, "review_count": 4, "name": "Jazzman's Cafe & Bakery", "url": "https://www.yelp.com/biz/jazzmans-cafe-and-bakery-chicago?adjust_creative=4ANmej72Lq5uvu_h_d83AQ&utm_campaign=yelp_api_v3&utm_medium=api_v3_business_search&utm_source=4ANmej72Lq5uvu_h_d83AQ", "price": "$$", "coordinates": {"latitude": 41.7900238, "longitude": -87.6014252}, "image_url": "https://s3-media2.fl.yelpcdn.com/bphoto/1OcJEDOICpeJ8UPFNsuXDQ/o.jpg", "location": {"city": "Chicago", "country": "US", "address2": "", "address3": "", "state": "IL", "address1": "5812 S Ellis Ave", "zip_code": "60637"}, "id": "jazzmans-cafe-and-bakery-chicago", "categories": [{"alias": "bakeries", "title": "Bakeries"}]}]}
{"total": 258, "businesses": [{"rating": 3.0, "review_count": 6, "name": "Fifth Third Bank", "url": "https://www.yelp.com/biz/fifth-third-bank-chicago-25?adjust_creative=4ANmej72Lq5uvu_h_d83AQ&utm_campaign=yelp_api_v3&utm_medium=api_v3_business_search&utm_source=4ANmej72Lq5uvu_h_d83AQ", "coordinates": {"latitude": 41.7996426, "longitude": -87.5908352}, "phone": "+17732563400", "image_url": "https://s3-media2.fl.yelpcdn.com/bphoto/DZo9khFB5mINz2srd8hxdw/o.jpg", "location": {"city": "Chicago", "country": "US", "address2": "", "address3": "", "state": "IL", "address1": "1420 E 53rd St", "zip_code": "60615"}, "id": "fifth-third-bank-chicago-25", "categories": [{"alias": "banks", "title": "Banks & Credit Unions"}]}]}
{"total": 258, "businesses": [{"rating": 3.0, "review_count": 1, "name": "Florence Stout Park", "url": "https://www.yelp.com/biz/florence-stout-park-chicago?adjust_creative=4ANmej72Lq5uvu_h_d83AQ&utm_campaign=yelp_api_v3&utm_medium=api_v3_business_search&utm_source=4ANmej72Lq5uvu_h_d83AQ", "coordinates": {"latitude": 41.796633140736, "longitude": -87.600243149699}, "image_url": "https://s3-media1.fl.yelpcdn.com/bphoto/Fktgetyn5Y7EBkYTWeqzIQ/o.jpg", "location": {"city": "Chicago", "country": "US", "address2": "", "address3": "", "state": "IL", "address1": "5312 S Greenwood", "zip_code": "60615"}, "id": "florence-stout-park-chicago", "categories": [{"alias": "parks", "title": "Parks"}]}]}
{"total": 258, "businesses": [{"rating": 4.0, "review_count": 4, "name": "Henry Crown Field House", "url": "https://www.yelp.com/biz/henry-crown-field-house-chicago?adjust_creative=4ANmej72Lq5uvu_h_d83AQ&utm_campaign=yelp_api_v3&utm_medium=api_v3_business_search&utm_source=4ANmej72Lq5uvu_h_d83AQ", "coordinates": {"latitude": 41.7935673035275, "longitude": -87.5989691162097}, "phone": "+17737534949", "image_url": "https://s3-media4.fl.yelpcdn.com/bphoto/uc0kwkABXn75IPHP1mYT1A/o.jpg", "location": {"city": "Chicago", "country": "US", "address2": "", "address3": "", "state": "IL", "address1": "5550 S University Ave", "zip_code": "60637"}, "id": "henry-crown-field-house-chicago", "categories": [{"alias": "gyms", "title": "Gyms"}]}]}
{"total": 258, "businesses": [{"rating": 3.0, "review_count": 14, "name": "Sugar Magnolia", "url": "https://www.yelp.com/biz/sugar-magnolia-chicago?adjust_creative=4ANmej72Lq5uvu_h_d83AQ&utm_campaign=yelp_api_v3&utm_medium=api_v3_business_search&utm_source=4ANmej72Lq5uvu_h_d83AQ", "price": "$$$", "coordinates": {"latitude": 41.9010162353516, "longitude": -87.6270217895508}, "phone": "+13129440885", "image_url": "https://s3-media2.fl.yelpcdn.com/bphoto/NR0X2E4YE2etwOSDP0_B7A/o.jpg", "location": {"city": "Chicago", "address1": "34 E. Oak Street", "address2": "", "address3": "", "state": "IL", "country": "US", "zip_code": "60615"}, "id": "sugar-magnolia-chicago", "categories": [{"alias": "womenscloth", "title": "Women's Clothing"}]}]}
{"total": 258, "businesses": [{"rating": 4.0, "review_count": 2, "name": "St Thomas the Apostle Church", "url": "https://www.yelp.com/biz/st-thomas-the-apostle-church-chicago?adjust_creative=4ANmej72Lq5uvu_h_d83AQ&utm_campaign=yelp_api_v3&utm_medium=api_v3_business_search&utm_source=4ANmej72Lq5uvu_h_d83AQ", "coordinates": {"latitude": 41.7959363758564, "longitude": -87.5950053334236}, "phone": "+17733242626", "image_url": "https://s3-media3.fl.yelpcdn.com/bphoto/YWpWjarZjo7mgwgfaq_sNg/o.jpg", "location": {"city": "Chicago", "country": "US", "address2": "", "address3": "", "state": "IL", "address1": "5472 S Kimbark Ave", "zip_code": "60615"}, "id": "st-thomas-the-apostle-church-chicago", "categories": [{"alias": "churches", "title": "Churches"}]}]}
{"total": 258, "businesses": [{"rating": 4.0, "review_count": 4, "name": "Insomnia Cookies", "url": "https://www.yelp.com/biz/insomnia-cookies-chicago-6?adjust_creative=4ANmej72Lq5uvu_h_d83AQ&utm_campaign=yelp_api_v3&utm_medium=api_v3_business_search&utm_source=4ANmej72Lq5uvu_h_d83AQ", "coordinates": {"latitude": 41.794968098402, "longitude": -87.5994712114334}, "phone": "+18776326654", "image_url": "https://s3-media4.fl.yelpcdn.com/bphoto/X64fi-45wLsUQTQgpE7w3w/o.jpg", "location": {"city": "Chicago", "address1": "1105 E 55th St", "address2": "", "address3": null, "state": "IL", "country": "US", "zip_code": "60615"}, "id": "insomnia-cookies-chicago-6", "categories": [{"alias": "bakeries", "title": "Bakeries"}, {"alias": "icecream", "title": "Ice Cream & Frozen Yogurt"}]}]}
{"total": 258, "businesses": [{"rating": 5.0, "review_count": 1, "name": "Wholistic Image Hair Studio", "url": "https://www.yelp.com/biz/wholistic-image-hair-studio-chicago?adjust_creative=4ANmej72Lq5uvu_h_d83AQ&utm_campaign=yelp_api_v3&utm_medium=api_v3_business_search&utm_source=4ANmej72Lq5uvu_h_d83AQ", "coordinates": {"latitude": 41.795138, "longitude": -87.5902423}, "phone": "+13126204294", "image_url": "https://s3-media2.fl.yelpcdn.com/bphoto/k8AOwObHsKVZtdFSyKQXBQ/o.jpg", "location": {"city": "Chicago", "country": "US", "address2": "Ste 309", "address3": "", "state": "IL", "address1": "1525 E 55th St", "zip_code": "60615"}, "id": "wholistic-image-hair-studio-chicago", "categories": [{"alias": "barbers", "title": "Barbers"}]}]}
{"total": 258, "businesses": [{"rating": 5.0, "review_count": 2, "name": "Marsha's Music", "url": "https://www.yelp.com/biz/marshas-music-chicago-2?adjust_creative=4ANmej72Lq5uvu_h_d83AQ&utm_campaign=yelp_api_v3&utm_medium=api_v3_business_search&utm_source=4ANmej72Lq5uvu_h_d83AQ", "price": "$$", "coordinates": {"latitude": 41.79557, "longitude": -87.593391}, "phone": "+17732883815", "image_url": "https://s3-media2.fl.yelpcdn.com/bphoto/66gaBKAXgtSUiO8I4A_FiA/o.jpg", "location": {"city": "Chicago", "country": "US", "address2": "5480 S Kenwood Ave", "address3": "", "state": "IL", "address1": "Hyde Park Neighborhood Club", "zip_code": "60615"}, "id": "marshas-music-chicago-2", "categories": [{"alias": "musicalinstrumentsandteachers", "title": "Musical Instruments & Teachers"}]}]}
{"total": 258, "businesses": [{"rating": 4.0, "review_count": 5, "name": "Happy Body Wellness Center", "url": "https://www.yelp.com/biz/happy-body-wellness-center-chicago?adjust_creative=4ANmej72Lq5uvu_h_d83AQ&utm_campaign=yelp_api_v3&utm_medium=api_v3_business_search&utm_source=4ANmej72Lq5uvu_h_d83AQ", "price": "$$", "coordinates": {"latitude": 41.793328, "longitude": -87.591276}, "phone": "+13124939766", "image_url": "https://s3-media3.fl.yelpcdn.com/bphoto/7LLcih_davstKAb421-akQ/o.jpg", "location": {"city": "Chicago", "address1": "Hyde Park", "address2": null, "address3": "", "state": "IL", "country": "US", "zip_code": "60615"}, "id": "happy-body-wellness-center-chicago", "categories": [{"alias": "pilates", "title": "Pilates"}, {"alias": "massage", "title": "Massage"}]}]}
{"total": 258, "businesses": [{"rating": 4.0, "review_count": 4, "name": "Chicago Chorale", "url": "https://www.yelp.com/biz/chicago-chorale-chicago?adjust_creative=4ANmej72Lq5uvu_h_d83AQ&utm_campaign=yelp_api_v3&utm_medium=api_v3_business_search&utm_source=4ANmej72Lq5uvu_h_d83AQ", "coordinates": {"latitude": 41.7954949, "longitude": -87.5994497}, "phone": "+17733066195", "image_url": "https://s3-media4.fl.yelpcdn.com/bphoto/E_B0jsbkYCXpQfqnG1g2pA/o.jpg", "location": {"city": "Chicago", "address1": "1100 E 55th St", "address2": "", "address3": "", "state": "IL", "country": "US", "zip_code": "60615"}, "id": "chicago-chorale-chicago", "categories": [{"alias": "theater", "title": "Performing Arts"}]}]}
{"total": 258, "businesses": [{"rating": 5.0, "review_count": 3, "name": "Little People Learning Center", "url": "https://www.yelp.com/biz/little-people-learning-center-chicago?adjust_creative=4ANmej72Lq5uvu_h_d83AQ&utm_campaign=yelp_api_v3&utm_medium=api_v3_business_search&utm_source=4ANmej72Lq5uvu_h_d83AQ", "coordinates": {"latitude": 41.7918500304222, "longitude": -87.5965174287558}, "phone": "+17739559942", "image_url": "", "location": {"city": "Chicago", "country": "US", "address2": "", "address3": "", "state": "IL", "address1": "5650 S Woodlawn Ave", "zip_code": "60637"}, "id": "little-people-learning-center-chicago", "categories": [{"alias": "childcare", "title": "Child Care & Day Care"}]}]}
{"total": 258, "businesses": [{"rating": 5.0, "review_count": 1, "name": "University of Chicago Library", "url": "https://www.yelp.com/biz/the-university-of-chicago-library-chicago?adjust_creative=4ANmej72Lq5uvu_h_d83AQ&utm_campaign=yelp_api_v3&utm_medium=api_v3_business_search&utm_source=4ANmej72Lq5uvu_h_d83AQ", "coordinates": {"latitude": 41.7923796, "longitude": -87.6000559}, "phone": "+17737028740", "image_url": "", "location": {"city": "Chicago", "address1": "1100 E 57th St", "address2": null, "address3": null, "state": "IL", "country": "US", "zip_code": "60637"}, "id": "the-university-of-chicago-library-chicago", "categories": [{"alias": "collegeuniv", "title": "Colleges & Universities"}, {"alias": "libraries", "title": "Libraries"}]}]}
{"total": 258, "businesses": [{"rating": 2.0, "review_count": 99, "name": "Nicky's Chinese Food", "url": "https://www.yelp.com/biz/nickys-chinese-food-chicago?adjust_creative=4ANmej72Lq5uvu_h_d83AQ&utm_campaign=yelp_api_v3&utm_medium=api_v3_business_search&utm_source=4ANmej72Lq5uvu_h_d83AQ", "price": "$", "coordinates": {"latitude": 41.800370067358, "longitude": -87.5966046005487}, "phone": "+17733245340", "image_url": "https://s3-media1.fl.yelpcdn.com/bphoto/RuAi1DVRL0CvYxlUuXBrjQ/o.jpg", "location": {"city": "Chicago", "address1": "5231 S Woodlawn Ave", "address2": "", "address3": "", "state": "IL", "country": "US", "zip_code": "60615"}, "id": "nickys-chinese-food-chicago", "categories": [{"alias": "catering", "title": "Caterers"}]}]}
{"total": 258, "businesses": [{"rating": 5.0, "review_count": 1, "name": "Hyde Park Neighborhood Club", "url": "https://www.yelp.com/biz/hyde-park-neighborhood-club-chicago?adjust_creative=4ANmej72Lq5uvu_h_d83AQ&utm_campaign=yelp_api_v3&utm_medium=api_v3_business_search&utm_source=4ANmej72Lq5uvu_h_d83AQ", "coordinates": {"latitude": 41.795528, "longitude": -87.593795}, "phone": "+17736434062", "image_url": "", "location": {"city": "Chicago", "country": "US", "address2": "", "address3": "", "state": "IL", "address1": "5480 S Kenwood Ave", "zip_code": "60615"}, "id": "hyde-park-neighborhood-club-chicago", "categories": [{"alias": "childcare", "title": "Child Care & Day Care"}]}]}
{"total": 258, "businesses": [{"rating": 5.0, "review_count": 1, "name": "Augustana Lutheran Church", "url": "https://www.yelp.com/biz/augustana-lutheran-church-chicago?adjust_creative=4ANmej72Lq5uvu_h_d83AQ&utm_campaign=yelp_api_v3&utm_medium=api_v3_business_search&utm_source=4ANmej72Lq5uvu_h_d83AQ", "coordinates": {"latitude": 41.794840300089, "longitude": -87.597533658951}, "phone": "+17734936451", "image_url": "", "location": {"city": "Chicago", "country": "US", "address2": "", "address3": "", "state": "IL", "address1": "5500 S Woodlawn Ave", "zip_code": "60637"}, "id": "augustana-lutheran-church-chicago", "categories": [{"alias": "churches", "title": "Churches"}]}]}
{"total": 258, "businesses": [{"rating": 2.5, "review_count": 11, "name": "The Blackwood", "url": "https://www.yelp.com/biz/the-blackwood-chicago?adjust_creative=4ANmej72Lq5uvu_h_d83AQ&utm_campaign=yelp_api_v3&utm_medium=api_v3_business_search&utm_source=4ANmej72Lq5uvu_h_d83AQ", "coordinates": {"latitude": 41.800751, "longitude": -87.590997}, "phone": "+18665598740", "image_url": "https://s3-media3.fl.yelpcdn.com/bphoto/h2dPJc6-U-8dXv-hHg7OfA/o.jpg", "location": {"city": "Chicago", "address1": "5200 S Blackstone Ave", "address2": "", "a