{"total": 390, "businesses": [{"rating": 5.0, "review_count": 144, "name": "Chez Delisay's Cajun Cuisine", "url": "https://www.yelp.com/biz/chez-delisays-cajun-cuisine-chicago?adjust_creative=I4lgSBkRb99Sj6O4jx2Y_A&utm_campaign=yelp_api_v3&utm_medium=api_v3_business_search&utm_source=I4lgSBkRb99Sj6O4jx2Y_A", "price": "$$", "coordinates": {"latitude": 42.0023499, "longitude": -87.6717072}, "phone": "+18728060986", "image_url": "https://s3-media2.fl.yelpcdn.com/bphoto/PZE92WlDeeiQ2Q5xcU1M6A/o.jpg", "location": {"city": "Chicago", "country": "US", "address2": null, "address3": "", "state": "IL", "address1": "6621 N Clark St", "zip_code": "60626"}, "id": "chez-delisays-cajun-cuisine-chicago", "categories": [{"alias": "cajun", "title": "Cajun/Creole"}]}]}
{"total": 390, "businesses": [{"rating": 4.5, "review_count": 88, "name": "Sauce And Bread Kitchen", "url": "https://www.yelp.com/biz/sauce-and-bread-kitchen-chicago?adjust_creative=I4lgSBkRb99Sj6O4jx2Y_A&utm_campaign=yelp_api_v3&utm_medium=api_v3_business_search&utm_source=I4lgSBkRb99Sj6O4jx2Y_A", "price": "$", "coordinates": {"latitude": 41.9975261, "longitude": -87.6705616}, "phone": "+17739426384", "image_url": "https://s3-media1.fl.yelpcdn.com/bphoto/Tzg_GlWNDNWISS7eJkpOpQ/o.jpg", "location": {"city": "Chicago", "country": "US", "address2": "", "address3": "", "state": "IL", "address1": "6338-40 N Clark St", "zip_code": "60660"}, "id": "sauce-and-bread-kitchen-chicago", "categories": [{"alias": "grocery", "title": "Grocery"}, {"alias": "breakfast_brunch", "title": "Breakfast & Brunch"}, {"alias": "cafes", "title": "Cafes"}]}]}
{"total": 394, "businesses": [{"rating": 4.5, "review_count": 83, "name": "Den Den Restaurant", "url": "https://www.yelp.com/biz/den-den-restaurant-chicago?adjust_creative=I4lgSBkRb99Sj6O4jx2Y_A&utm_campaign=yelp_api_v3&utm_medium=api_v3_business_search&utm_source=I4lgSBkRb99Sj6O4jx2Y_A", "price": "$$", "coordinates": {"latitude": 42.0027809590101, "longitude": -87.6721798628569}, "phone": "+17739734752", "image_url": "https://s3-media4.fl.yelpcdn.com/bphoto/1_o6q65xt1dQvb-PjJtBMQ/o.jpg", "location": {"city": "Chicago", "address1": "6635 N Clark St", "address2": null, "address3": "", "state": "IL", "country": "US", "zip_code": "60626"}, "id": "den-den-restaurant-chicago", "categories": [{"alias": "ethiopian", "title": "Ethiopian"}, {"alias": "african", "title": "African"}, {"alias": "vegetarian", "title": "Vegetarian"}]}]}
{"total": 390, "businesses": [{"rating": 4.5, "review_count": 234, "name": "Thai Spice Restaurant", "url": "https://www.yelp.com/biz/thai-spice-restaurant-chicago?adjust_creative=I4lgSBkRb99Sj6O4jx2Y_A&utm_campaign=yelp_api_v3&utm_medium=api_v3_business_search&utm_source=I4lgSBkRb99Sj6O4jx2Y_A", "price": "$$", "coordinates": {"latitude": 41.99838, "longitude": -87.66404}, "phone": "+17739730504", "image_url": "https://s3-media1.fl.yelpcdn.com/bphoto/2Oh_KFfikAWjgvBrUUyAJA/o.jpg", "location": {"city": "Chicago", "country": "US", "address2": null, "address3": "", "state": "IL", "address1": "1320 W Devon Ave", "zip_code": "60626"}, "id": "thai-spice-restaurant-chicago", "categories": [{"alias": "thai", "title": "Thai"}]}]}
{"total": 394, "businesses": [{"rating": 4.5, "review_count": 166, "name": "La Unica Food Mart", "url": "https://www.yelp.com/biz/la-unica-food-mart-chicago-2?adjust_creative=I4lgSBkRb99Sj6O4jx2Y_A&utm_campaign=yelp_api_v3&utm_medium=api_v3_business_search&utm_source=I4lgSBkRb99Sj6O4jx2Y_A", "price": "$", "coordinates": {"latitude": 41.998011511669, "longitude": -87.6683912}, "phone": "+17732747788", "image_url": "https://s3-media3.fl.yelpcdn.com/bphoto/tvX3AlUecpH70px4B8rhRw/o.jpg", "location": {"city": "Chicago", "country": "US", "address2": "", "address3": "", "state": "IL", "address1": "1515 W Devon Ave", "zip_code": "60660"}, "id": "la-unica-food-mart-chicago-2", "categories": [{"alias": "grocery", "title": "Grocery"}, {"alias": "cuban", "title": "Cuban"}]}]}
{"total": 394, "businesses": [{"rating": 4.5, "review_count": 71, "name": "The Norse Bar", "url": "https://www.yelp.com/biz/the-norse-bar-chicago?adjust_creative=I4lgSBkRb99Sj6O4jx2Y_A&utm_campaign=yelp_api_v3&utm_medium=api_v3_business_search&utm_source=I4lgSBkRb99Sj6O4jx2Y_A", "price": "$$", "coordinates": {"latitude": 41.9974272698164, "longitude": -87.6705651730299}, "phone": "+17739426344", "image_url": "https://s3-media1.fl.yelpcdn.com/bphoto/13JBwLO2BS3PJN44JvJsuw/o.jpg", "location": {"city": "Chicago", "address1": "6334 N Clark St", "address2": "", "address3": "", "state": "IL", "country": "US", "zip_code": "60660"}, "id": "the-norse-bar-chicago", "categories": [{"alias": "bars", "title": "Bars"}]}]}
{"total": 390, "businesses": [{"rating": 4.0, "review_count": 1440, "name": "m.henry", "url": "https://www.yelp.com/biz/m-henry-chicago?adjust_creative=I4lgSBkRb99Sj6O4jx2Y_A&utm_campaign=yelp_api_v3&utm_medium=api_v3_business_search&utm_source=I4lgSBkRb99Sj6O4jx2Y_A", "price": "$$", "coordinates": {"latitude": 41.9856948852539, "longitude": -87.6688842773438}, "phone": "+17735611600", "image_url": "https://s3-media3.fl.yelpcdn.com/bphoto/ijiknOFQRPDTCczy5OfIEA/o.jpg", "location": {"city": "Chicago", "country": "US", "address2": null, "address3": "", "state": "IL", "address1": "5707 N Clark St", "zip_code": "60660"}, "id": "m-henry-chicago", "categories": [{"alias": "breakfast_brunch", "title": "Breakfast & Brunch"}, {"alias": "newamerican", "title": "American (New)"}, {"alias": "cafes", "title": "Cafes"}]}]}
{"total": 390, "businesses": [{"rating": 4.0, "review_count": 438, "name": "Taste of Peru", "url": "https://www.yelp.com/biz/taste-of-peru-chicago-3?adjust_creative=I4lgSBkRb99Sj6O4jx2Y_A&utm_campaign=yelp_api_v3&utm_medium=api_v3_business_search&utm_source=I4lgSBkRb99Sj6O4jx2Y_A", "price": "$$", "coordinates": {"latitude": 42.0013353048183, "longitude": -87.6713513324772}, "phone": "+17733814540", "image_url": "https://s3-media4.fl.yelpcdn.com/bphoto/eDcklkMs4_J_LsLnTWHijw/o.jpg", "location": {"city": "Chicago", "country": "US", "address2": "", "address3": "", "state": "IL", "address1": "6545 N Clark St", "zip_code": "60626"}, "id": "taste-of-peru-chicago-3", "categories": [{"alias": "peruvian", "title": "Peruvian"}]}]}
{"total": 394, "businesses": [{"rating": 4.0, "review_count": 110, "name": "Huaraches Dona Chio", "url": "https://www.yelp.com/biz/huaraches-dona-chio-chicago?adjust_creative=I4lgSBkRb99Sj6O4jx2Y_A&utm_campaign=yelp_api_v3&utm_medium=api_v3_business_search&utm_source=I4lgSBkRb99Sj6O4jx2Y_A", "price": "$", "coordinates": {"latitude": 41.991189379274, "longitude": -87.669437226622}, "phone": "+17739931002", "image_url": "https://s3-media1.fl.yelpcdn.com/bphoto/k98MMuhnX3vS5AGI0s2wGg/o.jpg", "location": {"city": "Chicago", "address1": "1547 W Elmdale Ave", "address2": "", "address3": "", "state": "IL", "country": "US", "zip_code": "60660"}, "id": "huaraches-dona-chio-chicago", "categories": [{"alias": "mexican", "title": "Mexican"}]}]}
{"total": 390, "businesses": [{"rating": 4.0, "review_count": 107, "name": "Pressure Billiards & Cafe", "url": "https://www.yelp.com/biz/pressure-billiards-and-cafe-chicago?adjust_creative=I4lgSBkRb99Sj6O4jx2Y_A&utm_campaign=yelp_api_v3&utm_medium=api_v3_business_search&utm_source=I4lgSBkRb99Sj6O4jx2Y_A", "price": "$$", "coordinates": {"latitude": 41.99704, "longitude": -87.67088}, "phone": "+17737437665", "image_url": "https://s3-media1.fl.yelpcdn.com/bphoto/zHmJwDCCNk0tGSt1-xLdgg/o.jpg", "location": {"city": "Chicago", "country": "US", "address2": "", "address3": "", "state": "IL", "address1": "6318 N Clark St", "zip_code": "60660"}, "id": "pressure-billiards-and-cafe-chicago", "categories": [{"alias": "poolhalls", "title": "Pool Halls"}, {"alias": "bars", "title": "Bars"}, {"alias": "comedyclubs", "title": "Comedy Clubs"}]}]}
{"total": 390, "businesses": [{"rating": 4.0, "review_count": 99, "name": "Ellipsis Coffeehouse", "url": "https://www.yelp.com/biz/ellipsis-coffeehouse-chicago?adjust_creative=I4lgSBkRb99Sj6O4jx2Y_A&utm_campaign=yelp_api_v3&utm_medium=api_v3_business_search&utm_source=I4lgSBkRb99Sj6O4jx2Y_A", "price": "$$", "coordinates": {"latitude": 41.997945, "longitude": -87.662656}, "phone": "+17736541589", "image_url": "https://s3-media4.fl.yelpcdn.com/bphoto/o5lleexNyim9xdI0uJTudg/o.jpg", "location": {"city": "Chicago", "country": "US", "address2": null, "address3": "", "state": "IL", "address1": "1259 W Devon Ave", "zip_code": "60660"}, "id": "ellipsis-coffeehouse-chicago", "categories": [{"alias": "coffee", "title": "Coffee & Tea"}]}]}
{"total": 390, "businesses": [{"rating": 4.5, "review_count": 29, "name": "Greenhouse Inn", "url": "https://www.yelp.com/biz/greenhouse-inn-chicago-2?adjust_creative=I4lgSBkRb99Sj6O4jx2Y_A&utm_campaign=yelp_api_v3&utm_medium=api_v3_business_search&utm_source=I4lgSBkRb99Sj6O4jx2Y_A", "price": "$", "coordinates": {"latitude": 41.9956075, "longitude": -87.675923}, "phone": "+17732734182", "image_url": "https://s3-media3.fl.yelpcdn.com/bphoto/hzCcNd9anmTWeV6DVBW13A/o.jpg", "location": {"city": "Chicago", "address1": "Misericordia", "address2": "6300 N Ridge Ave", "address3": "", "state": "IL", "country": "US", "zip_code": "60660"}, "id": "greenhouse-inn-chicago-2", "categories": [{"alias": "breakfast_brunch", "title": "Breakfast & Brunch"}, {"alias": "vegetarian", "title": "Vegetarian"}, {"alias": "sandwiches", "title": "Sandwiches"}]}]}
{"total": 394, "businesses": [{"rating": 4.0, "review_count": 144, "name": "Alexander's Restaurant", "url": "https://www.yelp.com/biz/alexanders-restaurant-chicago?adjust_creative=I4lgSBkRb99Sj6O4jx2Y_A&utm_campaign=yelp_api_v3&utm_medium=api_v3_business_search&utm_source=I4lgSBkRb99Sj6O4jx2Y_A", "price": "$", "coordinates": {"latitude": 41.9939155876637, "longitude": -87.6702875643969}, "phone": "+17737433841", "image_url": "https://s3-media4.fl.yelpcdn.com/bphoto/DwkX1Ux6U0oKtkldhMBCsg/o.jpg", "location": {"city": "Chicago", "address1": "6158 N Clark St", "address2": "", "address3": "", "state": "IL", "country": "US", "zip_code": "60660"}, "id": "alexanders-restaurant-chicago", "categories": [{"alias": "diners", "title": "Diners"}, {"alias": "breakfast_brunch", "title": "Breakfast & Brunch"}]}]}
{"total": 390, "businesses": [{"rating": 4.5, "review_count": 26, "name": "Barrelman Tavern", "url": "https://www.yelp.com/biz/barrelman-tavern-chicago?adjust_creative=I4lgSBkRb99Sj6O4jx2Y_A&utm_campaign=yelp_api_v3&utm_medium=api_v3_business_search&utm_source=I4lgSBkRb99Sj6O4jx2Y_A", "price": "$$", "coordinates": {"latitude": 41.990898, "longitude": -87.671463}, "phone": "+17736543110", "image_url": "https://s3-media2.fl.yelpcdn.com/bphoto/3UhzH8ETbdoWe4CaTsR_YA/o.jpg", "location": {"city": "Chicago", "country": "US", "address2": null, "address3": "", "state": "IL", "address1": "6001 N Paulina St", "zip_code": "60660"}, "id": "barrelman-tavern-chicago", "categories": [{"alias": "sportsbars", "title": "Sports Bars"}]}]}
{"total": 390, "businesses": [{"rating": 4.0, "review_count": 230, "name": "Antica Pizzeria", "url": "https://www.yelp.com/biz/antica-pizzeria-chicago?adjust_creative=I4lgSBkRb99Sj6O4jx2Y_A&utm_campaign=yelp_api_v3&utm_medium=api_v3_business_search&utm_source=I4lgSBkRb99Sj6O4jx2Y_A", "price": "$$", "coordinates": {"latitude": 41.98515, "longitude": -87.66885}, "phone": "+17739441492", "image_url": "https://s3-media4.fl.yelpcdn.com/bphoto/U352voxZxnhAaP5r1vnLIA/o.jpg", "location": {"city": "Chicago", "country": "US", "address2": "", "address3": "", "state": "IL", "address1": "5663 N Clark Ave", "zip_code": "60660"}, "id": "antica-pizzeria-chicago", "categories": [{"alias": "pizza", "title": "Pizza"}, {"alias": "italian", "title": "Italian"}, {"alias": "wine_bars", "title": "Wine Bars"}]}]}
{"total": 394, "businesses": [{"rating": 4.5, "review_count": 38, "name": "El Pulpo Loco", "url": "https://www.yelp.com/biz/el-pulpo-loco-chicago?adjust_creative=I4lgSBkRb99Sj6O4jx2Y_A&utm_campaign=yelp_api_v3&utm_medium=api_v3_business_search&utm_source=I4lgSBkRb99Sj6O4jx2Y_A", "price": "$$", "coordinates": {"latitude": 42.0022888183594, "longitude": -87.6716842651367}, "phone": "+17732742241", "image_url": "https://s3-media1.fl.yelpcdn.com/bphoto/eyiL4axRowDhZv8UaTNusQ/o.jpg", "location": {"city": "Chicago", "country": "US", "address2": "", "address3": "", "state": "IL", "address1": "6619 N Clark Ave", "zip_code": "60626"}, "id": "el-pulpo-loco-chicago", "categories": [{"alias": "mexican", "title": "Mexican"}]}]}
{"total": 390, "businesses": [{"rating": 3.5, "review_count": 655, "name": "Uncommon Ground", "url": "https://www.yelp.com/biz/uncommon-ground-chicago-2?adjust_creative=I4lgSBkRb99Sj6O4jx2Y_A&utm_campaign=yelp_api_v3&utm_medium=api_v3_business_search&utm_source=I4lgSBkRb99Sj6O4jx2Y_A", "price": "$$", "coordinates": {"latitude": 41.9980244460366, "longitude": -87.6655852796304}, "phone": "+17734659801", "image_url": "https://s3-media3.fl.yelpcdn.com/bphoto/fzre8jk0XWYY-GrAtBxIGA/o.jpg", "location": {"city": "Chicago", "country": "US", "address2": null, "address3": "", "state": "IL", "address1": "1401 W Devon Ave", "zip_code": "60660"}, "id": "uncommon-ground-chicago-2", "categories": [{"alias": "newamerican", "title": "American (New)"}, {"alias": "breakfast_brunch", "title": "Breakfast & Brunch"}, {"alias": "sandwiches", "title": "Sandwiches"}]}]}
{"total": 394, "businesses": [{"rating": 5.0, "review_count": 155, "name": "Felines & Canines", "url": "https://www.yelp.com/biz/felines-and-canines-chicago?adjust_creative=I4lgSBkRb99Sj6O4jx2Y_A&utm_campaign=yelp_api_v3&utm_medium=api_v3_business_search&utm_source=I4lgSBkRb99Sj6O4jx2Y_A", "coordinates": {"latitude": 41.99794, "longitude": -87.67164}, "phone": "+17734654132", "image_url": "https://s3-media4.fl.yelpcdn.com/bphoto/ZnVx7fPHdct-Cz_HBR2AIQ/o.jpg", "location": {"city": "Chicago", "country": "US", "address2": null, "address3": "", "state": "IL", "address1": "6379 N Paulina St", "zip_code": "60660"}, "id": "felines-and-canines-chicago", "categories": [{"alias": "animalshelters", "title": "Animal Shelters"}]}]}
{"total": 390, "businesses": [{"rating": 4.0, "review_count": 67, "name": "Taqueria El Chorrito", "url": "https://www.yelp.com/biz/taqueria-el-chorrito-chicago-2?adjust_creative=I4lgSBkRb99Sj6O4jx2Y_A&utm_campaign=yelp_api_v3&utm_medium=api_v3_business_search&utm_source=I4lgSBkRb99Sj6O4jx2Y_A", "price": "$", "coordinates": {"latitude": 41.998252, "longitude": -87.670269}, "phone": "+17733810902", "image_url": "https://s3-media4.fl.yelpcdn.com/bphoto/GrCjU66l6lBK1BNTLFLF6g/o.jpg", "location": {"city": "Chicago", "address1": "6404 N Clark St", "address2": "", "address3": "", "state": "IL", "country": "US", "zip_code": "60686"}, "id": "taqueria-el-chorrito-chicago-2", "categories": [{"alias": "mexican", "title": "Mexican"}]}]}
{"total": 390, "businesses": [{"rating": 4.0, "review_count": 50, "name": "Cunneen's", "url": "https://www.yelp.com/biz/cunneens-chicago-2?adjust_creative=I4lgSBkRb99Sj6O4jx2Y_A&utm_campaign=yelp_api_v3&utm_medium=api_v3_business_search&utm_source=I4lgSBkRb99Sj6O4jx2Y_A", "price": "$", "coordinates": {"latitude": 41.998289333254, "longitude": -87.666572232938}, "phone": "+17732749317", "image_url": "https://s3-media2.fl.yelpcdn.com/bphoto/RU8KGJNlYPNKJy1nIVZhkA/o.jpg", "location": {"city": "Chicago", "country": "US", "address2": "", "address3": "", "state": "IL", "address1": "1424 W Devon Ave", "zip_code": "60626"}, "id": "cunneens-chicago-2", "categories": [{"alias": "pubs", "title": "Pubs"}]}]}
{"total": 394, "businesses": [{"rating": 4.0, "review_count": 47, "name": "Ino's Pizzeria", "url": "https://www.yelp.com/biz/inos-pizzeria-chicago?adjust_creative=I4lgSBkRb99Sj6O4jx2Y_A&utm_campaign=yelp_api_v3&utm_medium=api_v3_business_search&utm_source=I4lgSBkRb99Sj6O4jx2Y_A", "price": "$", "coordinates": {"latitude": 41.9905891, "longitude": -87.6697617}, "phone": "+17732758830", "image_url": "https://s3-media4.fl.yelpcdn.com/bphoto/K7VkZuY-w5jgH-VK6pMLog/o.jpg", "location": {"city": "Chicago", "address1": "5973 N Clark St", "address2": "", "address3": "", "state": "IL", "country": "US", "zip_code": "60660"}, "id": "inos-pizzeria-chicago", "categories": [{"alias": "pizza", "title": "Pizza"}, {"alias": "sandwiches", "title": "Sandwiches"}, {"alias": "salad", "title": "Salad"}]}]}
{"total": 390, "businesses": [{"rating": 5.0, "review_count": 53, "name": "Leo's Body Shop", "url": "https://www.yelp.com/biz/leos-body-shop-chicago?adjust_creative=I4lgSBkRb99Sj6O4jx2Y_A&utm_campaign=yelp_api_v3&utm_medium=api_v3_business_search&utm_source=I4lgSBkRb99Sj6O4jx2Y_A", "coordinates": {"latitude": 41.99054, "longitude": -87.67104}, "phone": "+17737645555", "image_url": "https://s3-media2.fl.yelpcdn.com/bphoto/mvUAxgTBwBgaZyo6QVOblw/o.jpg", "location": {"city": "Chicago", "country": "US", "address2": "", "address3": "", "state": "IL", "address1": "5971 N Ridge Ave", "zip_code": "60660"}, "id": "leos-body-shop-chicago", "categories": [{"alias": "bodyshops", "title": "Body Shops"}, {"alias": "autorepair", "title": "Auto Repair"}]}]}
{"total": 394, "businesses": [{"rating": 5.0, "review_count": 53, "name": "Leo's Body Shop", "url": "https://www.yelp.com/biz/leos-body-shop-chicago?adjust_creative=I4lgSBkRb99Sj6O4jx2Y_A&utm_campaign=yelp_api_v3&utm_medium=api_v3_business_search&utm_source=I4lgSBkRb99Sj6O4jx2Y_A", "coordinates": {"latitude": 41.99054, "longitude": -87.67104}, "phone": "+17737645555", "image_url": "https://s3-media2.fl.yelpcdn.com/bphoto/mvUAxgTBwBgaZyo6QVOblw/o.jpg", "location": {"city": "Chicago", "address1": "5971 N Ridge Ave", "address2": "", "address3": "", "state": "IL", "country": "US", "zip_code": "60660"}, "id": "leos-body-shop-chicago", "categories": [{"alias": "bodyshops", "title": "Body Shops"}, {"alias": "autorepair", "title": "Auto Repair"}]}]}
{"total": 394, "businesses": [{"rating": 5.0, "review_count": 78, "name": "Maddiebird Bakery", "url": "https://www.yelp.com/biz/maddiebird-bakery-chicago?adjust_creative=I4lgSBkRb99Sj6O4jx2Y_A&utm_campaign=yelp_api_v3&utm_medium=api_v3_business_search&utm_source=I4lgSBkRb99Sj6O4jx2Y_A", "price": "$$", "coordinates": {"latitude": 41.9980750232935, "longitude": -87.6671259105206}, "phone": "+17738563262", "image_url": "https://s3-media1.fl.yelpcdn.com/bphoto/BKeWzGzxiiEwLsnVmnaeXg/o.jpg", "location": {"city": "Chicago", "country": "US", "address2": "", "address3": "", "state": "IL", "address1": "1445 W Devon Ave", "zip_code": "60660"}, "id": "maddiebird-bakery-chicago", "categories": [{"alias": "bakeries", "title": "Bakeries"}, {"alias": "cupcakes", "title": "Cupcakes"}]}]}
{"total": 390, "businesses": [{"rating": 5.0, "review_count": 10, "name": "Cafe El Meson", "url": "https://www.yelp.com/biz/cafe-el-meson-chicago-2?adjust_creative=I4lgSBkRb99Sj6O4jx2Y_A&utm_campaign=yelp_api_v3&utm_medium=api_v3_business_search&utm_source=I4lgSBkRb99Sj6O4jx2Y_A", "price": "$", "coordinates": {"latitude": 42.00247, "longitude": -87.67241}, "phone": "+17737540951", "image_url": "https://s3-media1.fl.yelpcdn.com/bphoto/jDJ9yLT4hl5JcCBAZhr1Ow/o.jpg", "location": {"city": "Chicago", "country": "US", "address2": null, "address3": "", "state": "IL", "address1": "6624 N Clark St", "zip_code": "60626"}, "id": "cafe-el-meson-chicago-2", "categories": [{"alias": "coffee", "title": "Coffee & Tea"}, {"alias": "sandwiches", "title": "Sandwiches"}]}]}
{"total": 390, "businesses": [{"rating": 4.0, "review_count": 23, "name": "Dragon Gate", "url": "https://www.yelp.com/biz/dragon-gate-chicago?adjust_creative=I4lgSBkRb99Sj6O4jx2Y_A&utm_campaign=yelp_api_v3&utm_medium=api_v3_business_search&utm_source=I4lgSBkRb99Sj6O4jx2Y_A", "price": "$", "coordinates": {"latitude": 42.0007264, "longitude": -87.6716798}, "phone": "+17733386061", "image_url": "https://s3-media1.fl.yelpcdn.com/bphoto/4RpFFAsueKK93fkqni6bsg/o.jpg", "location": {"city": "Chicago", "country": "US", "address2": "", "address3": "", "state": "IL", "address1": "6528 N Clark St", "zip_code": "60626"}, "id": "dragon-gate-chicago", "categories": [{"alias": "chinese", "title": "Chinese"}, {"alias": "hotdogs", "title": "Fast Food"}]}]}
{"total": 390, "businesses": [{"rating": 5.0, "review_count": 38, "name": "Eve's Cleaners", "url": "https://www.yelp.com/biz/eves-cleaners-chicago?adjust_creative=I4lgSBkRb99Sj6O4jx2Y_A&utm_campaign=yelp_api_v3&utm_medium=api_v3_business_search&utm_source=I4lgSBkRb99Sj6O4jx2Y_A", "price": "$", "coordinates": {"latitude": 41.9979851, "longitude": -87.6675233}, "phone": "+17734650414", "image_url": "https://s3-media4.fl.yelpcdn.com/bphoto/d4MieKVKCOsif1dUgan8ng/o.jpg", "location": {"city": "Chicago", "country": "US", "address2": "", "address3": "", "state": "IL", "address1": "1457 W Devon Ave", "zip_code": "60660"}, "id": "eves-cleaners-chicago", "categories": [{"alias": "drycleaninglaundry", "title": "Dry Cleaning & Laundry"}]}]}
{"total": 390, "businesses": [{"rating": 5.0, "review_count": 24, "name": "North Shore Pet Sitters", "url": "https://www.yelp.com/biz/north-shore-pet-sitters-chicago?adjust_creative=I4lgSBkRb99Sj6O4jx2Y_A&utm_campaign=yelp_api_v3&utm_medium=api_v3_business_search&utm_source=I4lgSBkRb99Sj6O4jx2Y_A", "coordinates": {"latitude": 41.9932208955288, "longitude": -87.6734344661236}, "phone": "+17733388499", "image_url": "https://s3-media3.fl.yelpcdn.com/bphoto/4g86ZdI9Iw61UjWEM73W-A/o.jpg", "location": {"city": "Chicago", "address1": "6114 N Hermitage Ave", "address2": "", "address3": "", "state": "IL", "country": "US", "zip_code": "60660"}, "id": "north-shore-pet-sitters-chicago", "categories": [{"alias": "petservices", "title": "Pet Services"}]}]}
{"total": 390, "businesses": [{"rating": 4.5, "review_count": 70, "name": "Northside Dental", "url": "https://www.yelp.com/biz/northside-dental-chicago?adjust_creative=I4lgSBkRb99Sj6O4jx2Y_A&utm_campaign=yelp_api_v3&utm_medium=api_v3_business_search&utm_source=I4lgSBkRb99Sj6O4jx2Y_A", "coordinates": {"latitude": 41.988294, "longitude": -87.670058}, "phone": "+17735612237", "image_url": "https://s3-media1.fl.yelpcdn.com/bphoto/4trfcZDdww1tpZmIMGRbpQ/o.jpg", "location": {"city": "Chicago", "country": "US", "address2": "", "address3": "", "state": "IL", "address1": "5850 N Clark St", "zip_code": "60660"}, "id": "northside-dental-chicago", "categories": [{"alias": "generaldentistry", "title": "General Dentistry"}, {"alias": "cosmeticdentists", "title": "Cosmetic Dentists"}, {"alias": "periodontists", "title": "Periodontists"}]}]}
{"total": 390, "businesses": [{"rating": 5.0, "review_count": 55, "name": "Cozy Cats and Daily Dogs", "url": "https://www.yelp.com/biz/cozy-cats-and-daily-dogs-chicago?adjust_creative=I4lgSBkRb99Sj6O4jx2Y_A&utm_campaign=yelp_api_v3&utm_medium=api_v3_business_search&utm_source=I4lgSBkRb99Sj6O4jx2Y_A", "coordinates": {"latitude": 41.995095, "longitude": -87.664872}, "phone": "+13123885150", "image_url": "https://s3-media4.fl.yelpcdn.com/bphoto/QyNzk55Lp3oBnavTPdl9zQ/o.jpg", "location": {"city": "Chicago", "country": "US", "address2": "", "address3": "", "state": "IL", "address1": "1346 W Granville", "zip_code": "60660"}, "id": "cozy-cats-and-daily-dogs-chicago", "categories": [{"alias": "dogwalkers", "title": "Dog Walkers"}, {"alias": "pet_sitting", "title": "Pet Boarding/Pet Sitting"}]}]}
{"total": 394, "businesses": [{"rating": 5.0, "review_count": 55, "name": "Cozy Cats and Daily Dogs", "url": "https://www.yelp.com/biz/cozy-cats-and-daily-dogs-chicago?adjust_creative=I4lgSBkRb99Sj6O4jx2Y_A&utm_campaign=yelp_api_v3&utm_medium=api_v3_business_search&utm_source=I4lgSBkRb99Sj6O4jx2Y_A", "coordinates": {"latitude": 41.995095, "longitude": -87.664872}, "phone": "+13123885150", "image_url": "https://s3-media4.fl.yelpcdn.com/bphoto/QyNzk55Lp3oBnavTPdl9zQ/o.jpg", "location": {"city": "Chicago", "address1": "1346 W Granville", "address2": "", "address3": "", "state": "IL", "country": "US", "zip_code": "60660"}, "id": "cozy-cats-and-daily-dogs-chicago", "categories": [{"alias": "dogwalkers", "title": "Dog Walkers"}, {"alias": "pet_sitting", "title": "Pet Boarding/Pet Sitting"}]}]}
{"total": 390, "businesses": [{"rating": 5.0, "review_count": 28, "name": "Mufflers & Brakes 4 Less", "url": "https://www.yelp.com/biz/mufflers-and-brakes-4-less-chicago?adjust_creative=I4lgSBkRb99Sj6O4jx2Y_A&utm_campaign=yelp_api_v3&utm_medium=api_v3_business_search&utm_source=I4lgSBkRb99Sj6O4jx2Y_A", "coordinates": {"latitude": 41.99353, "longitude": -87.6705099}, "phone": "+17737613566", "image_url": "https://s3-media1.fl.yelpcdn.com/bphoto/jdhSmPbHJEXhxkfeeE14jg/o.jpg", "location": {"city": "Chicago", "country": "US", "address2": "", "address3": "", "state": "IL", "address1": "6130 N Clark St", "zip_code": "60660"}, "id": "mufflers-and-brakes-4-less-chicago", "categories": [{"alias": "autorepair", "title": "Auto Repair"}]}]}
{"total": 390, "businesses": [{"rating": 4.5, "review_count": 8, "name": "Misericordia Heart Of Mercy", "url": "https://www.yelp.com/biz/misericordia-heart-of-mercy-chicago?adjust_creative=I4lgSBkRb99Sj6O4jx2Y_A&utm_campaign=yelp_api_v3&utm_medium=api_v3_business_search&utm_source=I4lgSBkRb99Sj6O4jx2Y_A", "price": "$$", "coordinates": {"latitude": 41.9956075, "longitude": -87.675923}, "phone": "+17739736300", "image_url": "https://s3-media4.fl.yelpcdn.com/bphoto/EPpmHOUc5gD-tKaHrz1Gsg/o.jpg", "location": {"city": "Chicago", "country": "US", "address2": "", "address3": "", "state": "IL", "address1": "6300 N Ridge Ave", "zip_code": "60660"}, "id": "misericordia-heart-of-mercy-chicago", "categories": [{"alias": "religiousorgs", "title": "Religious Organizations"}, {"alias": "restaurants", "title": "Restaurants"}]}]}
{"total": 390, "businesses": [{"rating": 4.5, "review_count": 239, "name": "Gethsemane Garden Center", "url": "https://www.yelp.com/biz/gethsemane-garden-center-chicago?adjust_creative=I4lgSBkRb99Sj6O4jx2Y_A&utm_campaign=yelp_api_v3&utm_medium=api_v3_business_search&utm_source=I4lgSBkRb99Sj6O4jx2Y_A", "price": "$$$", "coordinates": {"latitude": 41.9866218566895, "longitude": -87.6691513061523}, "phone": "+17738785915", "image_url": "https://s3-media4.fl.yelpcdn.com/bphoto/XSJ6WzSbHkHfRoqjGbRYAQ/o.jpg", "location": {"city": "Chicago", "country": "US", "address2": "", "address3": "", "state": "IL", "address1": "5739 N Clark St", "zip_code": "60660"}, "id": "gethsemane-garden-center-chicago", "categories": [{"alias": "gardening", "title": "Nurseries & Gardening"}]}]}
{"total": 390, "businesses": [{"rating": 5.0, "review_count": 30, "name": "Crafty Broads", "url": "https://www.yelp.com/biz/crafty-broads-chicago?adjust_creative=I4lgSBkRb99Sj6O4jx2Y_A&utm_campaign=yelp_api_v3&utm_medium=api_v3_business_search&utm_source=I4lgSBkRb99Sj6O4jx2Y_A", "price": "$$", "coordinates": {"latitude": 42.001091, "longitude": -87.664475}, "phone": "+17732749775", "image_url": "https://s3-media4.fl.yelpcdn.com/bphoto/Br-pJ9j6t0xW1sJMLjCE-g/o.jpg", "location": {"city": "Chicago", "address1": "1329 W Loyola Ave", "address2": "Ste G1", "address3": "", "state": "IL", "country": "US", "zip_code": "60626"}, "id": "crafty-broads-chicago", "categories": [{"alias": "sewingalterations", "title": "Sewing & Alterations"}, {"alias": "wedding_planning", "title": "Wedding Planning"}, {"alias": "bespoke", "title": "Bespoke Clothing"}]}]}
{"total": 390, "businesses": [{"rating": 3.5, "review_count": 486, "name": "Fireside Restaurant", "url": "https://www.yelp.com/biz/fireside-restaurant-chicago-2?adjust_creative=I4lgSBkRb99Sj6O4jx2Y_A&utm_campaign=yelp_api_v3&utm_medium=api_v3_business_search&utm_source=I4lgSBkRb99Sj6O4jx2Y_A", "price": "$$", "coordinates": {"latitude": 41.9856355, "longitude": -87.6748122}, "phone": "+17735617433", "image_url": "https://s3-media3.fl.yelpcdn.com/bphoto/Goy06auCqP-LKKig5_YBcg/o.jpg", "location": {"city": "Chicago", "address1": "5739 N Ravenswood Ave", "address2": "", "address3": "", "state": "IL", "country": "US", "zip_code": "60660"}, "id": "fireside-restaurant-chicago-2", "categories": [{"alias": "bars", "title": "Bars"}, {"alias": "tradamerican", "title": "American (Traditional)"}, {"alias": "cajun", "title": "Cajun/Creole"}]}]}
{"total": 390, "businesses": [{"rating": 5.0, "review_count": 40, "name": "JPP Studios", "url": "https://www.yelp.com/biz/jpp-studios-chicago-2?adjust_creative=I4lgSBkRb99Sj6O4jx2Y_A&utm_campaign=yelp_api_v3&utm_medium=api_v3_business_search&utm_source=I4lgSBkRb99Sj6O4jx2Y_A", "coordinates": {"latitude": 41.9901263, "longitude": -87.663045}, "phone": "+13129720723", "image_url": "https://s3-media2.fl.yelpcdn.com/bphoto/bvL2F9j1zZCTs-1SAnu4tg/o.jpg", "location": {"city": "Chicago", "country": "US", "address2": "", "address3": "", "state": "IL", "address1": "", "zip_code": "60660"}, "id": "jpp-studios-chicago-2", "categories": [{"alias": "eventphotography", "title": "Event Photography"}, {"alias": "sessionphotography", "title": "Session Photography"}]}]}
{"total": 390, "businesses": [{"rating": 3.5, "review_count": 153, "name": "Pork Shoppe", "url": "https://www.yelp.com/biz/pork-shoppe-chicago-3?adjust_creative=I4lgSBkRb99Sj6O4jx2Y_A&utm_campaign=yelp_api_v3&utm_medium=api_v3_business_search&utm_source=I4lgSBkRb99Sj6O4jx2Y_A", "price": "$$", "coordinates": {"latitude": 41.9861655275009, "longitude": -87.6692458947415}, "phone": "+17736541800", "image_url": "https://s3-media4.fl.yelpcdn.com/bphoto/L7WpMjrDIGTPaUx1epMrgw/o.jpg", "location": {"city": "Chicago", "country": "US", "address2": "", "address3": "", "state": "IL", "address1": "5721 N Clark St", "zip_code": "60660"}, "id": "pork-shoppe-chicago-3", "categories": [{"alias": "bbq", "title": "Barbeque"}, {"alias": "breakfast_brunch", "title": "Breakfast & Brunch"}]}]}
{"total": 390, "businesses": [{"rating": 4.0, "review_count": 23, "name": "Taqueria El Charro I", "url": "https://www.yelp.com/biz/taqueria-el-charro-i-chicago?adjust_creative=I4lgSBkRb99Sj6O4jx2Y_A&utm_campaign=yelp_api_v3&utm_medium=api_v3_business_search&utm_source=I4lgSBkRb99Sj6O4jx2Y_A", "price": "$", "coordinates": {"latitude": 42.0030575, "longitude": -87.6721501}, "phone": "+17737437056", "image_url": "https://s3-media3.fl.yelpcdn.com/bphoto/-PmywYLi3JDCe0WkxbkTDg/o.jpg", "location": {"city": "Chicago", "country": "US", "address2": "", "address3": "", "state": "IL", "address1": "6661 N Clark St", "zip_code": "60626"}, "id": "taqueria-el-charro-i-chicago", "categories": [{"alias": "mexican", "title": "Mexican"}]}]}
{"total": 390, "businesses": [{"rating": 3.5, "review_count": 58, "name": "Jackhammer", "url": "https://www.yelp.com/biz/jackhammer-chicago?adjust_creative=I4lgSBkRb99Sj6O4jx2Y_A&utm_campaign=yelp_api_v3&utm_medium=api_v3_business_search&utm_source=I4lgSBkRb99Sj6O4jx2Y_A", "price": "$$", "coordinates": {"latitude": 41.9984086181955, "longitude": -87.6709611556974}, "phone": "+17737435772", "image_url": "https://s3-media3.fl.yelpcdn.com/bphoto/nQ70IBzaC8NYr_xgdOL6Ew/o.jpg", "location": {"city": "Chicago", "country": "US", "address2": "", "address3": "", "state": "IL", "address1": "6406 N Clark St", "zip_code": "60626"}, "id": "jackhammer-chicago", "categories": [{"alias": "gaybars", "title": "Gay Bars"}]}]}
{"total": 390, "businesses": [{"rating": 5.0, "review_count": 72, "name": "Arya A-1 Auto Repair", "url": "https://www.yelp.com/biz/arya-a-1-auto-repair-chicago?adjust_creative=I4lgSBkRb99Sj6O4jx2Y_A&utm_campaign=yelp_api_v3&utm_medium=api_v3_business_search&utm_source=I4lgSBkRb99Sj6O4jx2Y_A", "coordinates": {"latitude": 42.0038, "longitude": -87.67221}, "phone": "+17737643232", "image_url": "https://s3-media2.fl.yelpcdn.com/bphoto/tahYtMjXK0GddIPGYFj0QA/o.jpg", "location": {"city": "Chicago", "address1": "6707 N Clark St", "address2": "", "address3": "", "state": "IL", "country": "US", "zip_code": "60626"}, "id": "arya-a-1-auto-repair-chicago", "categories": [{"alias": "autorepair", "title": "Auto Repair"}, {"alias": "bodyshops", "title": "Body Shops"}]}]}
{"total": 390, "businesses": [{"rating": 5.0, "review_count": 44, "name": "Amara Sophia Munoz - Spirit Dreamer Healing Studio", "url": "https://www.yelp.com/biz/amara-sophia-munoz-spirit-dreamer-healing-studio-chicago-2?adjust_creative=I4lgSBkRb99Sj6O4jx2Y_A&utm_campaign=yelp_api_v3&utm_medium=api_v3_business_search&utm_source=I4lgSBkRb99Sj6O4jx2Y_A", "coordinates": {"latitude": 42.0026401430368, "longitude": -87.6724534481764}, "phone": "+13129982373", "image_url": "https://s3-media3.fl.yelpcdn.com/bphoto/QB3x2e1xwfi9Bzv5L4c7jw/o.jpg", "location": {"city": "Chicago", "address1": "1656 W Wallen Ave", "address2": "", "address3": "", "state": "IL", "country": "US", "zip_code": "60640"}, "id": "amara-sophia-munoz-spirit-dreamer-healing-studio-chicago-2", "categories": [{"alias": "psychic_astrology", "title": "Psychics & Astrologers"}, {"alias": "naturopathic", "title": "Naturopathic/Holistic"}, {"alias": "yoga", "title": "Yoga"}]}]}
{"total": 394, "businesses": [{"rating": 5.0, "review_count": 44, "name": "Amara Sophia Munoz - Spirit Dreamer Healing Studio", "url": "https://www.yelp.com/biz/amara-sophia-munoz-spirit-dreamer-healing-studio-chicago-2?adjust_creative=I4lgSBkRb99Sj6O4jx2Y_A&utm_campaign=yelp_api_v3&utm_medium=api_v3_business_search&utm_source=I4lgSBkRb99Sj6O4jx2Y_A", "coordinates": {"latitude": 42.0026401430368, "longitude": -87.6724534481764}, "phone": "+13129982373", "image_url": "https://s3-media3.fl.yelpcdn.com/bphoto/QB3x2e1xwfi9Bzv5L4c7jw/o.jpg", "location": {"city": "Chicago", "country": "US", "address2": "", "address3": "", "state": "IL", "address1": "1656 W Wallen Ave", "zip_code": "60640"}, "id": "amara-sophia-munoz-spirit-dreamer-healing-studio-chicago-2", "categories": [{"alias": "psychic_astrology", "title": "Psychics & Astrologers"}, {"alias": "naturopathic", "title": "Naturopathic/Holistic"}, {"alias": "yoga", "title": "Yoga"}]}]}
