{"total": 85, "businesses": [{"rating": 4.5, "review_count": 50, "name": "North Park Village Nature Center", "url": "https://www.yelp.com/biz/north-park-village-nature-center-chicago?adjust_creative=_xGZBQTFH5RSnMk3I7VtQQ&utm_campaign=yelp_api_v3&utm_medium=api_v3_business_search&utm_source=_xGZBQTFH5RSnMk3I7VtQQ", "coordinates": {"latitude": 41.9878746037679, "longitude": -87.7244325590962}, "phone": "+13127445472", "image_url": "https://s3-media4.fl.yelpcdn.com/bphoto/ZfjP8lZqYPeTdJPAY9WbRQ/o.jpg", "location": {"city": "Chicago", "address1": "5801 N Pulaski Rd", "address2": "", "address3": "", "state": "IL", "country": "US", "zip_code": "60646"}, "id": "north-park-village-nature-center-chicago", "categories": [{"alias": "parks", "title": "Parks"}]}]}
{"total": 85, "businesses": [{"rating": 4.0, "review_count": 180, "name": "Ban Po Chung", "url": "https://www.yelp.com/biz/ban-po-chung-chicago-2?adjust_creative=_xGZBQTFH5RSnMk3I7VtQQ&utm_campaign=yelp_api_v3&utm_medium=api_v3_business_search&utm_source=_xGZBQTFH5RSnMk3I7VtQQ", "price": "$$", "coordinates": {"latitude": 41.9758249, "longitude": -87.7154574}, "phone": "+17735835209", "image_url": "https://s3-media4.fl.yelpcdn.com/bphoto/7i8LV41H6vw5WuC47mI3eA/o.jpg", "location": {"city": "Chicago", "country": "US", "address2": "", "address3": "", "state": "IL", "address1": "3450 W Foster Ave", "zip_code": "60625"}, "id": "ban-po-chung-chicago-2", "categories": [{"alias": "korean", "title": "Korean"}, {"alias": "bbq", "title": "Barbeque"}]}]}
{"total": 85, "businesses": [{"rating": 5.0, "review_count": 37, "name": "Evolution Strength and Conditioning", "url": "https://www.yelp.com/biz/evolution-strength-and-conditioning-chicago-2?adjust_creative=_xGZBQTFH5RSnMk3I7VtQQ&utm_campaign=yelp_api_v3&utm_medium=api_v3_business_search&utm_source=_xGZBQTFH5RSnMk3I7VtQQ", "coordinates": {"latitude": 41.9925954, "longitude": -87.7289949}, "phone": "+17735993861", "image_url": "https://s3-media1.fl.yelpcdn.com/bphoto/eRg0G4Flbc32drjZ5S70ZQ/o.jpg", "location": {"city": "Chicago", "address1": "6122 N Pulaski Rd", "address2": null, "address3": "", "state": "IL", "country": "US", "zip_code": "60646"}, "id": "evolution-strength-and-conditioning-chicago-2", "categories": [{"alias": "healthtrainers", "title": "Trainers"}, {"alias": "gyms", "title": "Gyms"}, {"alias": "bootcamps", "title": "Boot Camps"}]}]}
{"total": 85, "businesses": [{"rating": 4.5, "review_count": 63, "name": "Johns Electric Troubleshooting", "url": "https://www.yelp.com/biz/johns-electric-troubleshooting-chicago?adjust_creative=_xGZBQTFH5RSnMk3I7VtQQ&utm_campaign=yelp_api_v3&utm_medium=api_v3_business_search&utm_source=_xGZBQTFH5RSnMk3I7VtQQ", "coordinates": {"latitude": 41.984251, "longitude": -87.715883}, "phone": "+17738827070", "image_url": "https://s3-media4.fl.yelpcdn.com/bphoto/ox871ANwMvIl4-_iPXe1SA/o.jpg", "location": {"city": "Chicago", "country": "US", "address2": "2nd Fl", "address3": "", "state": "IL", "address1": "5643 N St Louis Ave", "zip_code": "60659"}, "id": "johns-electric-troubleshooting-chicago", "categories": [{"alias": "electricians", "title": "Electricians"}]}]}
{"total": 85, "businesses": [{"rating": 3.5, "review_count": 74, "name": "Mayflower Chinese Restaurant", "url": "https://www.yelp.com/biz/mayflower-chinese-restaurant-chicago?adjust_creative=_xGZBQTFH5RSnMk3I7VtQQ&utm_campaign=yelp_api_v3&utm_medium=api_v3_business_search&utm_source=_xGZBQTFH5RSnMk3I7VtQQ", "price": "$", "coordinates": {"latitude": 41.97654, "longitude": -87.7283849}, "phone": "+17738662868", "image_url": "https://s3-media4.fl.yelpcdn.com/bphoto/HESL3EPYX6az9uf3hjxY-g/o.jpg", "location": {"city": "Chicago", "country": "US", "address2": "Ste M", "address3": "", "state": "IL", "address1": "5240 N Pulaski Rd", "zip_code": "60630"}, "id": "mayflower-chinese-restaurant-chicago", "categories": [{"alias": "chinese", "title": "Chinese"}]}]}
{"total": 85, "businesses": [{"rating": 5.0, "review_count": 22, "name": "Twelve Training", "url": "https://www.yelp.com/biz/twelve-training-chicago?adjust_creative=_xGZBQTFH5RSnMk3I7VtQQ&utm_campaign=yelp_api_v3&utm_medium=api_v3_business_search&utm_source=_xGZBQTFH5RSnMk3I7VtQQ", "coordinates": {"latitude": 41.992676, "longitude": -87.729844}, "phone": "+18478941483", "image_url": "https://s3-media3.fl.yelpcdn.com/bphoto/OvNprP9cgUuTz08o99nZQA/o.jpg", "location": {"city": "Chicago", "country": "US", "address2": "6122 N Pulaski", "address3": "", "state": "IL", "address1": "Evolution Fitness", "zip_code": "60646"}, "id": "twelve-training-chicago", "categories": [{"alias": "healthtrainers", "title": "Trainers"}]}]}
{"total": 85, "businesses": [{"rating": 4.5, "review_count": 15, "name": "WFMT General Public Info", "url": "https://www.yelp.com/biz/wfmt-general-public-info-chicago?adjust_creative=_xGZBQTFH5RSnMk3I7VtQQ&utm_campaign=yelp_api_v3&utm_medium=api_v3_business_search&utm_source=_xGZBQTFH5RSnMk3I7VtQQ", "coordinates": {"latitude": 41.9795759210154, "longitude": -87.7162384986877}, "phone": "+17732792000", "image_url": "https://s3-media3.fl.yelpcdn.com/bphoto/tu7A7tdqXLIMnxiVbTTS9Q/o.jpg", "location": {"city": "Chicago", "country": "US", "address2": "", "address3": "", "state": "IL", "address1": "5400 N Saint Louis Ave", "zip_code": "60625"}, "id": "wfmt-general-public-info-chicago", "categories": [{"alias": "radiostations", "title": "Radio Stations"}]}]}
{"total": 85, "businesses": [{"rating": 5.0, "review_count": 10, "name": "Cleaning Experts", "url": "https://www.yelp.com/biz/cleaning-experts-chicago-4?adjust_creative=_xGZBQTFH5RSnMk3I7VtQQ&utm_campaign=yelp_api_v3&utm_medium=api_v3_business_search&utm_source=_xGZBQTFH5RSnMk3I7VtQQ", "coordinates": {"latitude": 41.9867766748101, "longitude": -87.7187779010308}, "phone": "+17739858236", "image_url": "https://s3-media3.fl.yelpcdn.com/bphoto/VDPgGpwf8TQkxjx-4BY4Ag/o.jpg", "location": {"city": "Chicago", "address1": "", "address2": "", "address3": "", "state": "IL", "country": "US", "zip_code": "60659"}, "id": "cleaning-experts-chicago-4", "categories": [{"alias": "homecleaning", "title": "Home Cleaning"}, {"alias": "carpet_cleaning", "title": "Carpet Cleaning"}, {"alias": "windowwashing", "title": "Window Washing"}]}]}
{"total": 85, "businesses": [{"rating": 4.0, "review_count": 16, "name": "Andrew Pavlatos, MD- Presence Health", "url": "https://www.yelp.com/biz/andrew-pavlatos-md-presence-health-chicago?adjust_creative=_xGZBQTFH5RSnMk3I7VtQQ&utm_campaign=yelp_api_v3&utm_medium=api_v3_business_search&utm_source=_xGZBQTFH5RSnMk3I7VtQQ", "coordinates": {"latitude": 41.990516, "longitude": -87.7167798}, "phone": "+17739613200", "image_url": "https://s3-media4.fl.yelpcdn.com/bphoto/HghEpqNgP53Oy5hNuZiFzg/o.jpg", "location": {"city": "Chicago", "address1": "3500 W Peterson Ave", "address2": "Ste 300", "address3": "", "state": "IL", "country": "US", "zip_code": "60625"}, "id": "andrew-pavlatos-md-presence-health-chicago", "categories": [{"alias": "familydr", "title": "Family Practice"}]}]}
{"total": 85, "businesses": [{"rating": 5.0, "review_count": 15, "name": "Mattress Firm North Mayfair", "url": "https://www.yelp.com/biz/mattress-firm-north-mayfair-chicago?adjust_creative=_xGZBQTFH5RSnMk3I7VtQQ&utm_campaign=yelp_api_v3&utm_medium=api_v3_business_search&utm_source=_xGZBQTFH5RSnMk3I7VtQQ", "coordinates": {"latitude": 41.9765396, "longitude": -87.7283859}, "phone": "+17732672213", "image_url": "https://s3-media1.fl.yelpcdn.com/bphoto/wHAR9iXz5YmfQpw2P5YD3g/o.jpg", "location": {"city": "Chicago", "country": "US", "address2": "Ste O", "address3": "", "state": "IL", "address1": "5240 N Pulaski", "zip_code": "60630"}, "id": "mattress-firm-north-mayfair-chicago", "categories": [{"alias": "mattresses", "title": "Mattresses"}]}]}
{"total": 85, "businesses": [{"rating": 4.5, "review_count": 14, "name": "Chicago Bird Collision Monitor", "url": "https://www.yelp.com/biz/chicago-bird-collision-monitor-chicago?adjust_creative=_xGZBQTFH5RSnMk3I7VtQQ&utm_campaign=yelp_api_v3&utm_medium=api_v3_business_search&utm_source=_xGZBQTFH5RSnMk3I7VtQQ", "coordinates": {"latitude": 41.9857867, "longitude": -87.7227427}, "phone": "+17739881867", "image_url": "https://s3-media2.fl.yelpcdn.com/bphoto/cH95yrIrR01FTi6bwMetag/o.jpg", "location": {"city": "Chicago", "address1": "5801C N Pulaski Rd", "address2": "", "address3": "", "state": "IL", "country": "US", "zip_code": "60646"}, "id": "chicago-bird-collision-monitor-chicago", "categories": [{"alias": "animalshelters", "title": "Animal Shelters"}]}]}
{"total": 85, "businesses": [{"rating": 4.0, "review_count": 30, "name": "WTTW Channel 11", "url": "https://www.yelp.com/biz/wttw-channel-11-chicago?adjust_creative=_xGZBQTFH5RSnMk3I7VtQQ&utm_campaign=yelp_api_v3&utm_medium=api_v3_business_search&utm_source=_xGZBQTFH5RSnMk3I7VtQQ", "coordinates": {"latitude": 41.97966, "longitude": -87.7185499}, "phone": "+17732790462", "image_url": "https://s3-media2.fl.yelpcdn.com/bphoto/M6K35Cr1_kZarrGnEVdXLA/o.jpg", "location": {"city": "Chicago", "address1": "5400 N Saint Louis Ave", "address2": "", "address3": "", "state": "IL", "country": "US", "zip_code": "60625"}, "id": "wttw-channel-11-chicago", "categories": [{"alias": "televisionstations", "title": "Television Stations"}]}]}
{"total": 85, "businesses": [{"rating": 5.0, "review_count": 5, "name": "Dr. Cynthia Casaclang DDS", "url": "https://www.yelp.com/biz/dr-cynthia-casaclang-dds-chicago?adjust_creative=_xGZBQTFH5RSnMk3I7VtQQ&utm_campaign=yelp_api_v3&utm_medium=api_v3_business_search&utm_source=_xGZBQTFH5RSnMk3I7VtQQ", "coordinates": {"latitude": 41.9899749755859, "longitude": -87.7170257568359}, "phone": "+17735640999", "image_url": "", "location": {"city": "Chicago", "country": "US", "address2": null, "address3": null, "state": "IL", "address1": "3525 W Peterson Ave Ste 123", "zip_code": "60659"}, "id": "dr-cynthia-casaclang-dds-chicago", "categories": [{"alias": "generaldentistry", "title": "General Dentistry"}]}]}
{"total": 85, "businesses": [{"rating": 4.5, "review_count": 13, "name": "Bohemian National Cemetery Association", "url": "https://www.yelp.com/biz/bohemian-national-cemetery-association-chicago?adjust_creative=_xGZBQTFH5RSnMk3I7VtQQ&utm_campaign=yelp_api_v3&utm_medium=api_v3_business_search&utm_source=_xGZBQTFH5RSnMk3I7VtQQ", "coordinates": {"latitude": 41.9776, "longitude": -87.7281551}, "phone": "+17735398442", "image_url": "https://s3-media3.fl.yelpcdn.com/bphoto/5mfBZnKkISn1tGfRfZC2kQ/o.jpg", "location": {"city": "Chicago", "country": "US", "address2": "", "address3": "", "state": "IL", "address1": "5255 N Pulaski Rd", "zip_code": "60630"}, "id": "bohemian-national-cemetery-association-chicago", "categories": [{"alias": "funeralservices", "title": "Funeral Services & Cemeteries"}]}]}
{"total": 85, "businesses": [{"rating": 3.5, "review_count": 8, "name": "Peterson Park District", "url": "https://www.yelp.com/biz/peterson-park-district-chicago?adjust_creative=_xGZBQTFH5RSnMk3I7VtQQ&utm_campaign=yelp_api_v3&utm_medium=api_v3_business_search&utm_source=_xGZBQTFH5RSnMk3I7VtQQ", "coordinates": {"latitude": 41.9857333, "longitude": -87.7283551}, "phone": "+13127420490", "image_url": "https://s3-media2.fl.yelpcdn.com/bphoto/GhMdrAjncIaG-Uw76GYk5A/o.jpg", "location": {"city": "Chicago", "country": "US", "address2": "", "address3": "", "state": "IL", "address1": "5801 N Pulaski Rd", "zip_code": "60646"}, "id": "peterson-park-district-chicago", "categories": [{"alias": "parks", "title": "Parks"}]}]}
{"total": 85, "businesses": [{"rating": 4.0, "review_count": 10, "name": "Robert Hamilton, DDS", "url": "https://www.yelp.com/biz/robert-hamilton-dds-chicago?adjust_creative=_xGZBQTFH5RSnMk3I7VtQQ&utm_campaign=yelp_api_v3&utm_medium=api_v3_business_search&utm_source=_xGZBQTFH5RSnMk3I7VtQQ", "coordinates": {"latitude": 41.99058, "longitude": -87.71552}, "phone": "+17735397392", "image_url": "https://s3-media1.fl.yelpcdn.com/bphoto/2m5MngouOHtNGhIxAQOxdA/o.jpg", "location": {"city": "Chicago", "address1": "3434 W Peterson Ave", "address2": "Ste 201", "address3": "", "state": "IL", "country": "US", "zip_code": "60659"}, "id": "robert-hamilton-dds-chicago", "categories": [{"alias": "pediatric_dentists", "title": "Pediatric Dentists"}, {"alias": "generaldentistry", "title": "General Dentistry"}, {"alias": "cosmeticdentists", "title": "Cosmetic Dentists"}]}]}
{"total": 85, "businesses": [{"rating": 3.5, "review_count": 65, "name": "Northeastern Illinois University", "url": "https://www.yelp.com/biz/northeastern-illinois-university-chicago-3?adjust_creative=_xGZBQTFH5RSnMk3I7VtQQ&utm_campaign=yelp_api_v3&utm_medium=api_v3_business_search&utm_source=_xGZBQTFH5RSnMk3I7VtQQ", "coordinates": {"latitude": 41.9814529418945, "longitude": -87.7186050415039}, "phone": "+17735834050", "image_url": "https://s3-media2.fl.yelpcdn.com/bphoto/4SNhQGFIpcVZo7lUfY72mg/o.jpg", "location": {"city": "Chicago", "country": "US", "address2": "", "address3": "", "state": "IL", "address1": "5500 N Saint Louis Ave", "zip_code": "60625"}, "id": "northeastern-illinois-university-chicago-3", "categories": [{"alias": "collegeuniv", "title": "Colleges & Universities"}]}]}
{"total": 85, "businesses": [{"rating": 5.0, "review_count": 8, "name": "Make It Happen Personal Training", "url": "https://www.yelp.com/biz/make-it-happen-personal-training-chicago?adjust_creative=_xGZBQTFH5RSnMk3I7VtQQ&utm_campaign=yelp_api_v3&utm_medium=api_v3_business_search&utm_source=_xGZBQTFH5RSnMk3I7VtQQ", "coordinates": {"latitude": 41.9925954, "longitude": -87.7289949}, "phone": "+17739874165", "image_url": "https://s3-media4.fl.yelpcdn.com/bphoto/-EMByM5qprPZ0crU3cAKbA/o.jpg", "location": {"city": "Chicago", "address1": "6122 N Pulaski", "address2": "", "address3": "", "state": "IL", "country": "US", "zip_code": "60646"}, "id": "make-it-happen-personal-training-chicago", "categories": [{"alias": "healthtrainers", "title": "Trainers"}]}]}
{"total": 85, "businesses": [{"rating": 3.5, "review_count": 26, "name": "Chicago Korean Festival", "url": "https://www.yelp.com/biz/chicago-korean-festival-chicago?adjust_creative=_xGZBQTFH5RSnMk3I7VtQQ&utm_campaign=yelp_api_v3&utm_medium=api_v3_business_search&utm_source=_xGZBQTFH5RSnMk3I7VtQQ", "price": "$", "coordinates": {"latitude": 41.9829829037189, "longitude": -87.7199379354715}, "phone": "+17735831700", "image_url": "https://s3-media2.fl.yelpcdn.com/bphoto/ssUTpDG65W7xYUNzyI7OlQ/o.jpg", "location": {"city": "Chicago", "address1": "3650 W Bryn Mawr Ave", "address2": "", "address3": "", "state": "IL", "country": "US", "zip_code": "60659"}, "id": "chicago-korean-festival-chicago", "categories": [{"alias": "festivals", "title": "Festivals"}]}]}
{"total": 85, "businesses": [{"rating": 3.5, "review_count": 6, "name": "Subway", "url": "https://www.yelp.com/biz/subway-chicago-34?adjust_creative=_xGZBQTFH5RSnMk3I7VtQQ&utm_campaign=yelp_api_v3&utm_medium=api_v3_business_search&utm_source=_xGZBQTFH5RSnMk3I7VtQQ", "price": "$", "coordinates": {"latitude": 41.9765396, "longitude": -87.7283859}, "phone": "+17734783665", "image_url": "https://s3-media2.fl.yelpcdn.com/bphoto/CDOQDuU-5RVaiXdgd7m8cg/o.jpg", "location": {"city": "Chicago", "country": "US", "address2": "", "address3": "", "state": "IL", "address1": "5240 N Pulaski Rd", "zip_code": "60630"}, "id": "subway-chicago-34", "categories": [{"alias": "sandwiches", "title": "Sandwiches"}, {"alias": "hotdogs", "title": "Fast Food"}]}]}
{"total": 85, "businesses": [{"rating": 2.5, "review_count": 32, "name": "Pizza Hut", "url": "https://www.yelp.com/biz/pizza-hut-chicago-8?adjust_creative=_xGZBQTFH5RSnMk3I7VtQQ&utm_campaign=yelp_api_v3&utm_medium=api_v3_business_search&utm_source=_xGZBQTFH5RSnMk3I7VtQQ", "price": "$$", "coordinates": {"latitude": 41.9765396, "longitude": -87.7283859}, "phone": "+17735888844", "image_url": "https://s3-media2.fl.yelpcdn.com/bphoto/hCbKGo8RNJyDwCrZaye36g/o.jpg", "location": {"city": "Chicago", "country": "US", "address2": "", "address3": "", "state": "IL", "address1": "5240 N Pulaski Rd", "zip_code": "60630"}, "id": "pizza-hut-chicago-8", "categories": [{"alias": "pizza", "title": "Pizza"}, {"alias": "italian", "title": "Italian"}, {"alias": "chicken_wings", "title": "Chicken Wings"}]}]}
{"total": 85, "businesses": [{"rating": 5.0, "review_count": 4, "name": "Career Training Center of Chicago", "url": "https://www.yelp.com/biz/career-training-center-of-chicago-chicago-2?adjust_creative=_xGZBQTFH5RSnMk3I7VtQQ&utm_campaign=yelp_api_v3&utm_medium=api_v3_business_search&utm_source=_xGZBQTFH5RSnMk3I7VtQQ", "coordinates": {"latitude": 41.9899749755859, "longitude": -87.7170257568359}, "phone": "+17735838532", "image_url": "https://s3-media3.fl.yelpcdn.com/bphoto/HXtqrDLTa7njX_qmf4ItUg/o.jpg", "location": {"city": "Chicago", "country": "US", "address2": "Ste T24", "address3": "", "state": "IL", "address1": "3525 W Peterson Ave", "zip_code": "60659"}, "id": "career-training-center-of-chicago-chicago-2", "categories": [{"alias": "specialed", "title": "Special Education"}]}]}
{"total": 85, "businesses": [{"rating": 4.5, "review_count": 7, "name": "Brian S Morse, MD, PhD", "url": "https://www.yelp.com/biz/brian-s-morse-md-phd-chicago?adjust_creative=_xGZBQTFH5RSnMk3I7VtQQ&utm_campaign=yelp_api_v3&utm_medium=api_v3_business_search&utm_source=_xGZBQTFH5RSnMk3I7VtQQ", "coordinates": {"latitude": 41.9765396, "longitude": -87.7283859}, "phone": "+17734637337", "image_url": "", "location": {"city": "Chicago", "country": "US", "address2": "5240 N Pulaski Rd", "address3": "", "state": "IL", "address1": "North Park Pediatrics", "zip_code": "60630"}, "id": "brian-s-morse-md-phd-chicago", "categories": [{"alias": "pediatricians", "title": "Pediatricians"}]}]}
{"total": 85, "businesses": [{"rating": 4.5, "review_count": 8, "name": "Promise Data Recovery", "url": "https://www.yelp.com/biz/promise-data-recovery-chicago?adjust_creative=_xGZBQTFH5RSnMk3I7VtQQ&utm_campaign=yelp_api_v3&utm_medium=api_v3_business_search&utm_source=_xGZBQTFH5RSnMk3I7VtQQ", "coordinates": {"latitude": 41.9899749755859, "longitude": -87.7170257568359}, "phone": "+17735399387", "image_url": "https://s3-media4.fl.yelpcdn.com/bphoto/xWFVX7daQpv8njzcVGV6CA/o.jpg", "location": {"city": "Chicago", "address1": "3525 W Peterson Ave", "address2": "Ste 309", "address3": "", "state": "IL", "country": "US", "zip_code": "60659"}, "id": "promise-data-recovery-chicago", "categories": [{"alias": "itservices", "title": "IT Services & Computer Repair"}]}]}
{"total": 85, "businesses": [{"rating": 4.5, "review_count": 7, "name": "Kramer Kuhn Dental", "url": "https://www.yelp.com/biz/kramer-kuhn-dental-chicago?adjust_creative=_xGZBQTFH5RSnMk3I7VtQQ&utm_campaign=yelp_api_v3&utm_medium=api_v3_business_search&utm_source=_xGZBQTFH5RSnMk3I7VtQQ", "coordinates": {"latitude": 41.9899749755859, "longitude": -87.7170257568359}, "phone": "+17737177960", "image_url": "https://s3-media3.fl.yelpcdn.com/bphoto/Em7Ny7R1gYgA0dlke_wqAQ/o.jpg", "location": {"city": "Chicago", "country": "US", "address2": "", "address3": "", "state": "IL", "address1": "3525 W Peterson Ave", "zip_code": "60659"}, "id": "kramer-kuhn-dental-chicago", "categories": [{"alias": "orthodontists", "title": "Orthodontists"}, {"alias": "periodontists", "title": "Periodontists"}]}]}
{"total": 85, "businesses": [{"rating": 4.5, "review_count": 4, "name": "WZRD - 88.3 FM", "url": "https://www.yelp.com/biz/wzrd-88-3-fm-chicago?adjust_creative=_xGZBQTFH5RSnMk3I7VtQQ&utm_campaign=yelp_api_v3&utm_medium=api_v3_business_search&utm_source=_xGZBQTFH5RSnMk3I7VtQQ", "coordinates": {"latitude": 41.981452, "longitude": -87.718605}, "phone": "+17734424578", "image_url": "https://s3-media2.fl.yelpcdn.com/bphoto/aWGFtPVNzfQWnJ9kbA-ssg/o.jpg", "location": {"city": "Chicago", "address1": "5500 N St Louis Ave", "address2": "", "address3": "", "state": "IL", "country": "US", "zip_code": "60625"}, "id": "wzrd-88-3-fm-chicago", "categories": [{"alias": "radiostations", "title": "Radio Stations"}]}]}
{"total": 85, "businesses": [{"rating": 3.5, "review_count": 22, "name": "Supercuts", "url": "https://www.yelp.com/biz/supercuts-chicago-10?adjust_creative=_xGZBQTFH5RSnMk3I7VtQQ&utm_campaign=yelp_api_v3&utm_medium=api_v3_business_search&utm_source=_xGZBQTFH5RSnMk3I7VtQQ", "price": "$", "coordinates": {"latitude": 41.976816, "longitude": -87.729434}, "phone": "+17735886706", "image_url": "https://s3-media1.fl.yelpcdn.com/bphoto/KOQblxxBIwyv4VkQtS8shw/o.jpg", "location": {"city": "Chicago", "country": "US", "address2": "Mayfair Commons", "address3": "", "state": "IL", "address1": "5240 N Pulaski Rd", "zip_code": "60630"}, "id": "supercuts-chicago-10", "categories": [{"alias": "hair", "title": "Hair Salons"}]}]}
{"total": 85, "businesses": [{"rating": 2.0, "review_count": 15, "name": "Cafe Descartes", "url": "https://www.yelp.com/biz/cafe-descartes-chicago-6?adjust_creative=_xGZBQTFH5RSnMk3I7VtQQ&utm_campaign=yelp_api_v3&utm_medium=api_v3_business_search&utm_source=_xGZBQTFH5RSnMk3I7VtQQ", "price": "$$", "coordinates": {"latitude": 41.981452, "longitude": -87.718605}, "phone": "+17734425353", "image_url": "https://s3-media3.fl.yelpcdn.com/bphoto/rZnbXYnQE6dI3iWktK27pA/o.jpg", "location": {"city": "Chicago", "address1": "5500 N St. Louis Ave", "address2": "", "address3": "", "state": "IL", "country": "US", "zip_code": "60625"}, "id": "cafe-descartes-chicago-6", "categories": [{"alias": "coffee", "title": "Coffee & Tea"}]}]}
{"total": 85, "businesses": [{"rating": 4.5, "review_count": 4, "name": "Trails of Terror", "url": "https://www.yelp.com/biz/trails-of-terror-chicago?adjust_creative=_xGZBQTFH5RSnMk3I7VtQQ&utm_campaign=yelp_api_v3&utm_medium=api_v3_business_search&utm_source=_xGZBQTFH5RSnMk3I7VtQQ", "coordinates": {"latitude": 41.9857333, "longitude": -87.7283551}, "phone": "+13127427529", "image_url": "https://s3-media2.fl.yelpcdn.com/bphoto/yZCJAfZ9EShRAsmD5GORmw/o.jpg", "location": {"city": "Chicago", "country": "US", "address2": "", "address3": "", "state": "IL", "address1": "5801 N Pulaski Rd", "zip_code": "60646"}, "id": "trails-of-terror-chicago", "categories": [{"alias": "tours", "title": "Tours"}]}]}
{"total": 85, "businesses": [{"rating": 4.5, "review_count": 11, "name": "Wonder Montessori School of Chicago", "url": "https://www.yelp.com/biz/wonder-montessori-school-of-chicago-chicago?adjust_creative=_xGZBQTFH5RSnMk3I7VtQQ&utm_campaign=yelp_api_v3&utm_medium=api_v3_business_search&utm_source=_xGZBQTFH5RSnMk3I7VtQQ", "coordinates": {"latitude": 41.98417, "longitude": -87.7288}, "phone": "+17735091296", "image_url": "", "location": {"city": "Chicago", "country": "US", "address2": "", "address3": "", "state": "IL", "address1": "5644 N Pulaski Rd", "zip_code": "60646"}, "id": "wonder-montessori-school-of-chicago-chicago", "categories": [{"alias": "montessori", "title": "Montessori Schools"}]}]}
{"total": 85, "businesses": [{"rating": 5.0, "review_count": 4, "name": "University Police Department", "url": "https://www.yelp.com/biz/university-police-department-chicago?adjust_creative=_xGZBQTFH5RSnMk3I7VtQQ&utm_campaign=yelp_api_v3&utm_medium=api_v3_business_search&utm_source=_xGZBQTFH5RSnMk3I7VtQQ", "coordinates": {"latitude": 41.981123, "longitude": -87.718019}, "phone": "+17734424100", "image_url": "https://s3-media2.fl.yelpcdn.com/bphoto/AS09p5WhSQ_7sjB-6awX2g/o.jpg", "location": {"city": "Chicago", "address1": "Northeastern Illinois University", "address2": "3701 W Bryn Mawr Ave", "address3": "", "state": "IL", "country": "US", "zip_code": "60659"}, "id": "university-police-department-chicago", "categories": [{"alias": "notaries", "title": "Notaries"}, {"alias": "policedepartments", "title": "Police Departments"}]}]}
{"total": 85, "businesses": [{"rating": 3.5, "review_count": 5, "name": "Hi-Mart", "url": "https://www.yelp.com/biz/hi-mart-chicago-2?adjust_creative=_xGZBQTFH5RSnMk3I7VtQQ&utm_campaign=yelp_api_v3&utm_medium=api_v3_business_search&utm_source=_xGZBQTFH5RSnMk3I7VtQQ", "price": "$$", "coordinates": {"latitude": 41.9857329, "longitude": -87.7286249}, "phone": "+17734782550", "image_url": "https://s3-media4.fl.yelpcdn.com/bphoto/SdzrPEMXb4R4KYMmovsJ6Q/o.jpg", "location": {"city": "Chicago", "country": "US", "address2": "", "address3": "", "state": "IL", "address1": "5800 N Pulaski Rd", "zip_code": "60646"}, "id": "hi-mart-chicago-2", "categories": [{"alias": "grocery", "title": "Grocery"}]}]}
{"total": 85, "businesses": [{"rating": 5.0, "review_count": 2, "name": "Rentea Andrea MD", "url": "https://www.yelp.com/biz/rentea-andrea-md-chicago?adjust_creative=_xGZBQTFH5RSnMk3I7VtQQ&utm_campaign=yelp_api_v3&utm_medium=api_v3_business_search&utm_source=_xGZBQTFH5RSnMk3I7VtQQ", "coordinates": {"latitude": 41.9899749755859, "longitude": -87.7170257568359}, "phone": "+17735837793", "image_url": "", "location": {"city": "Chicago", "country": "US", "address2": "Suite 611", "address3": "", "state": "IL", "address1": "3525 W Peterson Avenue", "zip_code": "60659"}, "id": "rentea-andrea-md-chicago", "categories": [{"alias": "naturopathic", "title": "Naturopathic/Holistic"}]}]}
{"total": 85, "businesses": [{"rating": 4.5, "review_count": 3, "name": "NEIU Ronald Williams library", "url": "https://www.yelp.com/biz/neiu-ronald-williams-library-chicago?adjust_creative=_xGZBQTFH5RSnMk3I7VtQQ&utm_campaign=yelp_api_v3&utm_medium=api_v3_business_search&utm_source=_xGZBQTFH5RSnMk3I7VtQQ", "coordinates": {"latitude": 41.9798709119214, "longitude": -87.7188150678354}, "phone": "+17734424401", "image_url": "https://s3-media1.fl.yelpcdn.com/bphoto/THh1yq2EZfOrchFNoucRQA/o.jpg", "location": {"city": "Chicago", "address1": "5500 N St Louis Ave", "address2": "", "address3": "", "state": "IL", "country": "US", "zip_code": "60625"}, "id": "neiu-ronald-williams-library-chicago", "categories": [{"alias": "libraries", "title": "Libraries"}]}]}
{"total": 85, "businesses": [{"rating": 4.0, "review_count": 7, "name": "Howard L. Blivaiss, DDS & Associates, PC", "url": "https://www.yelp.com/biz/howard-l-blivaiss-dds-and-associates-pc-chicago?adjust_creative=_xGZBQTFH5RSnMk3I7VtQQ&utm_campaign=yelp_api_v3&utm_medium=api_v3_business_search&utm_source=_xGZBQTFH5RSnMk3I7VtQQ", "coordinates": {"latitude": 41.990561, "longitude": -87.7166}, "phone": "+17735091234", "image_url": "https://s3-media1.fl.yelpcdn.com/bphoto/g8KjUjp_QAoBlpZQtHxJ2A/o.jpg", "location": {"city": "Chicago", "country": "US", "address2": "Ste 200", "address3": "", "state": "IL", "address1": "3500 W Peterson Ave", "zip_code": "60659"}, "id": "howard-l-blivaiss-dds-and-associates-pc-chicago", "categories": [{"alias": "generaldentistry", "title": "General Dentistry"}, {"alias": "cosmeticdentists", "title": "Cosmetic Dentists"}]}]}
{"total": 85, "businesses": [{"rating": 4.5, "review_count": 6, "name": "Erin Griffin - Corby Mortgage", "url": "https://www.yelp.com/biz/erin-griffin-corby-mortgage-chicago?adjust_creative=_xGZBQTFH5RSnMk3I7VtQQ&utm_campaign=yelp_api_v3&utm_medium=api_v3_business_search&utm_source=_xGZBQTFH5RSnMk3I7VtQQ", "coordinates": {"latitude": 41.9902550429106, "longitude": -87.7173154056072}, "phone": "+17733534205", "image_url": "https://s3-media2.fl.yelpcdn.com/bphoto/Jl6SarWALwKU55Br3E0w1g/o.jpg", "location": {"city": "Chicago", "country": "US", "address2": "Ste 215", "address3": "", "state": "IL", "address1": "3525 W Peterson Ave", "zip_code": "60659"}, "id": "erin-griffin-corby-mortgage-chicago", "categories": [{"alias": "mortgagebrokers", "title": "Mortgage Brokers"}]}]}
{"total": 85, "businesses": [{"rating": 4.5, "review_count": 4, "name": "Peterson Beauty Salon - Hair & Spa", "url": "https://www.yelp.com/biz/peterson-beauty-salon-hair-and-spa-chicago?adjust_creative=_xGZBQTFH5RSnMk3I7VtQQ&utm_campaign=yelp_api_v3&utm_medium=api_v3_business_search&utm_source=_xGZBQTFH5RSnMk3I7VtQQ", "price": "$", "coordinates": {"latitude": 41.9901651, "longitude": -87.716031}, "phone": "+17732670555", "image_url": "https://s3-media1.fl.yelpcdn.com/bphoto/scUZcnIHuMeNa4qeSSlipg/o.jpg", "location": {"city": "Chicago", "country": "US", "address2": "", "address3": "", "state": "IL", "address1": "3447 W Peterson Ave", "zip_code": "60659"}, "id": "peterson-beauty-salon-hair-and-spa-chicago", "categories": [{"alias": "hair", "title": "Hair Salons"}, {"alias": "othersalons", "title": "Nail Salons"}]}]}
{"total": 85, "businesses": [{"rating": 4.5, "review_count": 2, "name": "Windy City Darters", "url": "https://www.yelp.com/biz/windy-city-darters-chicago?adjust_creative=_xGZBQTFH5RSnMk3I7VtQQ&utm_campaign=yelp_api_v3&utm_medium=api_v3_business_search&utm_source=_xGZBQTFH5RSnMk3I7VtQQ", "coordinates": {"latitude": 41.99054, "longitude": -87.71787}, "phone": "+17735834365", "image_url": "", "location": {"city": "Chicago", "country": "US", "address2": "Suite 209", "address3": "", "state": "IL", "address1": "3530 W Peterson Ave", "zip_code": "60659"}, "id": "windy-city-darters-chicago", "categories": [{"alias": "sports_clubs", "title": "Sports Clubs"}]}]}
{"total": 85, "businesses": [{"rating": 3.0, "review_count": 9, "name": "Lynn Spa Nails", "url": "https://www.yelp.com/biz/lynn-spa-nails-chicago?adjust_creative=_xGZBQTFH5RSnMk3I7VtQQ&utm_campaign=yelp_api_v3&utm_medium=api_v3_business_search&utm_source=_xGZBQTFH5RSnMk3I7VtQQ", "price": "$", "coordinates": {"latitude": 41.9765396, "longitude": -87.7283859}, "phone": "+17735886123", "image_url": "https://s3-media4.fl.yelpcdn.com/bphoto/tEFWG_i1Vz4UJ4MY2uznIA/o.jpg", "location": {"city": "Chicago", "country": "US", "address2": "", "address3": "", "state": "IL", "address1": "5240 N Pulaski Rd", "zip_code": "60630"}, "id": "lynn-spa-nails-chicago", "categories": [{"alias": "othersalons", "title": "Nail Salons"}]}]}
{"total": 85, "businesses": [{"rating": 2.5, "review_count": 27, "name": "FedEx Office Print & Ship Center", "url": "https://www.yelp.com/biz/fedex-office-print-and-ship-center-chicago-10?adjust_creative=_xGZBQTFH5RSnMk3I7VtQQ&utm_campaign=yelp_api_v3&utm_medium=api_v3_business_search&utm_source=_xGZBQTFH5RSnMk3I7VtQQ", "coordinates": {"latitude": 41.97691, "longitude": -87.729081}, "phone": "+17734780919", "image_url": "https://s3-media3.fl.yelpcdn.com/bphoto/1RVMU-nTsLLpQ7jLZxPezw/o.jpg", "location": {"city": "Chicago", "country": "US", "address2": "Ste H", "address3": "", "state": "IL", "address1": "5240 N Pulaski Rd", "zip_code": "60630"}, "id": "fedex-office-print-and-ship-center-chicago-10", "categories": [{"alias": "copyshops", "title": "Printing Services"}, {"alias": "shipping_centers", "title": "Shipping Centers"}, {"alias": "signmaking", "title": "Signmaking"}]}]}
{"total": 85, "businesses": [{"rating": 3.0, "review_count": 6, "name": "Raymond Floors", "url": "https://www.yelp.com/biz/raymond-floors-chicago?adjust_creative=_xGZBQTFH5RSnMk3I7VtQQ&utm_campaign=yelp_api_v3&utm_medium=api_v3_business_search&utm_source=_xGZBQTFH5RSnMk3I7VtQQ", "coordinates": {"latitude": 41.9924621582031, "longitude": -87.7284927368164}, "phone": "+17738662200", "image_url": "https://s3-media3.fl.yelpcdn.com/bphoto/AOWfXzYDSRqt9BC6SSeE6g/o.jpg", "location": {"city": "Chicago", "country": "US", "address2": "", "address3": "", "state": "IL", "address1": "6115 N Pulaski Rd", "zip_code": "60646"}, "id": "raymond-floors-chicago", "categories": [{"alias": "flooring", "title": "Flooring"}]}]}
{"total": 85, "businesses": [{"rating": 5.0, "review_count": 2, "name": "L&A Computer Services", "url": "https://www.yelp.com/biz/l-and-a-computer-services-chicago?adjust_creative=_xGZBQTFH5RSnMk3I7VtQQ&utm_campaign=yelp_api_v3&utm_medium=api_v3_business_search&utm_source=_xGZBQTFH5RSnMk3I7VtQQ", "coordinates": {"latitude": 41.989963, "longitude": -87.7185059}, "phone": "+17732738536", "image_url": "https://s3-media2.fl.yelpcdn.com/bphoto/nW_-hqZD4gl8uhnIaN7c5A/o.jpg", "location": {"city": "Chicago", "address1": "3555 W Peterson Ave", "address2": "Ste 214", "address3": "", "state": "IL", "country": "US", "zip_code": "60659"}, "id": "l-and-a-computer-services-chicago", "categories": [{"alias": "itservices", "title": "IT Services & Computer Repair"}]}]}
{"total": 85, "businesses": [{"rating": 4.5, "review_count": 4, "name": "Habitat for Humanity ReStore Chicago", "url": "https://www.yelp.com/biz/habitat-for-humanity-restore-chicago-chicago?adjust_creative=_xGZBQTFH5RSnMk3I7VtQQ&utm_campaign=yelp_api_v3&utm_medium=api_v3_business_search&utm_source=_xGZBQTFH5RSnMk3I7VtQQ", "coordinates": {"latitude": 41.99125, "longitude": -87.72918}, "phone": "+17735396040", "image_url": "https://s3-media1.fl.yelpcdn.com/bphoto/Hk7Q4gSnLwZB-ejAxsbyCA/o.jpg", "location": {"city": "Chicago", "country": "US", "address2": null, "address3": "", "state": "IL", "address1": "6040 N Pulaski", "zip_code": "60646"}, "id": "habitat-for-humanity-restore-chicago-chicago", "categories": [{"alias": "nonprofit", "title": "Community Service/Non-Profit"}]}]}
{"total": 85, "businesses": [{"rating": 5.0, "review_count": 1, "name": "Chicago Brass Festival", "url": "https://www.yelp.com/biz/chicago-brass-festival-chicago?adjust_creative=_xGZBQTFH5RSnMk3I7VtQQ&utm_campaign=yelp_api_v3&utm_medium=api_v3_business_search&utm_source=_xGZBQTFH5RSnMk3I7VtQQ", "price": "$", "coordinates": {"latitude": 41.9827843, "longitude": -87.7211075}, "image_url": "https://s3-media2.fl.yelpcdn.com/bphoto/X2tCT5xxjmvo5ys0yhGumA/o.jpg", "location": {"city": "Chicago", "country": "US", "address2": "", "address3": "", "state": "IL", "address1": "3701 W. Bryn Mawr Ave.", "zip_code": "60625"}, "id": "chicago-brass-festival-chicago", "categories": [{"alias": "festivals", "title": "Festivals"}, {"alias": "theater", "title": "Performing Arts"}, {"alias": "musicvenues", "title": "Music Venues"}]}]}
{"total": 85, "businesses": [{"rating": 5.0, "review_count": 1, "name": "Chicago Food", "url": "https://www.yelp.com/biz/chicago-food-chicago-2?adjust_creative=_xGZBQTFH5RSnMk3I7VtQQ&utm_campaign=yelp_api_v3&utm_medium=api_v3_business_search&utm_source=_xGZBQTFH5RSnMk3I7VtQQ", "coordinates": {"latitude": 41.985733, "longitude": -87.7286224}, "phone": "+17734780007", "image_url": "", "location": {"city": "Chicago", "country": "US", "address2": "", "address3": "", "state": "IL", "address1": "5800 N Pulaski Rd", "zip_code": "60646"}, "id": "chicago-food-chicago-2", "categories": [{"alias": "grocery", "title": "Grocery"}]}]}
{"total": 85, "businesses": [{"rating": 3.5, "review_count": 3, "name": "Rayco Paint Company", "url": "https://www.yelp.com/biz/rayco-paint-company-chicago?adjust_creative=_xGZBQTFH5RSnMk3I7VtQQ&utm_campaign=yelp_api_v3&utm_medium=api_v3_business_search&utm_source=_xGZBQTFH5RSnMk3I7VtQQ", "coordinates": {"latitude": 41.99218, "longitude": -87.72918}, "phone": "+17732675200", "image_url": "https://s3-media2.fl.yelpcdn.com/bphoto/QXgIrUd3JqDByBzUKKcacg/o.jpg", "location": {"city": "Chicago", "address1": "6100 N Pulaski Rd", "address2": "", "address3": "", "state": "IL", "country": "US", "zip_code": "60646"}, "id": "rayco-paint-company-chicago", "categories": [{"alias": "artsupplies", "title": "Art Supplies"}]}]}
{"total": 85, "businesses": [{"rating": 5.0, "review_count": 1, "name": "Dong Gary DDS", "url": "https://www.yelp.com/biz/dong-gary-dds-chicago?adjust_creative=_xGZBQTFH5RSnMk3I7VtQQ&utm_campaign=yelp_api_v3&utm_medium=api_v3_business_search&utm_source=_xGZBQTFH5RSnMk3I7VtQQ", "coordinates": {"latitude": 41.99053, "longitude": -87.71845}, "phone": "+17732790304", "image_url": "", "location": {"city": "Chicago", "country": "US", "address2": "", "address3": "", "state": "IL", "address1": "3550 W Peterson Avenue", "zip_code": "60659"}, "id": "dong-gary-dds-chicago", "categories": [{"alias": "generaldentistry", "title": "General Dentistry"}]}]}
{"total": 85, "businesses": [{"rating": 3.0, "review_count": 6, "name": "Restaurant Depot", "url": "https://www.yelp.com/biz/restaurant-depot-chicago-2?adjust_creative=_xGZBQTFH5RSnMk3I7VtQQ&utm_campaign=yelp_api_v3&utm_medium=api_v3_business_search&utm_source=_xGZBQTFH5RSnMk3I7VtQQ", "coordinates": {"latitude": 41.9866982, "longitude": -87.7287064}, "phone": "+17735395059", "image_url": "https://s3-media1.fl.yelpcdn.com/bphoto/BQHozJ6WuQdm6BewaSQFUg/o.jpg", "location": {"city": "Chicago", "country": "US", "address2": "", "address3": "", "state": "IL", "address1": "5836 N Pulaski Rd", "zip_code": "60646"}, "id": "restaurant-depot-chicago-2", "categories": [{"alias": "wholesale_stores", "title": "Wholesale Stores"}]}]}
{"total": 85, "businesses": [{"rating": 5.0, "review_count": 1, "name": "In The Cat's House", "url": "https://www.yelp.com/biz/in-the-cats-house-chicago?adjust_creative=_xGZBQTFH5RSnMk3I7VtQQ&utm_campaign=yelp_api_v3&utm_medium=api_v3_business_search&utm_source=_xGZBQTFH5RSnMk3I7VtQQ", "coordinates": {"latitude": 41.98443, "longitude": -87.72932}, "phone": "+18473231736", "image_url": "https://s3-media1.fl.yelpcdn.com/bphoto/4xuvmQryWk5A5LCr9YTgIA/o.jpg", "location": {"city": "Chicago", "country": "US", "address2": null, "address3": "", "state": "IL", "address1": "5701 N Keystone", "zip_code": "60646"}, "id": "in-the-cats-house-chicago", "categories": [{"alias": "pet_sitting", "title": "Pet Boarding/Pet Sitting"}]}]}
{"total": 85, "businesses": [{"rating": 5.0, "review_count": 1, "name": "GMAT Preparation Course", "url": "https://www.yelp.com/biz/gmat-preparation-course-chicago?adjust_creative=_xGZBQTFH5RSnMk3I7VtQQ&utm_campaign=yelp_api_v3&utm_medium=api_v3_business_search&utm_source=_xGZBQTFH5RSnMk3I7VtQQ", "coordinates": {"latitude": 41.9802119, "longitude": -87.7187973}, "phone": "+17734426102", "image_url": "", "location": {"city": "Chicago", "address1": "Northeastern Illinois University", "address2": "5500 N St Louis Ave", "address3": "", "state": "IL", "country": "US", "zip_code": "60625"}, "id": "gmat-preparation-course-chicago", "categories": [{"alias": "testprep", "title": "Test Preparation"}]}]}
{"total": 85, "businesses": [{"rating": 5.0, "review_count": 1, "name": "Paulina Medical Clinic", "url": "https://www.yelp.com/biz/paulina-medical-clinic-chicago?adjust_creative=_xGZBQTFH5RSnMk3I7VtQQ&utm_campaign=yelp_api_v3&utm_medium=api_v3_business_search&utm_source=_xGZBQTFH5RSnMk3I7VtQQ", "coordinates": {"latitude": 41.9899749755859, "longitude": -87.7170257568359}, "phone": "+17735837793", "image_url": "", "location": {"city": "Chicago", "address1": "3525 W Peterson Ave", "address2": "Ste 611", "address3": "", "state": "IL", "country": "US", "zip_code": "60659"}, "id": "paulina-medical-clinic-chicago", "categories": [{"alias": "naturopathic", "title": "Naturopathic/Holistic"}]}]}
{"total": 85, "businesses": [{"rating": 5.0, "review_count": 2, "name": "Anoroc Personal Defense Group", "url": "https://www.yelp.com/biz/anoroc-personal-defense-group-chicago?adjust_creative=_xGZBQTFH5RSnMk3I7VtQQ&utm_campaign=yelp_api_v3&utm_medium=api_v3_business_search&utm_source=_xGZBQTFH5RSnMk3I7VtQQ", "coordinates": {"latitude": 41.9945086690734, "longitude": -87.7291593000976}, "phone": "+17736694867", "image_url": "https://s3-media2.fl.yelpcdn.com/bphoto/KpRhjOGuapIFgrKvFD9ZhQ/o.jpg", "location": {"city": "Chicago", "country": "US", "address2": null, "address3": null, "state": "IL", "address1": "6232 N Pulaski Rd", "zip_code": "60646"}, "id": "anoroc-personal-defense-group-chicago", "categories": [{"alias": "specialtyschools", "title": "Specialty Schools"}]}]}
{"total": 85, "businesses": [{"rating": 2.5, "review_count": 3, "name": "Consumer Law Group", "url": "https://www.yelp.com/biz/consumer-law-group-chicago-4?adjust_creative=_xGZBQTFH5RSnMk3I7VtQQ&utm_campaign=yelp_api_v3&utm_medium=api_v3_business_search&utm_source=_xGZBQTFH5RSnMk3I7VtQQ", "coordinates": {"latitude": 41.9949796, "longitude": -87.7290792}, "phone": "+13128785467", "image_url": "https://s3-media4.fl.yelpcdn.com/bphoto/UOYQ6L2e9IyuE2seaDoG0g/o.jpg", "location": {"city": "Chicago", "country": "US", "address2": "Ste 200", "address3": "", "state": "IL", "address1": "6232 N Pulaski Rd", "zip_code": "60646"}, "id": "consumer-law-group-chicago-4", "categories": [{"alias": "bankruptcy", "title": "Bankruptcy Law"}, {"alias": "employmentlawyers", "title": "Employment Law"}, {"alias": "immigrationlawyers", "title": "Immigration Law"}]}]}
{"total": 85, "businesses": [{"rating": 4.0, "review_count": 2, "name": "Saint Luke Cemetery", "url": "https://www.yelp.com/biz/saint-luke-cemetery-chicago?adjust_creative=_xGZBQTFH5RSnMk3I7VtQQ&utm_campaign=yelp_api_v3&utm_medium=api_v3_business_search&utm_source=_xGZBQTFH5RSnMk3I7VtQQ", "coordinates": {"latitude": 41.977417, "longitude": -87.7284546}, "phone": "+17735880049", "image_url": "https://s3-media2.fl.yelpcdn.com/bphoto/65K6b_cl3nSNXNGqsQdDIQ/o.jpg", "location": {"city": "Chicago", "address1": "5300 N. Pulaski Rd", "address2": "", "address3": "", "state": "IL", "country": "US", "zip_code": "60630"}, "id": "saint-luke-cemetery-chicago", "categories": [{"alias": "funeralservices", "title": "Funeral Services & Cemeteries"}]}]}
{"total": 85, "businesses": [{"rating": 5.0, "review_count": 1, "name": "New Order Decorating", "url": "https://www.yelp.com/biz/new-order-decorating-chicago?adjust_creative=_xGZBQTFH5RSnMk3I7VtQQ&utm_campaign=yelp_api_v3&utm_medium=api_v3_business_search&utm_source=_xGZBQTFH5RSnMk3I7VtQQ", "coordinates": {"latitude": 41.994566, "longitude": -87.729731}, "phone": "+18479223571", "image_url": "", "location": {"city": "Chicago", "country": "US", "address2": "", "address3": "", "state": "IL", "address1": "6229 N Keystone", "zip_code": "60646"}, "id": "new-order-decorating-chicago", "categories": [{"alias": "painters", "title": "Painters"}]}]}
{"total": 86, "businesses": [{"rating": 5.0, "review_count": 1, "name": "New Order Decorating", "url": "https://www.yelp.com/biz/new-order-decorating-chicago?adjust_creative=_xGZBQTFH5RSnMk3I7VtQQ&utm_campaign=yelp_api_v3&utm_medium=api_v3_business_search&utm_source=_xGZBQTFH5RSnMk3I7VtQQ", "coordinates": {"latitude": 41.994566, "longitude": -87.729731}, "phone": "+18479223571", "image_url": "", "location": {"city": "Chicago", "country": "US", "address2": "", "address3": "", "state": "IL", "address1": "6229 N Keystone", "zip_code": "60646"}, "id": "new-order-decorating-chicago", "categories": [{"alias": "painters", "title": "Painters"}]}]}
{"total": 85, "businesses": [{"rating": 1.0, "review_count": 1, "name": "Gold Coast Dogs", "url": "https://www.yelp.com/biz/gold-coast-dogs-chicago-8?adjust_creative=_xGZBQTFH5RSnMk3I7VtQQ&utm_campaign=yelp_api_v3&utm_medium=api_v3_business_search&utm_source=_xGZBQTFH5RSnMk3I7VtQQ", "coordinates": {"latitude": 41.9899749755859, "longitude": -87.7170257568359}, "phone": "+17732678180", "image_url": "", "location": {"city": "Chicago", "country": "US", "address2": "", "address3": "", "state": "IL", "address1": "3525 W Peterson Avenue", "zip_code": "60659"}, "id": "gold-coast-dogs-chicago-8", "categories": [{"alias": "burgers", "title": "Burgers"}, {"alias": "hotdog", "title": "Hot Dogs"}]}]}
{"total": 85, "businesses": [{"rating": 4.0, "review_count": 1, "name": "American Family Insurance - Kristi Johnson", "url": "https://www.yelp.com/biz/american-family-insurance-kristi-johnson-chicago?adjust_creative=_xGZBQTFH5RSnMk3I7VtQQ&utm_campaign=yelp_api_v3&utm_medium=api_v3_business_search&utm_source=_xGZBQTFH5RSnMk3I7VtQQ", "coordinates": {"latitude": 41.9899749755859, "longitude": -87.7170257568359}, "phone": "+17735395488", "image_url": "", "location": {"city": "Chicago", "country": "US", "address2": "Suite 115", "address3": "", "state": "IL", "address1": "3525 W Peterson Avenue", "zip_code": "60659"}, "id": "american-family-insurance-kristi-johnson-chicago", "categories": [{"alias": "insurance", "title": "Insurance"}]}]}
{"total": 85, "businesses": [{"rating": 4.0, "review_count": 2, "name": "Jay & Kay Direct", "url": "https://www.yelp.com/biz/jay-and-kay-direct-chicago?adjust_creative=_xGZBQTFH5RSnMk3I7VtQQ&utm_campaign=yelp_api_v3&utm_medium=api_v3_business_search&utm_source=_xGZBQTFH5RSnMk3I7VtQQ", "price": "$", "coordinates": {"latitude": 41.9925954, "longitude": -87.7289949}, "image_url": "", "location": {"city": "Chicago", "country": "US", "address2": "", "address3": "", "state": "IL", "address1": "6122 N Pulaski Rd", "zip_code": "60646"}, "id": "jay-and-kay-direct-chicago", "categories": [{"alias": "cosmetics", "title": "Cosmetics & Beauty Supply"}]}]}
{"total": 85, "businesses": [{"rating": 3.0, "review_count": 2, "name": "Labelmaster", "url": "https://www.yelp.com/biz/labelmaster-chicago?adjust_creative=_xGZBQTFH5RSnMk3I7VtQQ&utm_campaign=yelp_api_v3&utm_medium=api_v3_business_search&utm_source=_xGZBQTFH5RSnMk3I7VtQQ", "coordinates": {"latitude": 41.98554, "longitude": -87.7293399}, "phone": "+17734787082", "image_url": "https://s3-media3.fl.yelpcdn.com/bphoto/A5fXJOUhHfqoJgfkc9MDew/o.jpg", "location": {"city": "Chicago", "country": "US", "address2": "", "address3": null, "state": "IL", "address1": "5724 N Pulaski Rd Ste 1", "zip_code": "60646"}, "id": "labelmaster-chicago", "categories": [{"alias": "professional", "title": "Professional Services"}]}]}
{"total": 85, "businesses": [{"rating": 2.0, "review_count": 4, "name": "Town House Interiors", "url": "https://www.yelp.com/biz/town-house-interiors-chicago?adjust_creative=_xGZBQTFH5RSnMk3I7VtQQ&utm_campaign=yelp_api_v3&utm_medium=api_v3_business_search&utm_source=_xGZBQTFH5RSnMk3I7VtQQ", "price": "$$$$", "coordinates": {"latitude": 41.9901651, "longitude": -87.7156856}, "phone": "+17732670476", "image_url": "https://s3-media3.fl.yelpcdn.com/bphoto/8yAvNhE6_bll2mlhiRgxWQ/o.jpg", "location": {"city": "Chicago", "address1": "3455 W Peterson Ave", "address2": "", "address3": "", "state": "IL", "country": "US", "zip_code": "60659"}, "id": "town-house-interiors-chicago", "categories": [{"alias": "furniture", "title": "Furniture Stores"}]}]}
{"total": 85, "businesses": [{"rating": 2.0, "review_count": 5, "name": "BP", "url": "https://www.yelp.com/biz/bp-chicago-16?adjust_creative=_xGZBQTFH5RSnMk3I7VtQQ&utm_campaign=yelp_api_v3&utm_medium=api_v3_business_search&utm_source=_xGZBQTFH5RSnMk3I7VtQQ", "coordinates": {"latitude": 41.990417, "longitude": -87.729225}, "image_url": "", "location": {"city": "Chicago", "address1": "4000 West Peterson", "address2": null, "address3": "", "state": "IL", "country": "US", "zip_code": "60659"}, "id": "bp-chicago-16", "categories": [{"alias": "servicestations", "title": "Gas & Service Stations"}]}]}
{"total": 85, "businesses": [{"rating": 3.0, "review_count": 1, "name": "Peterson Park Gymnastics Center", "url": "https://www.yelp.com/biz/peterson-park-gymnastics-center-chicago?adjust_creative=_xGZBQTFH5RSnMk3I7VtQQ&utm_campaign=yelp_api_v3&utm_medium=api_v3_business_search&utm_source=_xGZBQTFH5RSnMk3I7VtQQ", "coordinates": {"latitude": 41.985733, "longitude": -87.7283554}, "phone": "+13127420490", "image_url": "", "location": {"city": "Chicago", "country": "US", "address2": "", "address3": "", "state": "IL", "address1": "5801 N Pulaski Rd", "zip_code": "60646"}, "id": "peterson-park-gymnastics-center-chicago", "categories": [{"alias": "gyms", "title": "Gyms"}]}]}
{"total": 85, "businesses": [{"rating": 2.5, "review_count": 2, "name": "Signature Cleaners", "url": "https://www.yelp.com/biz/signature-cleaners-chicago?adjust_creative=_xGZBQTFH5RSnMk3I7VtQQ&utm_campaign=yelp_api_v3&utm_medium=api_v3_business_search&utm_source=_xGZBQTFH5RSnMk3I7VtQQ", "coordinates": {"latitude": 41.97654, "longitude": -87.7283849}, "phone": "+17734786788", "image_url": "", "location": {"city": "Chicago", "address1": "5240 N Pulaski Rd Ste D", "address2": "", "address3": "", "state": "IL", "country": "US", "zip_code": "60630"}, "id": "signature-cleaners-chicago", "categories": [{"alias": "drycleaninglaundry", "title": "Dry Cleaning & Laundry"}]}]}
{"total": 85, "businesses": [{"rating": 1.5, "review_count": 5, "name": "Citi Appliances", "url": "https://www.yelp.com/biz/citi-appliances-chicago-3?adjust_creative=_xGZBQTFH5RSnMk3I7VtQQ&utm_campaign=yelp_api_v3&utm_medium=api_v3_business_search&utm_source=_xGZBQTFH5RSnMk3I7VtQQ", "coordinates": {"latitude": 41.9905396, "longitude": -87.7178726}, "phone": "+18773652582", "image_url": "https://s3-media1.fl.yelpcdn.com/bphoto/uXX-ToaVO0T3Kpa_0kW2Yw/o.jpg", "location": {"city": "Chicago", "address1": "3530 W Peterson Ave", "address2": "Ste 102", "address3": "", "state": "IL", "country": "US", "zip_code": "60659"}, "id": "citi-appliances-chicago-3", "categories": [{"alias": "homeappliancerepair", "title": "Appliances & Repair"}, {"alias": "hvac", "title": "Heating & Air Conditioning/HVAC"}]}]}
{"total": 85, "businesses": [{"rating": 5.0, "review_count": 1, "name": "CPR NOW", "url": "https://www.yelp.com/biz/cpr-now-chicago?adjust_creative=_xGZBQTFH5RSnMk3I7VtQQ&utm_campaign=yelp_api_v3&utm_medium=api_v3_business_search&utm_source=_xGZBQTFH5RSnMk3I7VtQQ", "coordinates": {"latitude": 41.99053, "longitude": -87.71845}, "phone": "+18722409076", "image_url": "https://s3-media4.fl.yelpcdn.com/bphoto/GJBKL4hk-_MQIn_znHWIRA/o.jpg", "location": {"city": "Chicago", "country": "US", "address2": "Ste 106", "address3": "", "state": "IL", "address1": "3550 W Peterson Ave", "zip_code": "60659"}, "id": "cpr-now-chicago", "categories": [{"alias": "firstaidclasses", "title": "First Aid Classes"}]}]}
{"total": 85, "businesses": [{"rating": 2.0, "review_count": 2, "name": "A Abdulmassih MD", "url": "https://www.yelp.com/biz/a-abdulmassih-md-chicago?adjust_creative=_xGZBQTFH5RSnMk3I7VtQQ&utm_campaign=yelp_api_v3&utm_medium=api_v3_business_search&utm_source=_xGZBQTFH5RSnMk3I7VtQQ", "coordinates": {"latitude": 41.9765396, "longitude": -87.7283859}, "phone": "+17735399600", "image_url": "", "location": {"city": "Chicago", "address1": "5240 N Pulaski Rd", "address2": "", "address3": "", "state": "IL", "country": "US", "zip_code": "60630"}, "id": "a-abdulmassih-md-chicago", "categories": [{"alias": "dermatology", "title": "Dermatologists"}]}]}
{"total": 85, "businesses": [{"rating": 2.5, "review_count": 2, "name": "Erickson Decorating Products, Inc.", "url": "https://www.yelp.com/biz/erickson-decorating-products-inc-chicago-2?adjust_creative=_xGZBQTFH5RSnMk3I7VtQQ&utm_campaign=yelp_api_v3&utm_medium=api_v3_business_search&utm_source=_xGZBQTFH5RSnMk3I7VtQQ", "coordinates": {"latitude": 41.99125, "longitude": -87.72918}, "phone": "+17735397555", "image_url": "https://s3-media2.fl.yelpcdn.com/bphoto/878xPCXe6SiBUEt1sQItzQ/o.jpg", "location": {"city": "Chicago", "country": "US", "address2": "", "address3": "", "state": "IL", "address1": "6040 N Pulaski Road", "zip_code": "60646"}, "id": "erickson-decorating-products-inc-chicago-2", "categories": [{"alias": "buildingsupplies", "title": "Building Supplies"}]}]}
{"total": 85, "businesses": [{"rating": 1.0, "review_count": 3, "name": "Northeastern Illinois University Financial Aid Office", "url": "https://www.yelp.com/biz/northeastern-illinois-university-financial-aid-office-chicago?adjust_creative=_xGZBQTFH5RSnMk3I7VtQQ&utm_campaign=yelp_api_v3&utm_medium=api_v3_business_search&utm_source=_xGZBQTFH5RSnMk3I7VtQQ", "coordinates": {"latitude": 41.981445, "longitude": -87.718597}, "phone": "+17735834050", "image_url": "", "location": {"city": "Chicago", "country": "US", "address2": "", "address3": "", "state": "IL", "address1": "5500 N St. Louis Ave", "zip_code": "60625"}, "id": "northeastern-illinois-university-financial-aid-office-chicago", "categories": [{"alias": "collegeuniv", "title": "Colleges & Universities"}]}]}
{"total": 85, "businesses": [{"rating": 2.0, "review_count": 1, "name": "Forest Playschool", "url": "https://www.yelp.com/biz/forest-playschool-chicago?adjust_creative=_xGZBQTFH5RSnMk3I7VtQQ&utm_campaign=yelp_api_v3&utm_medium=api_v3_business_search&utm_source=_xGZBQTFH5RSnMk3I7VtQQ", "coordinates": {"latitude": 41.9857333, "longitude": -87.7283551}, "image_url": "", "location": {"city": "Chicago", "address1": "N Park Village Ctr", "address2": "5801 N Pulaski Rd", "address3": null, "state": "IL", "country": "US", "zip_code": "60646"}, "id": "forest-playschool-chicago", "categories": [{"alias": "preschools", "title": "Preschools"}]}]}
{"total": 85, "businesses": [{"rating": 3.0, "review_count": 2, "name": "RealCo Management Partners", "url": "https://www.yelp.com/biz/realco-management-partners-chicago?adjust_creative=_xGZBQTFH5RSnMk3I7VtQQ&utm_campaign=yelp_api_v3&utm_medium=api_v3_business_search&utm_source=_xGZBQTFH5RSnMk3I7VtQQ", "coordinates": {"latitude": 41.99053, "longitude": -87.71845}, "phone": "+17738966131", "image_url": "https://s3-media3.fl.yelpcdn.com/bphoto/wuKFocf7Hs-9uPDQTzL4aA/o.jpg", "location": {"city": "Chicago", "country": "US", "address2": "Ste 303", "address3": "", "state": "IL", "address1": "3550 West Peterson Ave", "zip_code": "60659"}, "id": "realco-management-partners-chicago", "categories": [{"alias": "propertymgmt", "title": "Property Management"}]}]}
{"total": 85, "businesses": [{"rating": 5.0, "review_count": 1, "name": "Little Thumbkin, Inc.", "url": "https://www.yelp.com/biz/little-thumbkin-inc-chicago-2?adjust_creative=_xGZBQTFH5RSnMk3I7VtQQ&utm_campaign=yelp_api_v3&utm_medium=api_v3_business_search&utm_source=_xGZBQTFH5RSnMk3I7VtQQ", "coordinates": {"latitude": 41.991684, "longitude": -87.717331}, "phone": "+18479267959", "image_url": "https://s3-media4.fl.yelpcdn.com/bphoto/TZCLcJWx_vgzhfNAkGojZw/o.jpg", "location": {"city": "Chicago", "address1": "6049 N Drake Ave", "address2": null, "address3": "", "state": "IL", "country": "US", "zip_code": "60659"}, "id": "little-thumbkin-inc-chicago-2", "categories": [{"alias": "childcloth", "title": "Children's Clothing"}]}]}
{"total": 85, "businesses": [{"rating": 3.0, "review_count": 2, "name": "Koscinski Michael J DDS", "url": "https://www.yelp.com/biz/koscinski-michael-j-dds-chicago?adjust_creative=_xGZBQTFH5RSnMk3I7VtQQ&utm_campaign=yelp_api_v3&utm_medium=api_v3_business_search&utm_source=_xGZBQTFH5RSnMk3I7VtQQ", "coordinates": {"latitude": 41.9899749755859, "longitude": -87.7170257568359}, "phone": "+17736044222", "image_url": "", "location": {"city": "Chicago", "country": "US", "address2": "", "address3": "", "state": "IL", "address1": "3525 W Peterson Avenue", "zip_code": "60659"}, "id": "koscinski-michael-j-dds-chicago", "categories": [{"alias": "generaldentistry", "title": "General Dentistry"}]}]}
{"total": 85, "businesses": [{"rating": 1.0, "review_count": 1, "name": "American Family Insurance", "url": "https://www.yelp.com/biz/american-family-insurance-chicago-35?adjust_creative=_xGZBQTFH5RSnMk3I7VtQQ&utm_campaign=yelp_api_v3&utm_medium=api_v3_business_search&utm_source=_xGZBQTFH5RSnMk3I7VtQQ", "coordinates": {"latitude": 41.9899749755859, "longitude": -87.7170257568359}, "phone": "+17735395488", "image_url": "", "location": {"city": "Chicago", "address1": "3525 W Peterson Ave", "address2": "# 115", "address3": "", "state": "IL", "country": "US", "zip_code": "60659"}, "id": "american-family-insurance-chicago-35", "categories": [{"alias": "insurance", "title": "Insurance"}]}]}
{"total": 85, "businesses": [{"rating": 5.0, "review_count": 1, "name": "Spyratos Jerry S DDS", "url": "https://www.yelp.com/biz/spyratos-jerry-s-dds-chicago?adjust_creative=_xGZBQTFH5RSnMk3I7VtQQ&utm_campaign=yelp_api_v3&utm_medium=api_v3_business_search&utm_source=_xGZBQTFH5RSnMk3I7VtQQ", "coordinates": {"latitude": 41.99053, "longitude": -87.71845}, "phone": "+17732790304", "image_url": "", "location": {"city": "Chicago", "address1": "3550 W Peterson Avenue", "address2": "", "address3": "", "state": "IL", "country": "US", "zip_code": "60659"}, "id": "spyratos-jerry-s-dds-chicago", "categories": [{"alias": "generaldentistry", "title": "General Dentistry"}]}]}
{"total": 85, "businesses": [{"rating": 1.0, "review_count": 1, "name": "Ensemble Espanol Center For Spanish Dance and Music", "url": "https://www.yelp.com/biz/ensemble-espanol-center-for-spanish-dance-and-music-chicago?adjust_creative=_xGZBQTFH5RSnMk3I7VtQQ&utm_campaign=yelp_api_v3&utm_medium=api_v3_business_search&utm_source=_xGZBQTFH5RSnMk3I7VtQQ", "coordinates": {"latitude": 41.981445, "longitude": -87.718597}, "phone": "+17734425930", "image_url": "", "location": {"city": "Chicago", "country": "US", "address2": null, "address3": "", "state": "IL", "address1": "5500 N St. Louis Ave", "zip_code": "60625"}, "id": "ensemble-espanol-center-for-spanish-dance-and-music-chicago", "categories": [{"alias": "theater", "title": "Performing Arts"}]}]}
{"total": 85, "businesses": [{"rating": 1.0, "review_count": 1, "name": "Peterson Park Health Care", "url": "https://www.yelp.com/biz/peterson-park-health-care-chicago?adjust_creative=_xGZBQTFH5RSnMk3I7VtQQ&utm_campaign=yelp_api_v3&utm_medium=api_v3_business_search&utm_source=_xGZBQTFH5RSnMk3I7VtQQ", "coordinates": {"latitude": 41.99308, "longitude": -87.72848}, "phone": "+17734782000", "image_url": "https://s3-media2.fl.yelpcdn.com/bphoto/SUqm_jV-4-02D3tQU8Wocw/o.jpg", "location": {"city": "Chicago", "address1": "6141 N Pulaski Rd", "address2": "", "address3": "", "state": "IL", "country": "US", "zip_code": "60646"}, "id": "peterson-park-health-care-chicago", "categories": [{"alias": "medcenters", "title": "Medical Centers"}]}]}
{"total": 85, "businesses": [{"rating": 2.0, "review_count": 3, "name": "Patio Motel", "url": "https://www.yelp.com/biz/patio-motel-chicago?adjust_creative=_xGZBQTFH5RSnMk3I7VtQQ&utm_campaign=yelp_api_v3&utm_medium=api_v3_business_search&utm_source=_xGZBQTFH5RSnMk3I7VtQQ", "coordinates": {"latitude": 41.9951, "longitude": -87.71562}, "phone": "+17735888400", "image_url": "https://s3-media2.fl.yelpcdn.com/bphoto/XFU0CSnAm1jrNFZzKA8_nw/o.jpg", "location": {"city": "Chicago", "country": "US", "address2": "", "address3": "", "state": "IL", "address1": "6250 N Lincoln Ave", "zip_code": "60659"}, "id": "patio-motel-chicago", "categories": [{"alias": "hotels", "title": "Hotels"}]}]}
{"total": 86, "businesses": [{"rating": 2.0, "review_count": 3, "name": "Patio Motel", "url": "https://www.yelp.com/biz/patio-motel-chicago?adjust_creative=_xGZBQTFH5RSnMk3I7VtQQ&utm_campaign=yelp_api_v3&utm_medium=api_v3_business_search&utm_source=_xGZBQTFH5RSnMk3I7VtQQ", "coordinates": {"latitude": 41.9951, "longitude": -87.71562}, "phone": "+17735888400", "image_url": "https://s3-media2.fl.yelpcdn.com/bphoto/XFU0CSnAm1jrNFZzKA8_nw/o.jpg", "location": {"city": "Chicago", "country": "US", "address2": "", "address3": "", "state": "IL", "address1": "6250 N Lincoln Ave", "zip_code": "60659"}, "id": "patio-motel-chicago", "categories": [{"alias": "hotels", "title": "Hotels"}]}]}
{"total": 85, "businesses": [{"rating": 5.0, "review_count": 1, "name": "Trevor Lasarre Personal Training", "url": "https://www.yelp.com/biz/trevor-lasarre-personal-training-chicago?adjust_creative=_xGZBQTFH5RSnMk3I7VtQQ&utm_campaign=yelp_api_v3&utm_medium=api_v3_business_search&utm_source=_xGZBQTFH5RSnMk3I7VtQQ", "coordinates": {"latitude": 41.9926605, "longitude": -87.7290421}, "phone": "+18153479331", "image_url": "https://s3-media1.fl.yelpcdn.com/bphoto/WK79OUBle_uPEns343tJ1Q/o.jpg", "location": {"city": "Chicago", "address1": "6122 N Pulaski Ave", "address2": null, "address3": "", "state": "IL", "country": "US", "zip_code": "60646"}, "id": "trevor-lasarre-personal-training-chicago", "categories": [{"alias": "healthtrainers", "title": "Trainers"}]}]}
{"total": 85, "businesses": [{"rating": 1.0, "review_count": 1, "name": "Nam Keith I MD", "url": "https://www.yelp.com/biz/nam-keith-i-md-chicago?adjust_creative=_xGZBQTFH5RSnMk3I7VtQQ&utm_campaign=yelp_api_v3&utm_medium=api_v3_business_search&utm_source=_xGZBQTFH5RSnMk3I7VtQQ", "coordinates": {"latitude": 41.99058, "longitude": -87.71552}, "phone": "+17732670781", "image_url": "", "location": {"city": "Chicago", "country": "US", "address2": null, "address3": null, "state": "IL", "address1": "3434 W Peterson Ave Ste 202", "zip_code": "60659"}, "id": "nam-keith-i-md-chicago", "categories": [{"alias": "physicians", "title": "Doctors"}]}]}
{"total": 85, "businesses": [{"rating": 1.0, "review_count": 2, "name": "Pearl Beauty Supply", "url": "https://www.yelp.com/biz/pearl-beauty-supply-chicago?adjust_creative=_xGZBQTFH5RSnMk3I7VtQQ&utm_campaign=yelp_api_v3&utm_medium=api_v3_business_search&utm_source=_xGZBQTFH5RSnMk3I7VtQQ", "coordinates": {"latitude": 41.9925956726074, "longitude": -87.7292175292969}, "phone": "+17733344890", "image_url": "", "location": {"city": "Chicago", "country": "US", "address2": "", "address3": null, "state": "IL", "address1": "6120 North Pulaski Rd", "zip_code": "60646"}, "id": "pearl-beauty-supply-chicago", "categories": [{"alias": "cosmetics", "title": "Cosmetics & Beauty Supply"}]}]}
{"total": 85, "businesses": [{"rating": 1.0, "review_count": 2, "name": "Vilin's Pantry", "url": "https://www.yelp.com/biz/vilins-pantry-chicago?adjust_creative=_xGZBQTFH5RSnMk3I7VtQQ&utm_campaign=yelp_api_v3&utm_medium=api_v3_business_search&utm_source=_xGZBQTFH5RSnMk3I7VtQQ", "price": "$$", "coordinates": {"latitude": 41.9759292602539, "longitude": -87.7155990600586}, "phone": "+17735830113", "image_url": "", "location": {"city": "Chicago", "address1": "3456 W Foster Ave", "address2": null, "address3": null, "state": "IL", "country": "US", "zip_code": "60625"}, "id": "vilins-pantry-chicago", "categories": [{"alias": "convenience", "title": "Convenience Stores"}]}]}
{"total": 85, "businesses": [{"rating": 5.0, "review_count": 1, "name": "Bernal Graphics", "url": "https://www.yelp.com/biz/bernal-graphics-chicago-2?adjust_creative=_xGZBQTFH5RSnMk3I7VtQQ&utm_campaign=yelp_api_v3&utm_medium=api_v3_business_search&utm_source=_xGZBQTFH5RSnMk3I7VtQQ", "coordinates": {"latitude": 41.9951782, "longitude": -87.7292099}, "phone": "+17738530667", "image_url": "", "location": {"city": "Chicago", "address1": "6252 N Pulaski", "address2": "", "address3": "", "state": "IL", "country": "US", "zip_code": "60646"}, "id": "bernal-graphics-chicago-2", "categories": [{"alias": "graphicdesign", "title": "Graphic Design"}]}]}
{"total": 85, "businesses": [{"rating": 4.0, "review_count": 133, "name": "V Maids", "url": "https://www.yelp.com/biz/v-maids-chicago-2?adjust_creative=_xGZBQTFH5RSnMk3I7VtQQ&utm_campaign=yelp_api_v3&utm_medium=api_v3_business_search&utm_source=_xGZBQTFH5RSnMk3I7VtQQ", "coordinates": {"latitude": 41.8982422201406, "longitude": -87.6813943089844}, "phone": "+17738521262", "image_url": "https://s3-media4.fl.yelpcdn.com/bphoto/Tn0aUMYiW2lB13poxtc9tw/o.jpg", "location": {"city": "Chicago", "country": "US", "address2": "", "address3": "", "state": "IL", "address1": "", "zip_code": "60622"}, "id": "v-maids-chicago-2", "categories": [{"alias": "homecleaning", "title": "Home Cleaning"}]}]}
{"total": 85, "businesses": []}
