{"total": 323, "businesses": [{"rating": 5.0, "review_count": 65, "name": "Smack Dab!", "url": "https://www.yelp.com/biz/smack-dab-chicago-3?adjust_creative=_xGZBQTFH5RSnMk3I7VtQQ&utm_campaign=yelp_api_v3&utm_medium=api_v3_business_search&utm_source=_xGZBQTFH5RSnMk3I7VtQQ", "price": "$", "coordinates": {"latitude": 42.0093092, "longitude": -87.6662575}, "phone": "+17735750062", "image_url": "https://s3-media2.fl.yelpcdn.com/bphoto/enm2fl50534Skq2EnXpvBQ/o.jpg", "location": {"city": "Chicago", "address1": "7006 N Glenwood Ave", "address2": null, "address3": "", "state": "IL", "country": "US", "zip_code": "60626"}, "id": "smack-dab-chicago-3", "categories": [{"alias": "coffee", "title": "Coffee & Tea"}, {"alias": "breakfast_brunch", "title": "Breakfast & Brunch"}]}]}
{"total": 323, "businesses": [{"rating": 4.5, "review_count": 108, "name": "Rogers Park Social", "url": "https://www.yelp.com/biz/rogers-park-social-chicago?adjust_creative=_xGZBQTFH5RSnMk3I7VtQQ&utm_campaign=yelp_api_v3&utm_medium=api_v3_business_search&utm_source=_xGZBQTFH5RSnMk3I7VtQQ", "price": "$$", "coordinates": {"latitude": 42.0072884112597, "longitude": -87.6661804318428}, "phone": "+17737911419", "image_url": "https://s3-media2.fl.yelpcdn.com/bphoto/HBlpQgvfjE4nqXMXtnNBNA/o.jpg", "location": {"city": "Chicago", "country": "US", "address2": null, "address3": "", "state": "IL", "address1": "6920 N Glenwood Ave", "zip_code": "60626"}, "id": "rogers-park-social-chicago", "categories": [{"alias": "lounges", "title": "Lounges"}, {"alias": "cocktailbars", "title": "Cocktail Bars"}]}]}
{"total": 323, "businesses": [{"rating": 4.5, "review_count": 277, "name": "SP Kebab", "url": "https://www.yelp.com/biz/sp-kebab-chicago-4?adjust_creative=_xGZBQTFH5RSnMk3I7VtQQ&utm_campaign=yelp_api_v3&utm_medium=api_v3_business_search&utm_source=_xGZBQTFH5RSnMk3I7VtQQ", "price": "$", "coordinates": {"latitude": 42.005643, "longitude": -87.660959}, "phone": "+17738563755", "image_url": "https://s3-media1.fl.yelpcdn.com/bphoto/aaRSoXtGrMPhUhYOsRKTIw/o.jpg", "location": {"city": "Chicago", "country": "US", "address2": "", "address3": "", "state": "IL", "address1": "6808 N Sheridan Rd", "zip_code": "60626"}, "id": "sp-kebab-chicago-4", "categories": [{"alias": "greek", "title": "Greek"}, {"alias": "turkish", "title": "Turkish"}, {"alias": "modern_european", "title": "Modern European"}]}]}
{"total": 323, "businesses": [{"rating": 4.5, "review_count": 212, "name": "Susie's Noon Hour Grill", "url": "https://www.yelp.com/biz/susies-noon-hour-grill-chicago?adjust_creative=_xGZBQTFH5RSnMk3I7VtQQ&utm_campaign=yelp_api_v3&utm_medium=api_v3_business_search&utm_source=_xGZBQTFH5RSnMk3I7VtQQ", "price": "$", "coordinates": {"latitude": 42.0075552249299, "longitude": -87.6662723055139}, "phone": "+17733389494", "image_url": "https://s3-media4.fl.yelpcdn.com/bphoto/IDTbeQWAndECwy8-j8PnCQ/o.jpg", "location": {"city": "Chicago", "address1": "6930 N Glenwood Ave", "address2": "", "address3": "", "state": "IL", "country": "US", "zip_code": "60626"}, "id": "susies-noon-hour-grill-chicago", "categories": [{"alias": "korean", "title": "Korean"}, {"alias": "breakfast_brunch", "title": "Breakfast & Brunch"}]}]}
{"total": 323, "businesses": [{"rating": 4.5, "review_count": 59, "name": "Asahi Roll", "url": "https://www.yelp.com/biz/asahi-roll-chicago-2?adjust_creative=_xGZBQTFH5RSnMk3I7VtQQ&utm_campaign=yelp_api_v3&utm_medium=api_v3_business_search&utm_source=_xGZBQTFH5RSnMk3I7VtQQ", "price": "$$", "coordinates": {"latitude": 42.0057404, "longitude": -87.6607668}, "phone": "+17736543649", "image_url": "https://s3-media1.fl.yelpcdn.com/bphoto/kYqeRIeDP_Qce9ZpAmbTew/o.jpg", "location": {"city": "Chicago", "address1": "6803 N Sheridan Rd", "address2": "", "address3": "", "state": "IL", "country": "US", "zip_code": "60626"}, "id": "asahi-roll-chicago-2", "categories": [{"alias": "japanese", "title": "Japanese"}, {"alias": "sushi", "title": "Sushi Bars"}]}]}
{"total": 323, "businesses": [{"rating": 4.5, "review_count": 33, "name": "Loyola Park", "url": "https://www.yelp.com/biz/loyola-park-chicago?adjust_creative=_xGZBQTFH5RSnMk3I7VtQQ&utm_campaign=yelp_api_v3&utm_medium=api_v3_business_search&utm_source=_xGZBQTFH5RSnMk3I7VtQQ", "coordinates": {"latitude": 42.0088454238149, "longitude": -87.6582242697395}, "phone": "+17732628605", "image_url": "https://s3-media1.fl.yelpcdn.com/bphoto/rrhYlWBCdcwfQb25tC8IuA/o.jpg", "location": {"city": "Chicago", "country": "US", "address2": "", "address3": "", "state": "IL", "address1": "1230 W Greenleaf Ave", "zip_code": "60626"}, "id": "loyola-park-chicago", "categories": [{"alias": "parks", "title": "Parks"}]}]}
{"total": 323, "businesses": [{"rating": 4.0, "review_count": 205, "name": "Luzzat", "url": "https://www.yelp.com/biz/luzzat-chicago?adjust_creative=_xGZBQTFH5RSnMk3I7VtQQ&utm_campaign=yelp_api_v3&utm_medium=api_v3_business_search&utm_source=_xGZBQTFH5RSnMk3I7VtQQ", "price": "$", "coordinates": {"latitude": 42.0158901, "longitude": -87.6686027}, "phone": "+17737641065", "image_url": "https://s3-media3.fl.yelpcdn.com/bphoto/LBERqgfUOXPZbQUXZKfusw/o.jpg", "location": {"city": "Chicago", "country": "US", "address2": "", "address3": "", "state": "IL", "address1": "1505 W Jarvis Ave", "zip_code": "60626"}, "id": "luzzat-chicago", "categories": [{"alias": "indpak", "title": "Indian"}, {"alias": "pakistani", "title": "Pakistani"}]}]}
{"total": 323, "businesses": [{"rating": 4.0, "review_count": 646, "name": "bopNGrill", "url": "https://www.yelp.com/biz/bopngrill-chicago-3?adjust_creative=_xGZBQTFH5RSnMk3I7VtQQ&utm_campaign=yelp_api_v3&utm_medium=api_v3_business_search&utm_source=_xGZBQTFH5RSnMk3I7VtQQ", "price": "$$", "coordinates": {"latitude": 42.002840213503, "longitude": -87.661120406701}, "phone": "+17736543224", "image_url": "https://s3-media3.fl.yelpcdn.com/bphoto/6ED_rWP3AxyMaY24Gb3M0A/o.jpg", "location": {"city": "Chicago", "country": "US", "address2": "", "address3": "", "state": "IL", "address1": "6604 N Sheridan Rd", "zip_code": "60626"}, "id": "bopngrill-chicago-3", "categories": [{"alias": "burgers", "title": "Burgers"}, {"alias": "korean", "title": "Korean"}]}]}
{"total": 323, "businesses": [{"rating": 4.0, "review_count": 208, "name": "Twisted Tapas", "url": "https://www.yelp.com/biz/twisted-tapas-chicago-2?adjust_creative=_xGZBQTFH5RSnMk3I7VtQQ&utm_campaign=yelp_api_v3&utm_medium=api_v3_business_search&utm_source=_xGZBQTFH5RSnMk3I7VtQQ", "price": "$$", "coordinates": {"latitude": 42.0056775, "longitude": -87.6600462}, "phone": "+17738563486", "image_url": "https://s3-media4.fl.yelpcdn.com/bphoto/wod_y1URFUOMrVaXuCuYWA/o.jpg", "location": {"city": "Chicago", "country": "US", "address2": null, "address3": "", "state": "IL", "address1": "1146 W Pratt Blvd", "zip_code": "60626"}, "id": "twisted-tapas-chicago-2", "categories": [{"alias": "tapas", "title": "Tapas Bars"}]}]}
{"total": 323, "businesses": [{"rating": 4.5, "review_count": 33, "name": "Sub Brothers", "url": "https://www.yelp.com/biz/sub-brothers-chicago?adjust_creative=_xGZBQTFH5RSnMk3I7VtQQ&utm_campaign=yelp_api_v3&utm_medium=api_v3_business_search&utm_source=_xGZBQTFH5RSnMk3I7VtQQ", "price": "$", "coordinates": {"latitude": 42.0078503340483, "longitude": -87.6665492355824}, "phone": "+17733814533", "image_url": "https://s3-media1.fl.yelpcdn.com/bphoto/eiSRvtdHqMHkPp1-6ZNdtg/o.jpg", "location": {"city": "Chicago", "country": "US", "address2": "", "address3": "", "state": "IL", "address1": "1417 W Morse Ave", "zip_code": "60626"}, "id": "sub-brothers-chicago", "categories": [{"alias": "hotdogs", "title": "Fast Food"}, {"alias": "delis", "title": "Delis"}]}]}
{"total": 323, "businesses": [{"rating": 4.0, "review_count": 223, "name": "The New 400 Theaters", "url": "https://www.yelp.com/biz/the-new-400-theaters-chicago?adjust_creative=_xGZBQTFH5RSnMk3I7VtQQ&utm_campaign=yelp_api_v3&utm_medium=api_v3_business_search&utm_source=_xGZBQTFH5RSnMk3I7VtQQ", "price": "$", "coordinates": {"latitude": 42.0047915469455, "longitude": -87.661452849749}, "phone": "+17738565980", "image_url": "https://s3-media4.fl.yelpcdn.com/bphoto/441-103tDIA4xl3a4vTSpw/o.jpg", "location": {"city": "Chicago", "country": "US", "address2": "", "address3": "", "state": "IL", "address1": "6746 N Sheridan Rd", "zip_code": "60626"}, "id": "the-new-400-theaters-chicago", "categories": [{"alias": "movietheaters", "title": "Cinema"}, {"alias": "bars", "title": "Bars"}]}]}
{"total": 323, "businesses": [{"rating": 4.0, "review_count": 159, "name": "Royal Coffee", "url": "https://www.yelp.com/biz/royal-coffee-chicago?adjust_creative=_xGZBQTFH5RSnMk3I7VtQQ&utm_campaign=yelp_api_v3&utm_medium=api_v3_business_search&utm_source=_xGZBQTFH5RSnMk3I7VtQQ", "price": "$", "coordinates": {"latitude": 42.0053797338317, "longitude": -87.661209987728}, "phone": "+17737618100", "image_url": "https://s3-media3.fl.yelpcdn.com/bphoto/r7FBt5N66_me7WP2Y_D34w/o.jpg", "location": {"city": "Chicago", "country": "US", "address2": "", "address3": "", "state": "IL", "address1": "6764 N Sheridan Rd", "zip_code": "60626"}, "id": "royal-coffee-chicago", "categories": [{"alias": "coffee", "title": "Coffee & Tea"}]}]}
{"total": 323, "businesses": [{"rating": 4.0, "review_count": 328, "name": "J B Alberto's Pizza", "url": "https://www.yelp.com/biz/j-b-albertos-pizza-chicago?adjust_creative=_xGZBQTFH5RSnMk3I7VtQQ&utm_campaign=yelp_api_v3&utm_medium=api_v3_business_search&utm_source=_xGZBQTFH5RSnMk3I7VtQQ", "price": "$", "coordinates": {"latitude": 42.0079837739468, "longitude": -87.6646569371223}, "phone": "+17739731700", "image_url": "https://s3-media3.fl.yelpcdn.com/bphoto/Nlrlz-qj2aPahRcbjC62DA/o.jpg", "location": {"city": "Chicago", "country": "US", "address2": "", "address3": "", "state": "IL", "address1": "1324 W Morse Ave", "zip_code": "60626"}, "id": "j-b-albertos-pizza-chicago", "categories": [{"alias": "pizza", "title": "Pizza"}, {"alias": "italian", "title": "Italian"}]}]}
{"total": 323, "businesses": [{"rating": 4.0, "review_count": 109, "name": "R Public House", "url": "https://www.yelp.com/biz/r-public-house-chicago?adjust_creative=_xGZBQTFH5RSnMk3I7VtQQ&utm_campaign=yelp_api_v3&utm_medium=api_v3_business_search&utm_source=_xGZBQTFH5RSnMk3I7VtQQ", "price": "$$", "coordinates": {"latitude": 42.016348, "longitude": -87.66857}, "phone": "+18722087916", "image_url": "https://s3-media1.fl.yelpcdn.com/bphoto/-gZKALdb4uWTj5C2rCYWQg/o.jpg", "location": {"city": "Chicago", "country": "US", "address2": "", "address3": "", "state": "IL", "address1": "1508 W Jarvis Ave", "zip_code": "60626"}, "id": "r-public-house-chicago", "categories": [{"alias": "pubs", "title": "Pubs"}, {"alias": "breakfast_brunch", "title": "Breakfast & Brunch"}, {"alias": "newamerican", "title": "American (New)"}]}]}
{"total": 323, "businesses": [{"rating": 4.0, "review_count": 222, "name": "The Growling Rabbit", "url": "https://www.yelp.com/biz/the-growling-rabbit-chicago-2?adjust_creative=_xGZBQTFH5RSnMk3I7VtQQ&utm_campaign=yelp_api_v3&utm_medium=api_v3_business_search&utm_source=_xGZBQTFH5RSnMk3I7VtQQ", "price": "$", "coordinates": {"latitude": 42.0089422, "longitude": -87.6618366}, "phone": "+17736541444", "image_url": "https://s3-media4.fl.yelpcdn.com/bphoto/iGcp1ZbHMWEzJQc9pGXoAg/o.jpg", "location": {"city": "Chicago", "country": "US", "address2": "", "address3": "", "state": "IL", "address1": "6981 N Sheridan Rd", "zip_code": "60626"}, "id": "the-growling-rabbit-chicago-2", "categories": [{"alias": "breakfast_brunch", "title": "Breakfast & Brunch"}, {"alias": "sandwiches", "title": "Sandwiches"}, {"alias": "cafes", "title": "Cafes"}]}]}
{"total": 323, "businesses": [{"rating": 4.0, "review_count": 231, "name": "Grill Inn", "url": "https://www.yelp.com/biz/grill-inn-chicago-2?adjust_creative=_xGZBQTFH5RSnMk3I7VtQQ&utm_campaign=yelp_api_v3&utm_medium=api_v3_business_search&utm_source=_xGZBQTFH5RSnMk3I7VtQQ", "price": "$", "coordinates": {"latitude": 42.00822, "longitude": -87.66697}, "phone": "+17734658080", "image_url": "https://s3-media2.fl.yelpcdn.com/bphoto/CWyXuLgR7p7Vl3RSlM4eJQ/o.jpg", "location": {"city": "Chicago", "country": "US", "address2": "", "address3": "", "state": "IL", "address1": "1422 W Morse Ave", "zip_code": "60626"}, "id": "grill-inn-chicago-2", "categories": [{"alias": "tradamerican", "title": "American (Traditional)"}, {"alias": "diners", "title": "Diners"}]}]}
{"total": 323, "businesses": [{"rating": 3.5, "review_count": 174, "name": "Common Cup", "url": "https://www.yelp.com/biz/common-cup-chicago?adjust_creative=_xGZBQTFH5RSnMk3I7VtQQ&utm_campaign=yelp_api_v3&utm_medium=api_v3_business_search&utm_source=_xGZBQTFH5RSnMk3I7VtQQ", "price": "$", "coordinates": {"latitude": 42.007734, "longitude": -87.6680734}, "phone": "+17733380256", "image_url": "https://s3-media2.fl.yelpcdn.com/bphoto/TKT-M7yPIce_FYwIx-pQMw/o.jpg", "location": {"city": "Chicago", "country": "US", "address2": "", "address3": "", "state": "IL", "address1": "1501 W Morse Ave", "zip_code": "60626"}, "id": "common-cup-chicago", "categories": [{"alias": "coffee", "title": "Coffee & Tea"}]}]}
{"total": 323, "businesses": [{"rating": 4.5, "review_count": 29, "name": "Quesadilla La Reina Del Sur", "url": "https://www.yelp.com/biz/quesadilla-la-reina-del-sur-chicago?adjust_creative=_xGZBQTFH5RSnMk3I7VtQQ&utm_campaign=yelp_api_v3&utm_medium=api_v3_business_search&utm_source=_xGZBQTFH5RSnMk3I7VtQQ", "price": "$", "coordinates": {"latitude": 42.0194206, "longitude": -87.6669312}, "phone": "+17733818011", "image_url": "https://s3-media1.fl.yelpcdn.com/bphoto/Yix7pgpC89SyACcWfvYsNQ/o.jpg", "location": {"city": "Chicago", "country": "US", "address2": "", "address3": "", "state": "IL", "address1": "1418 W Howard St", "zip_code": "60626"}, "id": "quesadilla-la-reina-del-sur-chicago", "categories": [{"alias": "mexican", "title": "Mexican"}, {"alias": "vegan", "title": "Vegan"}, {"alias": "vegetarian", "title": "Vegetarian"}]}]}
{"total": 323, "businesses": [{"rating": 4.5, "review_count": 26, "name": "Charmers Cafe", "url": "https://www.yelp.com/biz/charmers-cafe-chicago-4?adjust_creative=_xGZBQTFH5RSnMk3I7VtQQ&utm_campaign=yelp_api_v3&utm_medium=api_v3_business_search&utm_source=_xGZBQTFH5RSnMk3I7VtQQ", "price": "$", "coordinates": {"latitude": 42.01635, "longitude": -87.66838}, "phone": "+17737432233", "image_url": "https://s3-media2.fl.yelpcdn.com/bphoto/9_vT7KghtdD8--ARKKJ7lw/o.jpg", "location": {"city": "Chicago", "country": "US", "address2": "", "address3": "", "state": "IL", "address1": "1500 W Jarvis Ave", "zip_code": "60626"}, "id": "charmers-cafe-chicago-4", "categories": [{"alias": "cafes", "title": "Cafes"}, {"alias": "coffee", "title": "Coffee & Tea"}]}]}
{"total": 323, "businesses": [{"rating": 4.0, "review_count": 35, "name": "Lighthouse Tavern", "url": "https://www.yelp.com/biz/lighthouse-tavern-chicago?adjust_creative=_xGZBQTFH5RSnMk3I7VtQQ&utm_campaign=yelp_api_v3&utm_medium=api_v3_business_search&utm_source=_xGZBQTFH5RSnMk3I7VtQQ", "price": "$", "coordinates": {"latitude": 42.0142517, "longitude": -87.6637115}, "phone": "+17737649414", "image_url": "https://s3-media2.fl.yelpcdn.com/bphoto/oxr4j1FT6FfK18EvFmQcUg/o.jpg", "location": {"city": "Chicago", "address1": "7301 N Sheridan Rd", "address2": "", "address3": "", "state": "IL", "country": "US", "zip_code": "60626"}, "id": "lighthouse-tavern-chicago", "categories": [{"alias": "bars", "title": "Bars"}]}]}
{"total": 323, "businesses": [{"rating": 4.5, "review_count": 166, "name": "Sonia Roselli Makeup Studio", "url": "https://www.yelp.com/biz/sonia-roselli-makeup-studio-chicago-2?adjust_creative=_xGZBQTFH5RSnMk3I7VtQQ&utm_campaign=yelp_api_v3&utm_medium=api_v3_business_search&utm_source=_xGZBQTFH5RSnMk3I7VtQQ", "price": "$$$", "coordinates": {"latitude": 42.009309, "longitude": -87.6656229}, "phone": "+13123718596", "image_url": "https://s3-media2.fl.yelpcdn.com/bphoto/h_GMKZJyrsvabSgvJW57Aw/o.jpg", "location": {"city": "Chicago", "country": "US", "address2": "", "address3": "", "state": "IL", "address1": "7003 N Glenwood Ave", "zip_code": "60626"}, "id": "sonia-roselli-makeup-studio-chicago-2", "categories": [{"alias": "makeupartists", "title": "Makeup Artists"}, {"alias": "eyelashservice", "title": "Eyelash Service"}]}]}
{"total": 323, "businesses": [{"rating": 4.0, "review_count": 84, "name": "The Glenwood", "url": "https://www.yelp.com/biz/the-glenwood-chicago?adjust_creative=_xGZBQTFH5RSnMk3I7VtQQ&utm_campaign=yelp_api_v3&utm_medium=api_v3_business_search&utm_source=_xGZBQTFH5RSnMk3I7VtQQ", "price": "$$", "coordinates": {"latitude": 42.0083019, "longitude": -87.6663391}, "phone": "+17737647363", "image_url": "https://s3-media1.fl.yelpcdn.com/bphoto/6bIQn8rOCdV89KDLDGfofQ/o.jpg", "location": {"city": "Chicago", "country": "US", "address2": "", "address3": "", "state": "IL", "address1": "6962 N Glenwood Ave", "zip_code": "60626"}, "id": "the-glenwood-chicago", "categories": [{"alias": "bars", "title": "Bars"}]}]}
{"total": 323, "businesses": [{"rating": 5.0, "review_count": 40, "name": "Tree of Life Reiki", "url": "https://www.yelp.com/biz/tree-of-life-reiki-chicago-7?adjust_creative=_xGZBQTFH5RSnMk3I7VtQQ&utm_campaign=yelp_api_v3&utm_medium=api_v3_business_search&utm_source=_xGZBQTFH5RSnMk3I7VtQQ", "coordinates": {"latitude": 42.0086891, "longitude": -87.6620582}, "phone": "+17738172132", "image_url": "https://s3-media2.fl.yelpcdn.com/bphoto/HZv3RNSxKbFTOdLQI0EB2w/o.jpg", "location": {"city": "Chicago", "country": "US", "address2": null, "address3": "", "state": "IL", "address1": "4134 1/2 Sheridan Rd", "zip_code": "60613"}, "id": "tree-of-life-reiki-chicago-7", "categories": [{"alias": "reiki", "title": "Reiki"}, {"alias": "lifecoach", "title": "Life Coach"}, {"alias": "hypnosis", "title": "Hypnosis/Hypnotherapy"}]}]}
{"total": 323, "businesses": [{"rating": 5.0, "review_count": 114, "name": "Green Works, LLC", "url": "https://www.yelp.com/biz/green-works-llc-chicago-2?adjust_creative=_xGZBQTFH5RSnMk3I7VtQQ&utm_campaign=yelp_api_v3&utm_medium=api_v3_business_search&utm_source=_xGZBQTFH5RSnMk3I7VtQQ", "coordinates": {"latitude": 42.017501, "longitude": -87.6643069}, "phone": "+17738980024", "image_url": "https://s3-media2.fl.yelpcdn.com/bphoto/HR2GE9pqdb46_uPecUoM6A/o.jpg", "location": {"city": "Chicago", "country": "US", "address2": "", "address3": "", "state": "IL", "address1": "1330 W Fargo Ave", "zip_code": "60626"}, "id": "green-works-llc-chicago-2", "categories": [{"alias": "hvac", "title": "Heating & Air Conditioning/HVAC"}]}]}
{"total": 323, "businesses": [{"rating": 4.5, "review_count": 103, "name": "Grooming By Galdy", "url": "https://www.yelp.com/biz/grooming-by-galdy-chicago-2?adjust_creative=_xGZBQTFH5RSnMk3I7VtQQ&utm_campaign=yelp_api_v3&utm_medium=api_v3_business_search&utm_source=_xGZBQTFH5RSnMk3I7VtQQ", "coordinates": {"latitude": 42.0094343, "longitude": -87.6619969}, "phone": "+17737642275", "image_url": "https://s3-media3.fl.yelpcdn.com/bphoto/XxW-f_sgeiaKxpS6cx_fXA/o.jpg", "location": {"city": "Chicago", "country": "US", "address2": "", "address3": "", "state": "IL", "address1": "7007 N Sheridan Ave", "zip_code": "60626"}, "id": "grooming-by-galdy-chicago-2", "categories": [{"alias": "groomer", "title": "Pet Groomers"}, {"alias": "pet_sitting", "title": "Pet Boarding/Pet Sitting"}]}]}
{"total": 323, "businesses": [{"rating": 4.5, "review_count": 19, "name": "Brian Chambers, LMT", "url": "https://www.yelp.com/biz/brian-chambers-lmt-chicago?adjust_creative=_xGZBQTFH5RSnMk3I7VtQQ&utm_campaign=yelp_api_v3&utm_medium=api_v3_business_search&utm_source=_xGZBQTFH5RSnMk3I7VtQQ", "price": "$$", "coordinates": {"latitude": 42.005738831319, "longitude": -87.6638080120086}, "phone": "+17738566091", "image_url": "https://s3-media3.fl.yelpcdn.com/bphoto/KEPBe5SX2Ft3jtZzErjzGA/o.jpg", "location": {"city": "Chicago", "country": "US", "address2": "", "address3": "", "state": "IL", "address1": "6818 N Lakewood Ave", "zip_code": "60626"}, "id": "brian-chambers-lmt-chicago", "categories": [{"alias": "massage", "title": "Massage"}]}]}
{"total": 323, "businesses": [{"rating": 3.5, "review_count": 101, "name": "Red Line Tap", "url": "https://www.yelp.com/biz/red-line-tap-chicago?adjust_creative=_xGZBQTFH5RSnMk3I7VtQQ&utm_campaign=yelp_api_v3&utm_medium=api_v3_business_search&utm_source=_xGZBQTFH5RSnMk3I7VtQQ", "price": "$", "coordinates": {"latitude": 42.0093785226345, "longitude": -87.6662649214268}, "phone": "+17732745463", "image_url": "https://s3-media1.fl.yelpcdn.com/bphoto/vGSVm6C-Ny2HWf_CsfnMyg/o.jpg", "location": {"city": "Chicago", "country": "US", "address2": null, "address3": "", "state": "IL", "address1": "7006 N Glenwood Ave", "zip_code": "60626"}, "id": "red-line-tap-chicago", "categories": [{"alias": "lounges", "title": "Lounges"}, {"alias": "musicvenues", "title": "Music Venues"}]}]}
{"total": 323, "businesses": [{"rating": 4.0, "review_count": 33, "name": "Roger's Pier", "url": "https://www.yelp.com/biz/rogers-pier-chicago-3?adjust_creative=_xGZBQTFH5RSnMk3I7VtQQ&utm_campaign=yelp_api_v3&utm_medium=api_v3_business_search&utm_source=_xGZBQTFH5RSnMk3I7VtQQ", "price": "$$", "coordinates": {"latitude": 42.0058967, "longitude": -87.661399}, "phone": "+17739426613", "image_url": "https://s3-media3.fl.yelpcdn.com/bphoto/1KEuQebrupOqemG9MQfPgQ/o.jpg", "location": {"city": "Chicago", "address1": "6800 N Sheridan Rd", "address2": "", "address3": "", "state": "IL", "country": "US", "zip_code": "60626"}, "id": "rogers-pier-chicago-3", "categories": [{"alias": "bars", "title": "Bars"}, {"alias": "cajun", "title": "Cajun/Creole"}, {"alias": "seafood", "title": "Seafood"}]}]}
{"total": 323, "businesses": [{"rating": 4.5, "review_count": 55, "name": "Taste Food & Wine", "url": "https://www.yelp.com/biz/taste-food-and-wine-chicago?adjust_creative=_xGZBQTFH5RSnMk3I7VtQQ&utm_campaign=yelp_api_v3&utm_medium=api_v3_business_search&utm_source=_xGZBQTFH5RSnMk3I7VtQQ", "price": "$$", "coordinates": {"latitude": 42.0161613, "longitude": -87.6685268}, "phone": "+17737613663", "image_url": "https://s3-media2.fl.yelpcdn.com/bphoto/1SL6hNLA4uACHWtxzoH4Qg/o.jpg", "location": {"city": "Chicago", "country": "US", "address2": "", "address3": "", "state": "IL", "address1": "1506 Jarvis Ave", "zip_code": "60626"}, "id": "taste-food-and-wine-chicago", "categories": [{"alias": "beer_and_wine", "title": "Beer, Wine & Spirits"}, {"alias": "winetasteclasses", "title": "Wine Tasting Classes"}]}]}
{"total": 323, "businesses": [{"rating": 4.5, "review_count": 232, "name": "Morse Fresh Market", "url": "https://www.yelp.com/biz/morse-fresh-market-chicago-2?adjust_creative=_xGZBQTFH5RSnMk3I7VtQQ&utm_campaign=yelp_api_v3&utm_medium=api_v3_business_search&utm_source=_xGZBQTFH5RSnMk3I7VtQQ", "price": "$", "coordinates": {"latitude": 42.00822, "longitude": -87.66697}, "phone": "+17739733765", "image_url": "https://s3-media1.fl.yelpcdn.com/bphoto/PQqzaEmQoIkifTB-GNVs9Q/o.jpg", "location": {"city": "Chicago", "country": "US", "address2": "", "address3": "", "state": "IL", "address1": "1430 W Morse Ave", "zip_code": "60626"}, "id": "morse-fresh-market-chicago-2", "categories": [{"alias": "grocery", "title": "Grocery"}, {"alias": "markets", "title": "Fruits & Veggies"}, {"alias": "organic_stores", "title": "Organic Stores"}]}]}
{"total": 323, "businesses": [{"rating": 4.0, "review_count": 47, "name": "Poitin Stil", "url": "https://www.yelp.com/biz/poitin-stil-chicago?adjust_creative=_xGZBQTFH5RSnMk3I7VtQQ&utm_campaign=yelp_api_v3&utm_medium=api_v3_business_search&utm_source=_xGZBQTFH5RSnMk3I7VtQQ", "price": "$", "coordinates": {"latitude": 42.0161631, "longitude": -87.6684195}, "phone": "+17733383285", "image_url": "https://s3-media3.fl.yelpcdn.com/bphoto/gwr49g8vhg3eykL1R-6FaA/o.jpg", "location": {"city": "Chicago", "country": "US", "address2": "", "address3": "", "state": "IL", "address1": "1502 W Jarvis Ave", "zip_code": "60626"}, "id": "poitin-stil-chicago", "categories": [{"alias": "pubs", "title": "Pubs"}]}]}
{"total": 323, "businesses": [{"rating": 4.0, "review_count": 17, "name": "Tobey Prinz Beach Park", "url": "https://www.yelp.com/biz/tobey-prinz-beach-park-chicago?adjust_creative=_xGZBQTFH5RSnMk3I7VtQQ&utm_campaign=yelp_api_v3&utm_medium=api_v3_business_search&utm_source=_xGZBQTFH5RSnMk3I7VtQQ", "coordinates": {"latitude": 42.005533, "longitude": -87.657515}, "phone": "", "image_url": "https://s3-media1.fl.yelpcdn.com/bphoto/mn_2rRK0nxPmdAOjPDpMWA/o.jpg", "location": {"city": "Chicago", "country": "US", "address2": "", "address3": "", "state": "IL", "address1": "1050 W Pratt", "zip_code": "60626"}, "id": "tobey-prinz-beach-park-chicago", "categories": [{"alias": "beaches", "title": "Beaches"}, {"alias": "parks", "title": "Parks"}]}]}
{"total": 323, "businesses": [{"rating": 3.5, "review_count": 126, "name": "Rice Thai Cafe", "url": "https://www.yelp.com/biz/rice-thai-cafe-chicago?adjust_creative=_xGZBQTFH5RSnMk3I7VtQQ&utm_campaign=yelp_api_v3&utm_medium=api_v3_business_search&utm_source=_xGZBQTFH5RSnMk3I7VtQQ", "price": "$", "coordinates": {"latitude": 42.004842234994, "longitude": -87.661192973561}, "phone": "+17733381717", "image_url": "https://s3-media4.fl.yelpcdn.com/bphoto/BpuC9-H5WAzFq5Cdw2qoFw/o.jpg", "location": {"city": "Chicago", "country": "US", "address2": "", "address3": "", "state": "IL", "address1": "6744 N Sheridan Rd", "zip_code": "60626"}, "id": "rice-thai-cafe-chicago", "categories": [{"alias": "thai", "title": "Thai"}]}]}
{"total": 323, "businesses": [{"rating": 4.5, "review_count": 83, "name": "Armadillo's Pillow", "url": "https://www.yelp.com/biz/armadillos-pillow-chicago?adjust_creative=_xGZBQTFH5RSnMk3I7VtQQ&utm_campaign=yelp_api_v3&utm_medium=api_v3_business_search&utm_source=_xGZBQTFH5RSnMk3I7VtQQ", "price": "$", "coordinates": {"latitude": 42.005195620163, "longitude": -87.660642928269}, "phone": "+17737612558", "image_url": "https://s3-media1.fl.yelpcdn.com/bphoto/1uyrVIXNZeFSdx4sEiI1Qg/o.jpg", "location": {"city": "Chicago", "country": "US", "address2": "", "address3": "", "state": "IL", "address1": "6753 N Sheridan Rd", "zip_code": "60626"}, "id": "armadillos-pillow-chicago", "categories": [{"alias": "bookstores", "title": "Bookstores"}]}]}
{"total": 323, "businesses": [{"rating": 4.0, "review_count": 61, "name": "Morse Gyros & Chicken", "url": "https://www.yelp.com/biz/morse-gyros-and-chicken-chicago?adjust_creative=_xGZBQTFH5RSnMk3I7VtQQ&utm_campaign=yelp_api_v3&utm_medium=api_v3_business_search&utm_source=_xGZBQTFH5RSnMk3I7VtQQ", "price": "$", "coordinates": {"latitude": 42.0078027123219, "longitude": -87.6652430187031}, "phone": "+17737432665", "image_url": "https://s3-media2.fl.yelpcdn.com/bphoto/bZKT3na2uBcrCW0NBUGlpA/o.jpg", "location": {"city": "Chicago", "country": "US", "address2": "", "address3": "", "state": "IL", "address1": "1335 W Morse Ave", "zip_code": "60626"}, "id": "morse-gyros-and-chicken-chicago", "categories": [{"alias": "mediterranean", "title": "Mediterranean"}, {"alias": "hotdogs", "title": "Fast Food"}, {"alias": "tradamerican", "title": "American (Traditional)"}]}]}
{"total": 323, "businesses": [{"rating": 5.0, "review_count": 30, "name": "Crafty Broads", "url": "https://www.yelp.com/biz/crafty-broads-chicago?adjust_creative=_xGZBQTFH5RSnMk3I7VtQQ&utm_campaign=yelp_api_v3&utm_medium=api_v3_business_search&utm_source=_xGZBQTFH5RSnMk3I7VtQQ", "price": "$$", "coordinates": {"latitude": 42.001091, "longitude": -87.664475}, "phone": "+17732749775", "image_url": "https://s3-media3.fl.yelpcdn.com/bphoto/dLbB1B0v5PFEQM-K2XEJJQ/o.jpg", "location": {"city": "Chicago", "country": "US", "address2": "Ste G1", "address3": "", "state": "IL", "address1": "1329 W Loyola Ave", "zip_code": "60626"}, "id": "crafty-broads-chicago", "categories": [{"alias": "sewingalterations", "title": "Sewing & Alterations"}, {"alias": "wedding_planning", "title": "Wedding Planning"}, {"alias": "bespoke", "title": "Bespoke Clothing"}]}]}
{"total": 323, "businesses": [{"rating": 3.5, "review_count": 117, "name": "Giordano's", "url": "https://www.yelp.com/biz/giordanos-chicago-14?adjust_creative=_xGZBQTFH5RSnMk3I7VtQQ&utm_campaign=yelp_api_v3&utm_medium=api_v3_business_search&utm_source=_xGZBQTFH5RSnMk3I7VtQQ", "price": "$$", "coordinates": {"latitude": 42.006599775554, "longitude": -87.661449530928}, "phone": "+17732621313", "image_url": "https://s3-media4.fl.yelpcdn.com/bphoto/ZpRGTvYldyH77WP9UPobNw/o.jpg", "location": {"city": "Chicago", "country": "US", "address2": "", "address3": "", "state": "IL", "address1": "6836 N Sheridan Rd", "zip_code": "60626"}, "id": "giordanos-chicago-14", "categories": [{"alias": "pizza", "title": "Pizza"}, {"alias": "salad", "title": "Salad"}, {"alias": "italian", "title": "Italian"}]}]}
{"total": 323, "businesses": [{"rating": 4.5, "review_count": 59, "name": "XY Nail Spa", "url": "https://www.yelp.com/biz/xy-nail-spa-chicago?adjust_creative=_xGZBQTFH5RSnMk3I7VtQQ&utm_campaign=yelp_api_v3&utm_medium=api_v3_business_search&utm_source=_xGZBQTFH5RSnMk3I7VtQQ", "price": "$", "coordinates": {"latitude": 42.0041527, "longitude": -87.6610222}, "phone": "+17732741685", "image_url": "https://s3-media1.fl.yelpcdn.com/bphoto/pF4Rva1i_fe7JSB51KDvXQ/o.jpg", "location": {"city": "Chicago", "address1": "6720 N Sheridan Rd", "address2": "", "address3": "", "state": "IL", "country": "US", "zip_code": "60660"}, "id": "xy-nail-spa-chicago", "categories": [{"alias": "othersalons", "title": "Nail Salons"}]}]}
{"total": 323, "businesses": [{"rating": 3.0, "review_count": 658, "name": "Heartland Cafe", "url": "https://www.yelp.com/biz/heartland-cafe-chicago?adjust_creative=_xGZBQTFH5RSnMk3I7VtQQ&utm_campaign=yelp_api_v3&utm_medium=api_v3_business_search&utm_source=_xGZBQTFH5RSnMk3I7VtQQ", "price": "$$", "coordinates": {"latitude": 42.009323215847, "longitude": -87.666394654549}, "phone": "+17734658005", "image_url": "https://s3-media1.fl.yelpcdn.com/bphoto/Zp3g269t2xU0G0WJWN4R3w/o.jpg", "location": {"city": "Chicago", "country": "US", "address2": "", "address3": "", "state": "IL", "address1": "7000 N Glenwood Ave", "zip_code": "60626"}, "id": "heartland-cafe-chicago", "categories": [{"alias": "vegetarian", "title": "Vegetarian"}, {"alias": "breakfast_brunch", "title": "Breakfast & Brunch"}, {"alias": "tradamerican", "title": "American (Traditional)"}]}]}
{"total": 323, "businesses": [{"rating": 4.5, "review_count": 12, "name": "Hartigan Park & Beach", "url": "https://www.yelp.com/biz/hartigan-park-and-beach-chicago?adjust_creative=_xGZBQTFH5RSnMk3I7VtQQ&utm_campaign=yelp_api_v3&utm_medium=api_v3_business_search&utm_source=_xGZBQTFH5RSnMk3I7VtQQ", "coordinates": {"latitude": 42.0025274902582, "longitude": -87.6578293740749}, "phone": "+13127427857", "image_url": "https://s3-media2.fl.yelpcdn.com/bphoto/YHlT6w-o6wRVAoGSFAKdrQ/o.jpg", "location": {"city": "Chicago", "country": "US", "address2": "", "address3": "", "state": "IL", "address1": "1031 W Albion Ave", "zip_code": "60626"}, "id": "hartigan-park-and-beach-chicago", "categories": [{"alias": "parks", "title": "Parks"}, {"alias": "beaches", "title": "Beaches"}]}]}
{"total": 323, "businesses": [{"rating": 4.5, "review_count": 64, "name": "The Pure Salon and Spa", "url": "https://www.yelp.com/biz/the-pure-salon-and-spa-chicago?adjust_creative=_xGZBQTFH5RSnMk3I7VtQQ&utm_campaign=yelp_api_v3&utm_medium=api_v3_business_search&utm_source=_xGZBQTFH5RSnMk3I7VtQQ", "price": "$$", "coordinates": {"latitude": 42.0077670402498, "longitude": -87.66681356316}, "phone": "+17732623110", "image_url": "https://s3-media3.fl.yelpcdn.com/bphoto/hd_-M74ikoqPb14lXzBxgQ/o.jpg", "location": {"city": "Chicago", "country": "US", "address2": null, "address3": "", "state": "IL", "address1": "1425 W Morse Ave", "zip_code": "60626"}, "id": "the-pure-salon-and-spa-chicago", "categories": [{"alias": "othersalons", "title": "Nail Salons"}, {"alias": "waxing", "title": "Waxing"}, {"alias": "skincare", "title": "Skin Care"}]}]}
{"total": 323, "businesses": [{"rating": 4.5, "review_count": 45, "name": "Third Coast Comics", "url": "https://www.yelp.com/biz/third-coast-comics-chicago?adjust_creative=_xGZBQTFH5RSnMk3I7VtQQ&utm_campaign=yelp_api_v3&utm_medium=api_v3_business_search&utm_source=_xGZBQTFH5RSnMk3I7VtQQ", "price": "$", "coordinates": {"latitude": 42.0012976, "longitude": -87.6610782}, "phone": "+18478637450", "image_url": "https://s3-media3.fl.yelpcdn.com/bphoto/pCNCjD3kkls0yBf7OMeFmQ/o.jpg", "location": {"city": "Chicago", "country": "US", "address2": "", "address3": "", "state": "IL", "address1": "6443 N Sheridan Rd", "zip_code": "60626"}, "id": "third-coast-comics-chicago", "categories": [{"alias": "comicbooks", "title": "Comic Books"}]}]}
{"total": 323, "businesses": [{"rating": 4.5, "review_count": 23, "name": "Unan Imports", "url": "https://www.yelp.com/biz/unan-imports-chicago?adjust_creative=_xGZBQTFH5RSnMk3I7VtQQ&utm_campaign=yelp_api_v3&utm_medium=api_v3_business_search&utm_source=_xGZBQTFH5RSnMk3I7VtQQ", "price": "$$", "coordinates": {"latitude": 42.0088139176369, "longitude": -87.6619170606136}, "phone": "+17732744022", "image_url": "https://s3-media3.fl.yelpcdn.com/bphoto/hpwoceyajthVVVN4UFtb1g/o.jpg", "location": {"city": "Chicago", "country": "US", "address2": "", "address3": "", "state": "IL", "address1": "6971 N Sheridan Rd", "zip_code": "60626"}, "id": "unan-imports-chicago", "categories": [{"alias": "homedecor", "title": "Home Decor"}, {"alias": "giftshops", "title": "Gift Shops"}]}]}
{"total": 323, "businesses": [{"rating": 5.0, "review_count": 25, "name": "Lifeline Theatre", "url": "https://www.yelp.com/biz/lifeline-theatre-chicago?adjust_creative=_xGZBQTFH5RSnMk3I7VtQQ&utm_campaign=yelp_api_v3&utm_medium=api_v3_business_search&utm_source=_xGZBQTFH5RSnMk3I7VtQQ", "coordinates": {"latitude": 42.00715, "longitude": -87.66633}, "phone": "+17737614477", "image_url": "https://s3-media3.fl.yelpcdn.com/bphoto/6Y5ZgXBSn_NYMULaovFPlw/o.jpg", "location": {"city": "Chicago", "country": "US", "address2": "", "address3": "", "state": "IL", "address1": "6912 N Glenwood Ave", "zip_code": "60626"}, "id": "lifeline-theatre-chicago", "categories": [{"alias": "theater", "title": "Performing Arts"}]}]}
{"total": 323, "businesses": [{"rating": 4.5, "review_count": 82, "name": "Shiva Beauty Salon", "url": "https://www.yelp.com/biz/shiva-beauty-salon-chicago?adjust_creative=_xGZBQTFH5RSnMk3I7VtQQ&utm_campaign=yelp_api_v3&utm_medium=api_v3_business_search&utm_source=_xGZBQTFH5RSnMk3I7VtQQ", "price": "$", "coordinates": {"latitude": 42.0088959, "longitude": -87.6621933}, "phone": "+17732741499", "image_url": "https://s3-media3.fl.yelpcdn.com/bphoto/OH2dqh4aIgBtIhfacb5jwg/o.jpg", "location": {"city": "Chicago", "country": "US", "address2": "", "address3": "", "state": "IL", "address1": "6970 N Sheridan", "zip_code": "60626"}, "id": "shiva-beauty-salon-chicago", "categories": [{"alias": "hair", "title": "Hair Salons"}]}]}
{"total": 323, "businesses": [{"rating": 3.5, "review_count": 95, "name": "Chipotle Mexican Grill", "url": "https://www.yelp.com/biz/chipotle-mexican-grill-chicago-29?adjust_creative=_xGZBQTFH5RSnMk3I7VtQQ&utm_campaign=yelp_api_v3&utm_medium=api_v3_business_search&utm_source=_xGZBQTFH5RSnMk3I7VtQQ", "price": "$", "coordinates": {"latitude": 42.002741730358, "longitude": -87.661113665203}, "phone": "+17734659281", "image_url": "https://s3-media1.fl.yelpcdn.com/bphoto/3JO7_jYoLKRP9MwVl7hrig/o.jpg", "location": {"city": "Chicago", "country": "US", "address2": "", "address3": "", "state": "IL", "address1": "6600 N Sheridan Rd", "zip_code": "60626"}, "id": "chipotle-mexican-grill-chicago-29", "categories": [{"alias": "mexican", "title": "Mexican"}, {"alias": "hotdogs", "title": "Fast Food"}]}]}
{"total": 323, "businesses": [{"rating": 4.0, "review_count": 19, "name": "The No Exit Cafe", "url": "https://www.yelp.com/biz/the-no-exit-cafe-chicago?adjust_creative=_xGZBQTFH5RSnMk3I7VtQQ&utm_campaign=yelp_api_v3&utm_medium=api_v3_business_search&utm_source=_xGZBQTFH5RSnMk3I7VtQQ", "price": "$$$", "coordinates": {"latitude": 42.0086688, "longitude": -87.6663522}, "phone": "+17737433355", "image_url": "https://s3-media2.fl.yelpcdn.com/bphoto/jEc9OKMDXRqM6V2HXATXdA/o.jpg", "location": {"city": "Chicago", "country": "US", "address2": "", "address3": "", "state": "IL", "address1": "6970 N Glenwood Avenue", "zip_code": "60626"}, "id": "the-no-exit-cafe-chicago", "categories": [{"alias": "tradamerican", "title": "American (Traditional)"}]}]}
{"total": 323, "businesses": [{"rating": 5.0, "review_count": 17, "name": "Chicago Jay Walkers", "url": "https://www.yelp.com/biz/chicago-jay-walkers-chicago?adjust_creative=_xGZBQTFH5RSnMk3I7VtQQ&utm_campaign=yelp_api_v3&utm_medium=api_v3_business_search&utm_source=_xGZBQTFH5RSnMk3I7VtQQ", "coordinates": {"latitude": 42.0094871520996, "longitude": -87.6616821289062}, "phone": "+17734031565", "image_url": "https://s3-media1.fl.yelpcdn.com/bphoto/xE9j1J-FDEBmxTFi3Q87vg/o.jpg", "location": {"city": "Chicago", "country": "US", "address2": null, "address3": "", "state": "IL", "address1": "1154 W Lunt Ave", "zip_code": "60614"}, "id": "chicago-jay-walkers-chicago", "categories": [{"alias": "dogwalkers", "title": "Dog Walkers"}, {"alias": "pet_sitting", "title": "Pet Boarding/Pet Sitting"}]}]}
{"total": 323, "businesses": [{"rating": 3.5, "review_count": 44, "name": "Fungs Mandarin Cuisine", "url": "https://www.yelp.com/biz/fungs-mandarin-cuisine-chicago?adjust_creative=_xGZBQTFH5RSnMk3I7VtQQ&utm_campaign=yelp_api_v3&utm_medium=api_v3_business_search&utm_source=_xGZBQTFH5RSnMk3I7VtQQ", "price": "$", "coordinates": {"latitude": 42.0077851, "longitude": -87.6652682}, "phone": "+17732748660", "image_url": "https://s3-media2.fl.yelpcdn.com/bphoto/Ljb5PotPlwdgBwoHHG0r6A/o.jpg", "location": {"city": "Chicago", "country": "US", "address2": "", "address3": "", "state": "IL", "address1": "1343 W Morse Ave", "zip_code": "60626"}, "id": "fungs-mandarin-cuisine-chicago", "categories": [{"alias": "chinese", "title": "Chinese"}]}]}
{"total": 323, "businesses": [{"rating": 5.0, "review_count": 15, "name": "Yonzon Photography", "url": "https://www.yelp.com/biz/yonzon-photography-chicago-2?adjust_creative=_xGZBQTFH5RSnMk3I7VtQQ&utm_campaign=yelp_api_v3&utm_medium=api_v3_business_search&utm_source=_xGZBQTFH5RSnMk3I7VtQQ", "coordinates": {"latitude": 42.011104, "longitude": -87.663188}, "phone": "+13239027468", "image_url": "https://s3-media4.fl.yelpcdn.com/bphoto/dVja5nE2BeBXClviEhBdHw/o.jpg", "location": {"city": "Chicago", "country": "US", "address2": null, "address3": "", "state": "IL", "address1": null, "zip_code": "60626"}, "id": "yonzon-photography-chicago-2", "categories": [{"alias": "photographers", "title": "Photographers"}]}]}
{"total": 323, "businesses": [{"rating": 3.5, "review_count": 55, "name": "Oasis", "url": "https://www.yelp.com/biz/oasis-chicago?adjust_creative=_xGZBQTFH5RSnMk3I7VtQQ&utm_campaign=yelp_api_v3&utm_medium=api_v3_business_search&utm_source=_xGZBQTFH5RSnMk3I7VtQQ", "price": "$", "coordinates": {"latitude": 42.005801, "longitude": -87.6607824}, "phone": "+17739737788", "image_url": "https://s3-media4.fl.yelpcdn.com/bphoto/PsQuQJsGrQGR69nkCeqFHg/o.jpg", "location": {"city": "Chicago", "country": "US", "address2": "", "address3": "", "state": "IL", "address1": "6809 N Sheridan Rd", "zip_code": "60626"}, "id": "oasis-chicago", "categories": [{"alias": "bars", "title": "Bars"}]}]}
{"total": 323, "businesses": [{"rating": 3.5, "review_count": 36, "name": "Pub 626", "url": "https://www.yelp.com/biz/pub-626-chicago?adjust_creative=_xGZBQTFH5RSnMk3I7VtQQ&utm_campaign=yelp_api_v3&utm_medium=api_v3_business_search&utm_source=_xGZBQTFH5RSnMk3I7VtQQ", "price": "$$", "coordinates": {"latitude": 42.007947663759, "longitude": -87.6663075014949}, "phone": "+17737640626", "image_url": "https://s3-media3.fl.yelpcdn.com/bphoto/rSglrJ6sQR65AvoGKU_lIg/o.jpg", "location": {"city": "Chicago", "country": "US", "address2": "", "address3": "", "state": "IL", "address1": "1406 W Morse Ave", "zip_code": "60626"}, "id": "pub-626-chicago", "categories": [{"alias": "pubs", "title": "Pubs"}]}]}
{"total": 323, "businesses": [{"rating": 3.0, "review_count": 104, "name": "Taqueria Los Portales", "url": "https://www.yelp.com/biz/taqueria-los-portales-chicago?adjust_creative=_xGZBQTFH5RSnMk3I7VtQQ&utm_campaign=yelp_api_v3&utm_medium=api_v3_business_search&utm_source=_xGZBQTFH5RSnMk3I7VtQQ", "price": "$", "coordinates": {"latitude": 42.0080249, "longitude": -87.6666422}, "phone": "+17734655221", "image_url": "https://s3-media2.fl.yelpcdn.com/bphoto/Iz7_9V2nCMYgO-ywToMyBw/o.jpg", "location": {"city": "Chicago", "country": "US", "address2": "", "address3": "", "state": "IL", "address1": "1418 W Morse Ave", "zip_code": "60626"}, "id": "taqueria-los-portales-chicago", "categories": [{"alias": "mexican", "title": "Mexican"}]}]}
{"total": 323, "businesses": [{"rating": 4.5, "review_count": 18, "name": "Rogers Park Florist", "url": "https://www.yelp.com/biz/rogers-park-florist-chicago?adjust_creative=_xGZBQTFH5RSnMk3I7VtQQ&utm_campaign=yelp_api_v3&utm_medium=api_v3_business_search&utm_source=_xGZBQTFH5RSnMk3I7VtQQ", "price": "$$", "coordinates": {"latitude": 42.0077784477834, "longitude": -87.666450281241}, "phone": "+17737613500", "image_url": "https://s3-media1.fl.yelpcdn.com/bphoto/ZDKdxlKyVgi4LraPR-ChXA/o.jpg", "location": {"city": "Chicago", "address1": "1415 W Morse Ave", "address2": "", "address3": "", "state": "IL", "country": "US", "zip_code": "60626"}, "id": "rogers-park-florist-chicago", "categories": [{"alias": "gardening", "title": "Nurseries & Gardening"}, {"alias": "florists", "title": "Florists"}]}]}
{"total": 323, "businesses": [{"rating": 4.0, "review_count": 79, "name": "Mayne Stage", "url": "https://www.yelp.com/biz/mayne-stage-chicago?adjust_creative=_xGZBQTFH5RSnMk3I7VtQQ&utm_campaign=yelp_api_v3&utm_medium=api_v3_business_search&utm_source=_xGZBQTFH5RSnMk3I7VtQQ", "price": "$$", "coordinates": {"latitude": 42.008259, "longitude": -87.665028}, "phone": "+18478695423", "image_url": "https://s3-media2.fl.yelpcdn.com/bphoto/Rh9FDPNFy7QUGow-nLoveQ/o.jpg", "location": {"city": "Chicago", "country": "US", "address2": "", "address3": "", "state": "IL", "address1": "1328 W. Morse Ave", "zip_code": "60626"}, "id": "mayne-stage-chicago", "categories": [{"alias": "venues", "title": "Venues & Event Spaces"}]}]}
{"total": 323, "businesses": [{"rating": 5.0, "review_count": 4, "name": "Rogers Park", "url": "https://www.yelp.com/biz/rogers-park-chicago-2?adjust_creative=_xGZBQTFH5RSnMk3I7VtQQ&utm_campaign=yelp_api_v3&utm_medium=api_v3_business_search&utm_source=_xGZBQTFH5RSnMk3I7VtQQ", "coordinates": {"latitude": 42.010563, "longitude": -87.668317}, "image_url": "https://s3-media1.fl.yelpcdn.com/bphoto/kPrvGE1022-FC9jQK0TQ6Q/o.jpg", "location": {"city": "Chicago", "country": "US", "address2": "", "address3": "", "state": "IL", "address1": "", "zip_code": "60626"}, "id": "rogers-park-chicago-2", "categories": [{"alias": "parks", "title": "Parks"}]}]}
{"total": 323, "businesses": [{"rating": 3.5, "review_count": 44, "name": "Far East Kitchen", "url": "https://www.yelp.com/biz/far-east-kitchen-chicago-2?adjust_creative=_xGZBQTFH5RSnMk3I7VtQQ&utm_campaign=yelp_api_v3&utm_medium=api_v3_business_search&utm_source=_xGZBQTFH5RSnMk3I7VtQQ", "price": "$", "coordinates": {"latitude": 42.008633, "longitude": -87.666328}, "phone": "+17734652200", "image_url": "https://s3-media1.fl.yelpcdn.com/bphoto/ozZOyCpbBOJSo1_ZaSdsBA/o.jpg", "location": {"city": "Chicago", "country": "US", "address2": "", "address3": "", "state": "IL", "address1": "6966 N Glenwood Ave", "zip_code": "60626"}, "id": "far-east-kitchen-chicago-2", "categories": [{"alias": "vietnamese", "title": "Vietnamese"}, {"alias": "chinese", "title": "Chinese"}, {"alias": "newamerican", "title": "American (New)"}]}]}
{"total": 323, "businesses": [{"rating": 4.5, "review_count": 23, "name": "Public Storage", "url": "https://www.yelp.com/biz/public-storage-chicago-59?adjust_creative=_xGZBQTFH5RSnMk3I7VtQQ&utm_campaign=yelp_api_v3&utm_medium=api_v3_business_search&utm_source=_xGZBQTFH5RSnMk3I7VtQQ", "coordinates": {"latitude": 42.0161585, "longitude": -87.6686877}, "phone": "+18722162930", "image_url": "https://s3-media4.fl.yelpcdn.com/bphoto/q64k5BGLBKJhFwrTr39uPw/o.jpg", "location": {"city": "Chicago", "country": "US", "address2": "", "address3": "", "state": "IL", "address1": "1512 W Jarvis Ave", "zip_code": "60626"}, "id": "public-storage-chicago-59", "categories": [{"alias": "selfstorage", "title": "Self Storage"}]}]}
{"total": 323, "businesses": [{"rating": 5.0, "review_count": 11, "name": "Rogers Park Provisions", "url": "https://www.yelp.com/biz/rogers-park-provisions-chicago?adjust_creative=_xGZBQTFH5RSnMk3I7VtQQ&utm_campaign=yelp_api_v3&utm_medium=api_v3_business_search&utm_source=_xGZBQTFH5RSnMk3I7VtQQ", "price": "$$", "coordinates": {"latitude": 42.0076052, "longitude": -87.6661716552948}, "phone": "+17739995943", "image_url": "https://s3-media4.fl.yelpcdn.com/bphoto/Gyd552qUOpPcLslcyLeTew/o.jpg", "location": {"city": "Chicago", "address1": "6928 N Glenwood Ave", "address2": "", "address3": "", "state": "IL", "country": "US", "zip_code": "60626"}, "id": "rogers-park-provisions-chicago", "categories": [{"alias": "giftshops", "title": "Gift Shops"}, {"alias": "cheese", "title": "Cheese Shops"}, {"alias": "beer_and_wine", "title": "Beer, Wine & Spirits"}]}]}
{"total": 323, "businesses": [{"rating": 2.5, "review_count": 301, "name": "Leona's Pizza & Italian Restaurant", "url": "https://www.yelp.com/biz/leonas-pizza-and-italian-restaurant-chicago-4?adjust_creative=_xGZBQTFH5RSnMk3I7VtQQ&utm_campaign=yelp_api_v3&utm_medium=api_v3_business_search&utm_source=_xGZBQTFH5RSnMk3I7VtQQ", "price": "$$", "coordinates": {"latitude": 42.0077162, "longitude": -87.6614188}, "phone": "+17737645757", "image_url": "https://s3-media2.fl.yelpcdn.com/bphoto/suSwHPc3NJNBro3qhYRktg/o.jpg", "location": {"city": "Chicago", "country": "US", "address2": null, "address3": "", "state": "IL", "address1": "6935 N Sheridan Rd", "zip_code": "60626"}, "id": "leonas-pizza-and-italian-restaurant-chicago-4", "categories": [{"alias": "italian", "title": "Italian"}, {"alias": "pizza", "title": "Pizza"}, {"alias": "salad", "title": "Salad"}]}]}
{"total": 323, "businesses": [{"rating": 3.0, "review_count": 49, "name": "Starbucks", "url": "https://www.yelp.com/biz/starbucks-chicago-356?adjust_creative=_xGZBQTFH5RSnMk3I7VtQQ&utm_campaign=yelp_api_v3&utm_medium=api_v3_business_search&utm_source=_xGZBQTFH5RSnMk3I7VtQQ", "price": "$", "coordinates": {"latitude": 42.0046753605845, "longitude": -87.6612260291923}, "phone": "+17737430417", "image_url": "https://s3-media1.fl.yelpcdn.com/bphoto/TTWcMLLUd3RHMDPjZMfbSg/o.jpg", "location": {"city": "Chicago", "country": "US", "address2": "", "address3": "", "state": "IL", "address1": "6738 N Sheridan Rd", "zip_code": "60626"}, "id": "starbucks-chicago-356", "categories": [{"alias": "coffee", "title": "Coffee & Tea"}]}]}
{"total": 323, "businesses": [{"rating": 4.0, "review_count": 74, "name": "International Salon Spa", "url": "https://www.yelp.com/biz/international-salon-spa-chicago?adjust_creative=_xGZBQTFH5RSnMk3I7VtQQ&utm_campaign=yelp_api_v3&utm_medium=api_v3_business_search&utm_source=_xGZBQTFH5RSnMk3I7VtQQ", "price": "$", "coordinates": {"latitude": 42.0018994659399, "longitude": -87.660886346754}, "phone": "+17733382503", "image_url": "https://s3-media4.fl.yelpcdn.com/bphoto/eKPh6CYXpSsSlXxTYzlWFA/o.jpg", "location": {"city": "Chicago", "country": "US", "address2": "Fl 2", "address3": "", "state": "IL", "address1": "6560 N Sheridan Rd", "zip_code": "60626"}, "id": "international-salon-spa-chicago", "categories": [{"alias": "othersalons", "title": "Nail Salons"}, {"alias": "barbers", "title": "Barbers"}, {"alias": "waxing", "title": "Waxing"}]}]}
{"total": 323, "businesses": [{"rating": 5.0, "review_count": 11, "name": "To the Point Myotherapy", "url": "https://www.yelp.com/biz/to-the-point-myotherapy-chicago?adjust_creative=_xGZBQTFH5RSnMk3I7VtQQ&utm_campaign=yelp_api_v3&utm_medium=api_v3_business_search&utm_source=_xGZBQTFH5RSnMk3I7VtQQ", "price": "$", "coordinates": {"latitude": 42.0159988850355, "longitude": -87.6672901958227}, "phone": "+17736635048", "image_url": "https://s3-media4.fl.yelpcdn.com/bphoto/0MxDipkPXvJ85f39cUxzQQ/o.jpg", "location": {"city": "Chicago", "country": "US", "address2": "", "address3": "", "state": "IL", "address1": "1445 W Jarvis Ave", "zip_code": "60626"}, "id": "to-the-point-myotherapy-chicago", "categories": [{"alias": "nutritionists", "title": "Nutritionists"}, {"alias": "massage_therapy", "title": "Massage Therapy"}]}]}
{"total": 323, "businesses": [{"rating": 4.5, "review_count": 31, "name": "Quest Network & Computer Services", "url": "https://www.yelp.com/biz/quest-network-and-computer-services-chicago-2?adjust_creative=_xGZBQTFH5RSnMk3I7VtQQ&utm_campaign=yelp_api_v3&utm_medium=api_v3_business_search&utm_source=_xGZBQTFH5RSnMk3I7VtQQ", "coordinates": {"latitude": 42.0142499, "longitude": -87.66371}, "phone": "+17737613555", "image_url": "https://s3-media1.fl.yelpcdn.com/bphoto/e0wr6nPvc8alDq3m5jk43w/o.jpg", "location": {"city": "Chicago", "address1": "7301 N Sheridan Rd", "address2": "", "address3": "", "state": "IL", "country": "US", "zip_code": "60626"}, "id": "quest-network-and-computer-services-chicago-2", "categories": [{"alias": "itservices", "title": "IT Services & Computer Repair"}]}]}
{"total": 323, "businesses": [{"rating": 4.0, "review_count": 59, "name": "Rogers Bark Pet Salon", "url": "https://www.yelp.com/biz/rogers-bark-pet-salon-chicago-2?adjust_creative=_xGZBQTFH5RSnMk3I7VtQQ&utm_campaign=yelp_api_v3&utm_medium=api_v3_business_search&utm_source=_xGZBQTFH5RSnMk3I7VtQQ", "coordinates": {"latitude": 42.0159982144833, "longitude": -87.6673143357038}, "phone": "+17732742275", "image_url": "https://s3-media4.fl.yelpcdn.com/bphoto/d_a_krgIazzutBH9M-rO7Q/o.jpg", "location": {"city": "Chicago", "country": "US", "address2": "", "address3": "", "state": "IL", "address1": "1447 W Jarvis Ave", "zip_code": "60626"}, "id": "rogers-bark-pet-salon-chicago-2", "categories": [{"alias": "groomer", "title": "Pet Groomers"}, {"alias": "petstore", "title": "Pet Stores"}]}]}
{"total": 323, "businesses": [{"rating": 3.5, "review_count": 17, "name": "Pita Pit", "url": "https://www.yelp.com/biz/pita-pit-chicago-2?adjust_creative=_xGZBQTFH5RSnMk3I7VtQQ&utm_campaign=yelp_api_v3&utm_medium=api_v3_business_search&utm_source=_xGZBQTFH5RSnMk3I7VtQQ", "price": "$", "coordinates": {"latitude": 42.0017751306295, "longitude": -87.6608233898878}, "phone": "+17737547080", "image_url": "https://s3-media1.fl.yelpcdn.com/bphoto/BD2Z4hD2hUOdVNadTpzsRA/o.jpg", "location": {"city": "Chicago", "address1": "6558 N Sheridan Rd", "address2": "", "address3": "", "state": "IL", "country": "US", "zip_code": "60626"}, "id": "pita-pit-chicago-2", "categories": [{"alias": "sandwiches", "title": "Sandwiches"}, {"alias": "mediterranean", "title": "Mediterranean"}, {"alias": "hotdogs", "title": "Fast Food"}]}]}
{"total": 323, "businesses": [{"rating": 4.5, "review_count": 23, "name": "Finally Here Salon", "url": "https://www.yelp.com/biz/finally-here-salon-chicago?adjust_creative=_xGZBQTFH5RSnMk3I7VtQQ&utm_campaign=yelp_api_v3&utm_medium=api_v3_business_search&utm_source=_xGZBQTFH5RSnMk3I7VtQQ", "price": "$", "coordinates": {"latitude": 42.0078510046005, "longitude": -87.6665519177914}, "phone": "+17733384920", "image_url": "https://s3-media4.fl.yelpcdn.com/bphoto/AQOW9hAKnSHF8NvIh6SG2A/o.jpg", "location": {"city": "Chicago", "country": "US", "address2": "", "address3": "", "state": "IL", "address1": "1411 W Morse Ave", "zip_code": "60626"}, "id": "finally-here-salon-chicago", "categories": [{"alias": "hair", "title": "Hair Salons"}]}]}
{"total": 323, "businesses": [{"rating": 5.0, "review_count": 11, "name": "Dennis Lee Photography", "url": "https://www.yelp.com/biz/dennis-lee-photography-chicago?adjust_creative=_xGZBQTFH5RSnMk3I7VtQQ&utm_campaign=yelp_api_v3&utm_medium=api_v3_business_search&utm_source=_xGZBQTFH5RSnMk3I7VtQQ", "coordinates": {"latitude": 42.0066, "longitude": -87.66729}, "phone": "+13125056901", "image_url": "https://s3-media1.fl.yelpcdn.com/bphoto/cRT3LJcKb87jzGSfWicRDw/o.jpg", "location": {"city": "Chicago", "address1": "", "address2": "", "address3": "", "state": "IL", "country": "US", "zip_code": "60626"}, "id": "dennis-lee-photography-chicago", "categories": [{"alias": "photographers", "title": "Photographers"}]}]}
{"total": 323, "businesses": [{"rating": 5.0, "review_count": 7, "name": "Rogers Park Center For Massage Therapy", "url": "https://www.yelp.com/biz/rogers-park-center-for-massage-therapy-chicago?adjust_creative=_xGZBQTFH5RSnMk3I7VtQQ&utm_campaign=yelp_api_v3&utm_medium=api_v3_business_search&utm_source=_xGZBQTFH5RSnMk3I7VtQQ", "price": "$$", "coordinates": {"latitude": 42.0076324, "longitude": -87.6663136}, "phone": "+17735446431", "image_url": "https://s3-media1.fl.yelpcdn.com/bphoto/6NrgNfnpoUa5fVqHNJzKGw/o.jpg", "location": {"city": "Chicago", "country": "US", "address2": "", "address3": "", "state": "IL", "address1": "6934 N Glenwood Ave", "zip_code": "60626"}, "id": "rogers-park-center-for-massage-therapy-chicago", "categories": [{"alias": "massage_therapy", "title": "Massage Therapy"}]}]}
{"total": 323, "businesses": [{"rating": 4.0, "review_count": 12, "name": "Jarvis Gyros", "url": "https://www.yelp.com/biz/jarvis-gyros-chicago?adjust_creative=_xGZBQTFH5RSnMk3I7VtQQ&utm_campaign=yelp_api_v3&utm_medium=api_v3_business_search&utm_source=_xGZBQTFH5RSnMk3I7VtQQ", "price": "$", "coordinates": {"latitude": 42.0159821212292, "longitude": -87.6687426120043}, "phone": "+17732744117", "image_url": "https://s3-media3.fl.yelpcdn.com/bphoto/STezH9K_UFvlaO2OXBhcZQ/o.jpg", "location": {"city": "Chicago", "country": "US", "address2": "", "address3": "", "state": "IL", "address1": "1517 W Jarvis", "zip_code": "60626"}, "id": "jarvis-gyros-chicago", "categories": [{"alias": "hotdogs", "title": "Fast Food"}]}]}
{"total": 323, "businesses": [{"rating": 5.0, "review_count": 16, "name": "Midwest Paper Hangers", "url": "https://www.yelp.com/biz/midwest-paper-hangers-chicago?adjust_creative=_xGZBQTFH5RSnMk3I7VtQQ&utm_campaign=yelp_api_v3&utm_medium=api_v3_business_search&utm_source=_xGZBQTFH5RSnMk3I7VtQQ", "price": "$$", "coordinates": {"latitude": 42.0085067749023, "longitude": -87.6598968505859}, "phone": "+17735085900", "image_url": "https://s3-media4.fl.yelpcdn.com/bphoto/XfW3qAqcKT-rBQxqwmz5xQ/o.jpg", "location": {"city": "Chicago", "country": "US", "address2": "", "address3": "", "state": "IL", "address1": "1122 W Morse Ave", "zip_code": "60626"}, "id": "midwest-paper-hangers-chicago", "categories": [{"alias": "homedecor", "title": "Home Decor"}]}]}
{"total": 323, "businesses": [{"rating": 3.5, "review_count": 44, "name": "VZN Eye care", "url": "https://www.yelp.com/biz/vzn-eye-care-chicago-2?adjust_creative=_xGZBQTFH5RSnMk3I7VtQQ&utm_campaign=yelp_api_v3&utm_medium=api_v3_business_search&utm_source=_xGZBQTFH5RSnMk3I7VtQQ", "price": "$$", "coordinates": {"latitude": 42.0056953, "longitude": -87.6609689}, "phone": "+17732742020", "image_url": "https://s3-media2.fl.yelpcdn.com/bphoto/WtJQBl54i4y3qb0xIpgZVA/o.jpg", "location": {"city": "Chicago", "country": "US", "address2": null, "address3": "", "state": "IL", "address1": "6814 N Sheridan Rd", "zip_code": "60626"}, "id": "vzn-eye-care-chicago-2", "categories": [{"alias": "opticians", "title": "Eyewear & Opticians"}, {"alias": "optometrists", "title": "Optometrists"}]}]}
{"total": 323, "businesses": [{"rating": 5.0, "review_count": 9, "name": "New To You Thrift Shop", "url": "https://www.yelp.com/biz/new-to-you-thrift-shop-chicago?adjust_creative=_xGZBQTFH5RSnMk3I7VtQQ&utm_campaign=yelp_api_v3&utm_medium=api_v3_business_search&utm_source=_xGZBQTFH5RSnMk3I7VtQQ", "price": "$", "coordinates": {"latitude": 42.007591, "longitude": -87.66954}, "image_url": "https://s3-media2.fl.yelpcdn.com/bphoto/Ex-163akpNmvbwOOcIJ_0Q/o.jpg", "location": {"city": "Chicago", "country": "US", "address2": "", "address3": "", "state": "IL", "address1": "1545 W. Morse Avenue", "zip_code": "60626"}, "id": "new-to-you-thrift-shop-chicago", "categories": [{"alias": "thrift_stores", "title": "Thrift Stores"}]}]}
{"total": 323, "businesses": [{"rating": 5.0, "review_count": 13, "name": "Smiling Windows LLC", "url": "https://www.yelp.com/biz/smiling-windows-llc-chicago?adjust_creative=_xGZBQTFH5RSnMk3I7VtQQ&utm_campaign=yelp_api_v3&utm_medium=api_v3_business_search&utm_source=_xGZBQTFH5RSnMk3I7VtQQ", "coordinates": {"latitude": 42.01843, "longitude": -87.6647}, "phone": "+17736412849", "image_url": "https://s3-media4.fl.yelpcdn.com/bphoto/FkMFVRnstr1LTwogrF3Rsw/o.jpg", "location": {"city": "Chicago", "address1": "1332 W Birchwood Ave", "address2": "Unit 3", "address3": "", "state": "IL", "country": "US", "zip_code": "60626"}, "id": "smiling-windows-llc-chicago", "categories": [{"alias": "windowwashing", "title": "Window Washing"}, {"alias": "gutterservices", "title": "Gutter Services"}]}]}
{"total": 323, "businesses": [{"rating": 3.5, "review_count": 21, "name": "Dunkin' Donuts", "url": "https://www.yelp.com/biz/dunkin-donuts-chicago-83?adjust_creative=_xGZBQTFH5RSnMk3I7VtQQ&utm_campaign=yelp_api_v3&utm_medium=api_v3_business_search&utm_source=_xGZBQTFH5RSnMk3I7VtQQ", "price": "$", "coordinates": {"latitude": 42.0008211, "longitude": -87.6607469}, "phone": "+17733817478", "image_url": "https://s3-media2.fl.yelpcdn.com/bphoto/BDVhRZcmGQRUB0Prj_R4-w/o.jpg", "location": {"city": "Chicago", "country": "US", "address2": "", "address3": "", "state": "IL", "address1": "1200 W Loyola Ave", "zip_code": "60626"}, "id": "dunkin-donuts-chicago-83", "categories": [{"alias": "coffee", "title": "Coffee & Tea"}, {"alias": "donuts", "title": "Donuts"}]}]}
{"total": 323, "businesses": [{"rating": 3.0, "review_count": 51, "name": "Great Wall Chinese Restaurant", "url": "https://www.yelp.com/biz/great-wall-chinese-restaurant-chicago-2?adjust_creative=_xGZBQTFH5RSnMk3I7VtQQ&utm_campaign=yelp_api_v3&utm_medium=api_v3_business_search&utm_source=_xGZBQTFH5RSnMk3I7VtQQ", "price": "$", "coordinates": {"latitude": 42.0049945228824, "longitude": -87.6612055563127}, "phone": "+17734655815", "image_url": "https://s3-media3.fl.yelpcdn.com/bphoto/nQiaTj41P-siDSxosCyDTQ/o.jpg", "location": {"city": "Chicago", "address1": "6748 N Sheridan Rd", "address2": "", "address3": "", "state": "IL", "country": "US", "zip_code": "60626"}, "id": "great-wall-chinese-restaurant-chicago-2", "categories": [{"alias": "chinese", "title": "Chinese"}]}]}
{"total": 323, "businesses": [{"rating": 3.5, "review_count": 14, "name": "Jarvis Grill & Wok", "url": "https://www.yelp.com/biz/jarvis-grill-and-wok-chicago?adjust_creative=_xGZBQTFH5RSnMk3I7VtQQ&utm_campaign=yelp_api_v3&utm_medium=api_v3_business_search&utm_source=_xGZBQTFH5RSnMk3I7VtQQ", "price": "$", "coordinates": {"latitude": 42.0158901, "longitude": -87.6686027}, "phone": "+17732744117", "image_url": "https://s3-media1.fl.yelpcdn.com/bphoto/StVGU70vLNApHVRRfn_wsQ/o.jpg", "location": {"city": "Chicago", "country": "US", "address2": "", "address3": "", "state": "IL", "address1": "1505 W Jarvis Ave", "zip_code": "60626"}, "id": "jarvis-grill-and-wok-chicago", "categories": [{"alias": "hotdogs", "title": "Fast Food"}, {"alias": "hotdog", "title": "Hot Dogs"}]}]}
{"total": 323, "businesses": [{"rating": 4.5, "review_count": 7, "name": "Emil Bach House", "url": "https://www.yelp.com/biz/emil-bach-house-chicago?adjust_creative=_xGZBQTFH5RSnMk3I7VtQQ&utm_campaign=yelp_api_v3&utm_medium=api_v3_business_search&utm_source=_xGZBQTFH5RSnMk3I7VtQQ", "coordinates": {"latitude": 42.016584, "longitude": -87.664749}, "image_url": "https://s3-media2.fl.yelpcdn.com/bphoto/1Rl9ARnkgbUFm4JIAcoJFg/o.jpg", "location": {"city": "Chicago", "country": "US", "address2": "", "address3": "", "state": "IL", "address1": "7415 N Sheridan Rd", "zip_code": "60626"}, "id": "emil-bach-house-chicago", "categories": [{"alias": "landmarks", "title": "Landmarks & Historical Buildings"}, {"alias": "museums", "title": "Museums"}]}]}
{"total": 323, "businesses": [{"rating": 3.5, "review_count": 9, "name": "Leone Beach", "url": "https://www.yelp.com/biz/leone-beach-chicago?adjust_creative=_xGZBQTFH5RSnMk3I7VtQQ&utm_campaign=yelp_api_v3&utm_medium=api_v3_business_search&utm_source=_xGZBQTFH5RSnMk3I7VtQQ", "coordinates": {"latitude": 42.0130049, "longitude": -87.6619532}, "phone": "+17732628605", "image_url": "https://s3-media2.fl.yelpcdn.com/bphoto/_1KY8yiyHjSJJ_yeAxXwHA/o.jpg", "location": {"city": "Chicago", "country": "US", "address2": "", "address3": null, "state": "IL", "address1": "1222 W. Touhy Ave.", "zip_code": "60626"}, "id": "leone-beach-chicago", "categories": [{"alias": "beaches", "title": "Beaches"}, {"alias": "parks", "title": "Parks"}]}]}
{"total": 323, "businesses": [{"rating": 4.5, "review_count": 18, "name": "Chicago Northtown Locksmith", "url": "https://www.yelp.com/biz/chicago-northtown-locksmith-chicago-2?adjust_creative=_xGZBQTFH5RSnMk3I7VtQQ&utm_campaign=yelp_api_v3&utm_medium=api_v3_business_search&utm_source=_xGZBQTFH5RSnMk3I7VtQQ", "coordinates": {"latitude": 42.01741, "longitude": -87.66785}, "phone": "+17737972224", "image_url": "https://s3-media2.fl.yelpcdn.com/bphoto/yUDeN8TboQhEXUDu1UrKPQ/o.jpg", "location": {"city": "Chicago", "country": "US", "address2": "Ste 102", "address3": "", "state": "IL", "address1": "1456 W Fargo", "zip_code": "60626"}, "id": "chicago-northtown-locksmith-chicago-2", "categories": [{"alias": "locksmiths", "title": "Keys & Locksmiths"}]}]}
{"total": 323, "businesses": [{"rating": 5.0, "review_count": 12, "name": "Soulrise Astrology", "url": "https://www.yelp.com/biz/soulrise-astrology-chicago?adjust_creative=_xGZBQTFH5RSnMk3I7VtQQ&utm_campaign=yelp_api_v3&utm_medium=api_v3_business_search&utm_source=_xGZBQTFH5RSnMk3I7VtQQ", "coordinates": {"latitude": 42.015357, "longitude": -87.663917}, "phone": "+13126007685", "image_url": "https://s3-media2.fl.yelpcdn.com/bphoto/b1Me9vhF5yKfdGc-ykOSsQ/o.jpg", "location": {"city": "Chicago", "address1": "1205 W Sherwin", "address2": "Unit 800", "address3": "", "state": "IL", "country": "US", "zip_code": "60626"}, "id": "soulrise-astrology-chicago", "categories": [{"alias": "psychic_astrology", "title": "Psychics & Astrologers"}]}]}
{"total": 323, "businesses": [{"rating": 4.0, "review_count": 31, "name": "Lost Eras", "url": "https://www.yelp.com/biz/lost-eras-chicago-3?adjust_creative=_xGZBQTFH5RSnMk3I7VtQQ&utm_campaign=yelp_api_v3&utm_medium=api_v3_business_search&utm_source=_xGZBQTFH5RSnMk3I7VtQQ", "price": "$$", "coordinates": {"latitude": 42.0193046, "longitude": -87.6689854}, "phone": "+17737647400", "image_url": "https://s3-media2.fl.yelpcdn.com/bphoto/BEmdfSJSmz6BtMtax1e0Nw/o.jpg", "location": {"city": "Chicago", "country": "US", "address2": "", "address3": "", "state": "IL", "address1": "1511 W Howard St", "zip_code": "60626"}, "id": "lost-eras-chicago-3", "categories": [{"alias": "antiques", "title": "Antiques"}, {"alias": "costumes", "title": "Costumes"}]}]}
{"total": 323, "businesses": [{"rating": 4.0, "review_count": 26, "name": "Glenwood Sunday Market", "url": "https://www.yelp.com/biz/glenwood-sunday-market-chicago?adjust_creative=_xGZBQTFH5RSnMk3I7VtQQ&utm_campaign=yelp_api_v3&utm_medium=api_v3_business_search&utm_source=_xGZBQTFH5RSnMk3I7VtQQ", "price": "$$", "coordinates": {"latitude": 42.0112122, "longitude": -87.6658984}, "phone": "+17735085885", "image_url": "https://s3-media1.fl.yelpcdn.com/bphoto/FCSJt29WK8nM0rAgSJ-gMw/o.jpg", "location": {"city": "Chicago", "country": "US", "address2": "", "address3": "", "state": "IL", "address1": "6960 N Glenwood Ave", "zip_code": "60626"}, "id": "glenwood-sunday-market-chicago", "categories": [{"alias": "farmersmarket", "title": "Farmers Market"}]}]}
{"total": 323, "businesses": [{"rating": 5.0, "review_count": 6, "name": "Centered Studios", "url": "https://www.yelp.com/biz/centered-studios-chicago?adjust_creative=_xGZBQTFH5RSnMk3I7VtQQ&utm_campaign=yelp_api_v3&utm_medium=api_v3_business_search&utm_source=_xGZBQTFH5RSnMk3I7VtQQ", "coordinates": {"latitude": 42.0094049, "longitude": -87.6656319}, "phone": "+13122290093", "image_url": "https://s3-media2.fl.yelpcdn.com/bphoto/gqKpl_v_EhJv0OUE481CPQ/o.jpg", "location": {"city": "Chicago", "country": "US", "address2": null, "address3": "", "state": "IL", "address1": "7009 N Glenwood Ave", "zip_code": "60626"}, "id": "centered-studios-chicago", "categories": [{"alias": "yoga", "title": "Yoga"}, {"alias": "massage", "title": "Massage"}, {"alias": "acupuncture", "title": "Acupuncture"}]}]}
{"total": 323, "businesses": [{"rating": 3.5, "review_count": 60, "name": "Carmen's Beauty", "url": "https://www.yelp.com/biz/carmens-beauty-chicago-3?adjust_creative=_xGZBQTFH5RSnMk3I7VtQQ&utm_campaign=yelp_api_v3&utm_medium=api_v3_business_search&utm_source=_xGZBQTFH5RSnMk3I7VtQQ", "price": "$", "coordinates": {"latitude": 42.006031, "longitude": -87.6612167}, "phone": "+17737640131", "image_url": "https://s3-media1.fl.yelpcdn.com/bphoto/DtPbeR_InUfxcoNbuVOv2w/o.jpg", "location": {"city": "Chicago", "address1": "6810 N Sheridan Rd", "address2": "", "address3": "", "state": "IL", "country": "US", "zip_code": "60626"}, "id": "carmens-beauty-chicago-3", "categories": [{"alias": "hair", "title": "Hair Salons"}, {"alias": "hairremoval", "title": "Hair Removal"}, {"alias": "othersalons", "title": "Nail Salons"}]}]}
{"total": 323, "businesses": [{"rating": 3.0, "review_count": 33, "name": "Brunos Lounge", "url": "https://www.yelp.com/biz/brunos-lounge-chicago?adjust_creative=_xGZBQTFH5RSnMk3I7VtQQ&utm_campaign=yelp_api_v3&utm_medium=api_v3_business_search&utm_source=_xGZBQTFH5RSnMk3I7VtQQ", "price": "$", "coordinates": {"latitude": 42.0019428, "longitude": -87.6609471}, "phone": "+17737647900", "image_url": "https://s3-media2.fl.yelpcdn.com/bphoto/4Pv0hSfPQTGiUCf89lXPDg/o.jpg", "location": {"city": "Chicago", "country": "US", "address2": "", "address3": "", "state": "IL", "address1": "6562 N Sheridan Rd", "zip_code": "60626"}, "id": "brunos-lounge-chicago", "categories": [{"alias": "divebars", "title": "Dive Bars"}, {"alias": "beer_and_wine", "title": "Beer, Wine & Spirits"}]}]}
{"total": 323, "businesses": [{"rating": 3.5, "review_count": 18, "name": "Blaze Fast-Fire'd Pizza", "url": "https://www.yelp.com/biz/blaze-fast-fired-pizza-chicago-4?adjust_creative=_xGZBQTFH5RSnMk3I7VtQQ&utm_campaign=yelp_api_v3&utm_medium=api_v3_business_search&utm_source=_xGZBQTFH5RSnMk3I7VtQQ", "price": "$", "coordinates": {"latitude": 42.00168, "longitude": -87.66119}, "phone": "+17739618330", "image_url": "https://s3-media2.fl.yelpcdn.com/bphoto/4EVmPDKxJP_lesOXkGXMGA/o.jpg", "location": {"city": "Chicago", "country": "US", "address2": null, "address3": null, "state": "IL", "address1": "6550 N Sheridan Rd", "zip_code": "60626"}, "id": "blaze-fast-fired-pizza-chicago-4", "categories": [{"alias": "salad", "title": "Salad"}, {"alias": "gluten_free", "title": "Gluten-Free"}, {"alias": "pizza", "title": "Pizza"}]}]}
{"total": 323, "businesses": [{"rating": 4.5, "review_count": 10, "name": "Hops & Grapes", "url": "https://www.yelp.com/biz/hops-and-grapes-chicago?adjust_creative=_xGZBQTFH5RSnMk3I7VtQQ&utm_campaign=yelp_api_v3&utm_medium=api_v3_business_search&utm_source=_xGZBQTFH5RSnMk3I7VtQQ", "price": "$$", "coordinates": {"latitude": 42.0060658, "longitude": -87.6612317}, "phone": "+17738098938", "image_url": "https://s3-media3.fl.yelpcdn.com/bphoto/I4vfxvpLH4evDVhsUfO-Vw/o.jpg", "location": {"city": "Chicago", "address1": "6816 N Sheridan Rd", "address2": "", "address3": "", "state": "IL", "country": "US", "zip_code": "60626"}, "id": "hops-and-grapes-chicago", "categories": [{"alias": "beer_and_wine", "title": "Beer, Wine & Spirits"}]}]}
{"total": 323, "businesses": [{"rating": 4.0, "review_count": 5, "name": "Howard Street Park & Beach", "url": "https://www.yelp.com/biz/howard-street-park-and-beach-chicago?adjust_creative=_xGZBQTFH5RSnMk3I7VtQQ&utm_campaign=yelp_api_v3&utm_medium=api_v3_business_search&utm_source=_xGZBQTFH5RSnMk3I7VtQQ", "coordinates": {"latitude": 42.0194, "longitude": -87.66497}, "phone": "", "image_url": "https://s3-media4.fl.yelpcdn.com/bphoto/WKfDA8BW54U3jkSlRKJLcg/o.jpg", "location": {"city": "Chicago", "country": "US", "address2": "", "address3": "", "state": "IL", "address1": "7600 N Eastlake Ter", "zip_code": "60626"}, "id": "howard-street-park-and-beach-chicago", "categories": [{"alias": "parks", "title": "Parks"}, {"alias": "beaches", "title": "Beaches"}]}]}
{"total": 323, "businesses": [{"rating": 4.5, "review_count": 8, "name": "Goldenson's Morse L Drugs", "url": "https://www.yelp.com/biz/goldensons-morse-l-drugs-chicago?adjust_creative=_xGZBQTFH5RSnMk3I7VtQQ&utm_campaign=yelp_api_v3&utm_medium=api_v3_business_search&utm_source=_xGZBQTFH5RSnMk3I7VtQQ", "price": "$", "coordinates": {"latitude": 42.0077893, "longitude": -87.6662252}, "phone": "+17737438400", "image_url": "https://s3-media3.fl.yelpcdn.com/bphoto/jz9UfJzNmoaVAbAXjXR5pQ/o.jpg", "location": {"city": "Chicago", "country": "US", "address2": "", "address3": "", "state": "IL", "address1": "1407 W Morse Ave", "zip_code": "60626"}, "id": "goldensons-morse-l-drugs-chicago", "categories": [{"alias": "drugstores", "title": "Drugstores"}]}]}
{"total": 323, "businesses": [{"rating": 4.0, "review_count": 31, "name": "Joe & Harveys European Tailor & Cleaners", "url": "https://www.yelp.com/biz/joe-and-harveys-european-tailor-and-cleaners-chicago?adjust_creative=_xGZBQTFH5RSnMk3I7VtQQ&utm_campaign=yelp_api_v3&utm_medium=api_v3_business_search&utm_source=_xGZBQTFH5RSnMk3I7VtQQ", "price": "$$", "coordinates": {"latitude": 42.011879, "longitude": -87.6634521}, "phone": "+12245959590", "image_url": "https://s3-media4.fl.yelpcdn.com/bphoto/4iMArFr9fq2sRvR-1l6J5A/o.jpg", "location": {"city": "Chicago", "address1": "7100 N Sheridan Rd", "address2": "", "address3": "", "state": "IL", "country": "US", "zip_code": "60626"}, "id": "joe-and-harveys-european-tailor-and-cleaners-chicago", "categories": [{"alias": "drycleaninglaundry", "title": "Dry Cleaning & Laundry"}, {"alias": "sewingalterations", "title": "Sewing & Alterations"}]}]}
{"total": 323, "businesses": [{"rating": 5.0, "review_count": 4, "name": "Leader of the Pack Dog Walking", "url": "https://www.yelp.com/biz/leader-of-the-pack-dog-walking-chicago-2?adjust_creative=_xGZBQTFH5RSnMk3I7VtQQ&utm_campaign=yelp_api_v3&utm_medium=api_v3_business_search&utm_source=_xGZBQTFH5RSnMk3I7VtQQ", "coordinates": {"latitude": 42.00662, "longitude": -87.66237}, "phone": "+17739818882", "image_url": "https://s3-media3.fl.yelpcdn.com/bphoto/VT5kmc0gHhkH9hOGWh716w/o.jpg", "location": {"city": "Chicago", "address1": "1225 W Farwell", "address2": "", "address3": "", "state": "IL", "country": "US", "zip_code": "60626"}, "id": "leader-of-the-pack-dog-walking-chicago-2", "categories": [{"alias": "dogwalkers", "title": "Dog Walkers"}, {"alias": "pet_sitting", "title": "Pet Boarding/Pet Sitting"}]}]}
{"total": 323, "businesses": [{"rating": 5.0, "review_count": 6, "name": "Sweet Magic Studio", "url": "https://www.yelp.com/biz/sweet-magic-studio-chicago-4?adjust_creative=_xGZBQTFH5RSnMk3I7VtQQ&utm_campaign=yelp_api_v3&utm_medium=api_v3_business_search&utm_source=_xGZBQTFH5RSnMk3I7VtQQ", "coordinates": {"latitude": 42.0085594, "longitude": -87.6621016}, "phone": "+17737646488", "image_url": "https://s3-media1.fl.yelpcdn.com/bphoto/vcN_la0qUnQ88U20Wgc-sQ/o.jpg", "location": {"city": "Chicago", "country": "US", "address2": "Ste B", "address3": "", "state": "IL", "address1": "6960 N Sheridan Rd", "zip_code": "60626"}, "id": "sweet-magic-studio-chicago-4", "categories": [{"alias": "yoga", "title": "Yoga"}, {"alias": "dancestudio", "title": "Dance Studios"}]}]}
{"total": 323, "businesses": [{"rating": 2.5, "review_count": 82, "name": "Chuckie's", "url": "https://www.yelp.com/biz/chuckies-chicago?adjust_creative=_xGZBQTFH5RSnMk3I7VtQQ&utm_campaign=yelp_api_v3&utm_medium=api_v3_business_search&utm_source=_xGZBQTFH5RSnMk3I7VtQQ", "price": "$$", "coordinates": {"latitude": 42.0082359313965, "longitude": -87.6665191650391}, "phone": "+17737617777", "image_url": "https://s3-media4.fl.yelpcdn.com/bphoto/xJk4lxQYSPGouFUNeWjPUw/o.jpg", "location": {"city": "Chicago", "country": "US", "address2": "", "address3": "", "state": "IL", "address1": "1412 W Morse", "zip_code": "60626"}, "id": "chuckies-chicago", "categories": [{"alias": "lounges", "title": "Lounges"}, {"alias": "pizza", "title": "Pizza"}]}]}
{"total": 323, "businesses": [{"rating": 5.0, "review_count": 4, "name": "Kreative Soul Boutique", "url": "https://www.yelp.com/biz/kreative-soul-boutique-chicago?adjust_creative=_xGZBQTFH5RSnMk3I7VtQQ&utm_campaign=yelp_api_v3&utm_medium=api_v3_business_search&utm_source=_xGZBQTFH5RSnMk3I7VtQQ", "price": "$$", "coordinates": {"latitude": 42.0117573, "longitude": -87.6657116}, "phone": "+17737277918", "image_url": "", "location": {"city": "Chicago", "country": "US", "address2": "", "address3": "", "state": "IL", "address1": "7109 N Glenwood", "zip_code": "60626"}, "id": "kreative-soul-boutique-chicago", "categories": [{"alias": "jewelry", "title": "Jewelry"}]}]}
{"total": 323, "businesses": [{"rating": 5.0, "review_count": 5, "name": "Sit Stay Enjoy", "url": "https://www.yelp.com/biz/sit-stay-enjoy-chicago?adjust_creative=_xGZBQTFH5RSnMk3I7VtQQ&utm_campaign=yelp_api_v3&utm_medium=api_v3_business_search&utm_source=_xGZBQTFH5RSnMk3I7VtQQ", "coordinates": {"latitude": 42.0099321, "longitude": -87.6629162539673}, "phone": "+17737616840", "image_url": "https://s3-media2.fl.yelpcdn.com/bphoto/MK8iVU2Eze2Bpo8qeBVoGQ/o.jpg", "location": {"city": "Chicago", "country": "US", "address2": "", "address3": "", "state": "IL", "address1": "", "zip_code": "60626"}, "id": "sit-stay-enjoy-chicago", "categories": [{"alias": "pet_sitting", "title": "Pet Boarding/Pet Sitting"}]}]}
{"total": 323, "businesses": [{"rating": 4.5, "review_count": 12, "name": "Precious Maids", "url": "https://www.yelp.com/biz/precious-maids-chicago?adjust_creative=_xGZBQTFH5RSnMk3I7VtQQ&utm_campaign=yelp_api_v3&utm_medium=api_v3_business_search&utm_source=_xGZBQTFH5RSnMk3I7VtQQ", "coordinates": {"latitude": 42.01053, "longitude": -87.66843}, "phone": "+17739426401", "image_url": "https://s3-media2.fl.yelpcdn.com/bphoto/gMIwESHtcw21Il_Gz0898w/o.jpg", "location": {"city": "Chicago", "country": "US", "address2": "", "address3": "", "state": "IL", "address1": "", "zip_code": "60626"}, "id": "precious-maids-chicago", "categories": [{"alias": "homecleaning", "title": "Home Cleaning"}]}]}
{"total": 323, "businesses": [{"rating": 5.0, "review_count": 8, "name": "Vive Yoga", "url": "https://www.yelp.com/biz/vive-yoga-chicago?adjust_creative=_xGZBQTFH5RSnMk3I7VtQQ&utm_campaign=yelp_api_v3&utm_medium=api_v3_business_search&utm_source=_xGZBQTFH5RSnMk3I7VtQQ", "coordinates": {"latitude": 42.0019599, "longitude": -87.66121}, "phone": "+17737429059", "image_url": "https://s3-media4.fl.yelpcdn.com/bphoto/QcxOkKmohPXQnVWc9WRuBg/o.jpg", "location": {"city": "Chicago", "country": "US", "address2": "Ste 206", "address3": "", "state": "IL", "address1": "6560 N Sheridan Rd", "zip_code": "60626"}, "id": "vive-yoga-chicago", "categories": [{"alias": "yoga", "title": "Yoga"}, {"alias": "meditationcenters", "title": "Meditation Centers"}]}]}
{"total": 323, "businesses": [{"rating": 4.5, "review_count": 8, "name": "Glenwood Ave Arts Festival", "url": "https://www.yelp.com/biz/glenwood-ave-arts-festival-chicago?adjust_creative=_xGZBQTFH5RSnMk3I7VtQQ&utm_campaign=yelp_api_v3&utm_medium=api_v3_business_search&utm_source=_xGZBQTFH5RSnMk3I7VtQQ", "coordinates": {"latitude": 42.007900224596, "longitude": -87.6661466062511}, "image_url": "https://s3-media2.fl.yelpcdn.com/bphoto/AcbNbXt2529SO_eTImzwzw/o.jpg", "location": {"city": "Chicago", "country": "US", "address2": "", "address3": "", "state": "IL", "address1": "Glenwood Ave & Morse Ave", "zip_code": "60626"}, "id": "glenwood-ave-arts-festival-chicago", "categories": [{"alias": "festivals", "title": "Festivals"}]}]}
{"total": 323, "businesses": [{"rating": 5.0, "review_count": 7, "name": "Precision Window Tinting", "url": "https://www.yelp.com/biz/precision-window-tinting-chicago?adjust_creative=_xGZBQTFH5RSnMk3I7VtQQ&utm_campaign=yelp_api_v3&utm_medium=api_v3_business_search&utm_source=_xGZBQTFH5RSnMk3I7VtQQ", "coordinates": {"latitude": 42.0099321, "longitude": -87.663045}, "phone": "+18006838468", "image_url": "https://s3-media4.fl.yelpcdn.com/bphoto/m8zbl6LjGiw0ID0vYcOYXQ/o.jpg", "location": {"city": "Chicago", "country": "US", "address2": null, "address3": "", "state": "IL", "address1": "", "zip_code": "60626"}, "id": "precision-window-tinting-chicago", "categories": [{"alias": "blinds", "title": "Shades & Blinds"}, {"alias": "homewindowtinting", "title": "Home Window Tinting"}]}]}
{"total": 323, "businesses": [{"rating": 5.0, "review_count": 6, "name": "Harmonious Healing Touch Massage", "url": "https://www.yelp.com/biz/harmonious-healing-touch-massage-chicago?adjust_creative=_xGZBQTFH5RSnMk3I7VtQQ&utm_campaign=yelp_api_v3&utm_medium=api_v3_business_search&utm_source=_xGZBQTFH5RSnMk3I7VtQQ", "price": "$$", "coordinates": {"latitude": 42.0095854060986, "longitude": -87.669041961532}, "phone": "+17738482448", "image_url": "https://s3-media3.fl.yelpcdn.com/bphoto/d3RV_8ZxPWpBtscvX8elng/o.jpg", "location": {"city": "Chicago", "country": "US", "address2": "", "address3": "", "state": "IL", "address1": "Rogers Park", "zip_code": "60626"}, "id": "harmonious-healing-touch-massage-chicago", "categories": [{"alias": "massage", "title": "Massage"}, {"alias": "massage_therapy", "title": "Massage Therapy"}]}]}
{"total": 323, "businesses": [{"rating": 5.0, "review_count": 4, "name": "Andy's PC and Mac Repair", "url": "https://www.yelp.com/biz/andys-pc-and-mac-repair-chicago?adjust_creative=_xGZBQTFH5RSnMk3I7VtQQ&utm_campaign=yelp_api_v3&utm_medium=api_v3_business_search&utm_source=_xGZBQTFH5RSnMk3I7VtQQ", "price": "$$", "coordinates": {"latitude": 42.0117066800594, "longitude": -87.6632085442543}, "phone": "+17734332688", "image_url": "https://s3-media2.fl.yelpcdn.com/bphoto/YMwj7FVIsoSiZIMPeFsNbg/o.jpg", "location": {"city": "Chicago", "country": "US", "address2": null, "address3": "", "state": "IL", "address1": "1304 W Estes Ave", "zip_code": "60626"}, "id": "andys-pc-and-mac-repair-chicago", "categories": [{"alias": "itservices", "title": "IT Services & Computer Repair"}, {"alias": "computers", "title": "Computers"}]}]}
{"total": 323, "businesses": [{"rating": 4.5, "review_count": 7, "name": "Kim's Corner Food", "url": "https://www.yelp.com/biz/kims-corner-food-chicago?adjust_creative=_xGZBQTFH5RSnMk3I7VtQQ&utm_campaign=yelp_api_v3&utm_medium=api_v3_business_search&utm_source=_xGZBQTFH5RSnMk3I7VtQQ", "price": "$$", "coordinates": {"latitude": 42.011431, "longitude": -87.6655181}, "phone": "+17734652702", "image_url": "https://s3-media1.fl.yelpcdn.com/bphoto/DGj_H2bCatW1Ch3_i6_92w/o.jpg", "location": {"city": "Chicago", "country": "US", "address2": "", "address3": "", "state": "IL", "address1": "1371 W Estes Ave", "zip_code": "60626"}, "id": "kims-corner-food-chicago", "categories": [{"alias": "grocery", "title": "Grocery"}]}]}
{"total": 323, "businesses": [{"rating": 3.5, "review_count": 19, "name": "Cameo Cleaners", "url": "https://www.yelp.com/biz/cameo-cleaners-chicago?adjust_creative=_xGZBQTFH5RSnMk3I7VtQQ&utm_campaign=yelp_api_v3&utm_medium=api_v3_business_search&utm_source=_xGZBQTFH5RSnMk3I7VtQQ", "price": "$$", "coordinates": {"latitude": 42.007798132417, "longitude": -87.665662732395}, "phone": "+17737647090", "image_url": "https://s3-media1.fl.yelpcdn.com/bphoto/HRIDv0JmtF-ngfCg2JiafA/o.jpg", "location": {"city": "Chicago", "address1": "1349 W Morse Ave", "address2": "", "address3": "", "state": "IL", "country": "US", "zip_code": "60626"}, "id": "cameo-cleaners-chicago", "categories": [{"alias": "drycleaninglaundry", "title": "Dry Cleaning & Laundry"}]}]}
{"total": 323, "businesses": [{"rating": 4.5, "review_count": 7, "name": "Chicago Comedy Film Festival", "url": "https://www.yelp.com/biz/chicago-comedy-film-festival-chicago?adjust_creative=_xGZBQTFH5RSnMk3I7VtQQ&utm_campaign=yelp_api_v3&utm_medium=api_v3_business_search&utm_source=_xGZBQTFH5RSnMk3I7VtQQ", "coordinates": {"latitude": 42.0048218, "longitude": -87.6610565}, "image_url": "https://s3-media4.fl.yelpcdn.com/bphoto/O038vkQmQ7Oi7jA-08Uc_A/o.jpg", "location": {"city": "Chicago", "country": "US", "address2": "6746 N Sheridan Rd", "address3": "", "state": "IL", "address1": "The New 400 Theater", "zip_code": "60626"}, "id": "chicago-comedy-film-festival-chicago", "categories": [{"alias": "festivals", "title": "Festivals"}]}]}
{"total": 323, "businesses": [{"rating": 3.5, "review_count": 24, "name": "Sudz Laundry", "url": "https://www.yelp.com/biz/sudz-laundry-chicago?adjust_creative=_xGZBQTFH5RSnMk3I7VtQQ&utm_campaign=yelp_api_v3&utm_medium=api_v3_business_search&utm_source=_xGZBQTFH5RSnMk3I7VtQQ", "price": "$", "coordinates": {"latitude": 42.00754, "longitude": -87.66701}, "phone": "+17734653806", "image_url": "https://s3-media2.fl.yelpcdn.com/bphoto/ztV4eK9hkM0vRs4FCu7qgA/o.jpg", "location": {"city": "Chicago", "country": "US", "address2": "", "address3": "", "state": "IL", "address1": "1425 W Morse Ave", "zip_code": "60626"}, "id": "sudz-laundry-chicago", "categories": [{"alias": "drycleaninglaundry", "title": "Dry Cleaning & Laundry"}]}]}
{"total": 323, "businesses": [{"rating": 4.0, "review_count": 23, "name": "Elite On Jarvis", "url": "https://www.yelp.com/biz/elite-on-jarvis-chicago?adjust_creative=_xGZBQTFH5RSnMk3I7VtQQ&utm_campaign=yelp_api_v3&utm_medium=api_v3_business_search&utm_source=_xGZBQTFH5RSnMk3I7VtQQ", "coordinates": {"latitude": 42.016633, "longitude": -87.669264}, "phone": "+17732744474", "image_url": "https://s3-media3.fl.yelpcdn.com/bphoto/Z7EedB2kUdSlVDlLU-8Ymg/o.jpg", "location": {"city": "Chicago", "country": "US", "address2": "", "address3": "", "state": "IL", "address1": "1524 W Jarvis Ave", "zip_code": "60626"}, "id": "elite-on-jarvis-chicago", "categories": [{"alias": "autorepair", "title": "Auto Repair"}, {"alias": "bodyshops", "title": "Body Shops"}, {"alias": "towing", "title": "Towing"}]}]}
{"total": 323, "businesses": [{"rating": 5.0, "review_count": 5, "name": "Dave Ouano Photography", "url": "https://www.yelp.com/biz/dave-ouano-photography-chicago?adjust_creative=_xGZBQTFH5RSnMk3I7VtQQ&utm_campaign=yelp_api_v3&utm_medium=api_v3_business_search&utm_source=_xGZBQTFH5RSnMk3I7VtQQ", "coordinates": {"latitude": 42.0043411, "longitude": -87.6604233}, "phone": "+17738600162", "image_url": "https://s3-media3.fl.yelpcdn.com/bphoto/2jW8wjqmn5PZIB8HuqR8Nw/o.jpg", "location": {"city": "Chicago", "country": "US", "address2": "Ste 311", "address3": "", "state": "IL", "address1": "6725 N Sheridan Rd", "zip_code": "60626"}, "id": "dave-ouano-photography-chicago", "categories": [{"alias": "sessionphotography", "title": "Session Photography"}, {"alias": "eventphotography", "title": "Event Photography"}]}]}
{"total": 323, "businesses": [{"rating": 4.5, "review_count": 6, "name": "Signature Staging", "url": "https://www.yelp.com/biz/signature-staging-chicago-2?adjust_creative=_xGZBQTFH5RSnMk3I7VtQQ&utm_campaign=yelp_api_v3&utm_medium=api_v3_business_search&utm_source=_xGZBQTFH5RSnMk3I7VtQQ", "coordinates": {"latitude": 42.0121373, "longitude": -87.6644949}, "phone": "+13128549515", "image_url": "https://s3-media2.fl.yelpcdn.com/bphoto/aADU1Pa91_uhvlQS0dBm-A/o.jpg", "location": {"city": "Chicago", "country": "US", "address2": "Ste 1N", "address3": "", "state": "IL", "address1": "1338 W Estes Ave", "zip_code": "60626"}, "id": "signature-staging-chicago-2", "categories": [{"alias": "homestaging", "title": "Home Staging"}]}]}
{"total": 323, "businesses": [{"rating": 4.5, "review_count": 15, "name": "K-9 to 5, Inc", "url": "https://www.yelp.com/biz/k-9-to-5-inc-chicago?adjust_creative=_xGZBQTFH5RSnMk3I7VtQQ&utm_campaign=yelp_api_v3&utm_medium=api_v3_business_search&utm_source=_xGZBQTFH5RSnMk3I7VtQQ", "coordinates": {"latitude": 42.010107, "longitude": -87.662828}, "phone": "+17734509929", "image_url": "https://s3-media3.fl.yelpcdn.com/bphoto/_zGDHVtUOfCsda6P_vuMpw/o.jpg", "location": {"city": "Chicago", "country": "US", "address2": "", "address3": "", "state": "IL", "address1": "7032 N Sheridan Rd", "zip_code": "60626"}, "id": "k-9-to-5-inc-chicago", "categories": [{"alias": "dogwalkers", "title": "Dog Walkers"}, {"alias": "pet_sitting", "title": "Pet Boarding/Pet Sitting"}]}]}
{"total": 323, "businesses": [{"rating": 5.0, "review_count": 3, "name": "Pride North", "url": "https://www.yelp.com/biz/pride-north-chicago?adjust_creative=_xGZBQTFH5RSnMk3I7VtQQ&utm_campaign=yelp_api_v3&utm_medium=api_v3_business_search&utm_source=_xGZBQTFH5RSnMk3I7VtQQ", "coordinates": {"latitude": 42.0079193, "longitude": -87.6657333}, "image_url": "https://s3-media1.fl.yelpcdn.com/bphoto/aX3YDY1kFb5oRxfeOHQByg/o.jpg", "location": {"city": "Chicago", "address1": "Morse & Glenwood Ave", "address2": "", "address3": "", "state": "IL", "country": "US", "zip_code": "60626"}, "id": "pride-north-chicago", "categories": [{"alias": "festivals", "title": "Festivals"}]}]}
{"total": 323, "businesses": [{"rating": 4.0, "review_count": 5, "name": "Eco Conscious Housekeepers", "url": "https://www.yelp.com/biz/eco-conscious-housekeepers-chicago?adjust_creative=_xGZBQTFH5RSnMk3I7VtQQ&utm_campaign=yelp_api_v3&utm_medium=api_v3_business_search&utm_source=_xGZBQTFH5RSnMk3I7VtQQ", "coordinates": {"latitude": 42.016039788723, "longitude": -87.6631562411785}, "phone": "+17733810779", "image_url": "", "location": {"city": "Chicago", "country": "US", "address2": "", "address3": "", "state": "IL", "address1": "1207 W Jarvis Ave", "zip_code": "60626"}, "id": "eco-conscious-housekeepers-chicago", "categories": [{"alias": "homecleaning", "title": "Home Cleaning"}]}]}
{"total": 323, "businesses": [{"rating": 5.0, "review_count": 2, "name": "Artists of the Wall Festival", "url": "https://www.yelp.com/biz/artists-of-the-wall-festival-chicago?adjust_creative=_xGZBQTFH5RSnMk3I7VtQQ&utm_campaign=yelp_api_v3&utm_medium=api_v3_business_search&utm_source=_xGZBQTFH5RSnMk3I7VtQQ", "coordinates": {"latitude": 42.0068479709816, "longitude": -87.6577287613464}, "phone": "+17732503378", "image_url": "https://s3-media2.fl.yelpcdn.com/bphoto/vrxt9dARX52baTVb1Ov2ig/o.jpg", "location": {"city": "Chicago", "country": "US", "address2": "Loyal Park and Pratt Avenue", "address3": "", "state": "IL", "address1": "6900 North Loyola Park", "zip_code": "60626"}, "id": "artists-of-the-wall-festival-chicago", "categories": [{"alias": "parks", "title": "Parks"}, {"alias": "festivals", "title": "Festivals"}]}]}
{"total": 323, "businesses": [{"rating": 4.0, "review_count": 3, "name": "Subway", "url": "https://www.yelp.com/biz/subway-chicago-296?adjust_creative=_xGZBQTFH5RSnMk3I7VtQQ&utm_campaign=yelp_api_v3&utm_medium=api_v3_business_search&utm_source=_xGZBQTFH5RSnMk3I7VtQQ", "price": "$", "coordinates": {"latitude": 42.0127809047699, "longitude": -87.663913294673}, "phone": "+17732745111", "image_url": "https://s3-media2.fl.yelpcdn.com/bphoto/a_A0Aca3M8RKwFWXPexexQ/o.jpg", "location": {"city": "Chicago", "address1": "1313 W Touhy Ave", "address2": "", "address3": "", "state": "IL", "country": "US", "zip_code": "60626"}, "id": "subway-chicago-296", "categories": [{"alias": "sandwiches", "title": "Sandwiches"}, {"alias": "hotdogs", "title": "Fast Food"}]}]}
{"total": 323, "businesses": [{"rating": 5.0, "review_count": 5, "name": "Shot Time Productions", "url": "https://www.yelp.com/biz/shot-time-productions-chicago?adjust_creative=_xGZBQTFH5RSnMk3I7VtQQ&utm_campaign=yelp_api_v3&utm_medium=api_v3_business_search&utm_source=_xGZBQTFH5RSnMk3I7VtQQ", "coordinates": {"latitude": 42.001083, "longitude": -87.664558}, "phone": "+18447873456", "image_url": "https://s3-media4.fl.yelpcdn.com/bphoto/AzRAqKAp4nX0sYXzorS60g/o.jpg", "location": {"city": "Chicago", "country": "US", "address2": "Unit G2", "address3": "", "state": "IL", "address1": "1329 W Loyola Ave", "zip_code": "60626"}, "id": "shot-time-productions-chicago", "categories": [{"alias": "videofilmproductions", "title": "Video/Film Production"}, {"alias": "videographers", "title": "Videographers"}, {"alias": "eventphotography", "title": "Event Photography"}]}]}
{"total": 323, "businesses": [{"rating": 4.0, "review_count": 4, "name": "K9-5 Dog Walking and Pet Care", "url": "https://www.yelp.com/biz/k9-5-dog-walking-and-pet-care-chicago?adjust_creative=_xGZBQTFH5RSnMk3I7VtQQ&utm_campaign=yelp_api_v3&utm_medium=api_v3_business_search&utm_source=_xGZBQTFH5RSnMk3I7VtQQ", "coordinates": {"latitude": 42.0066, "longitude": -87.66729}, "phone": "+17738659516", "image_url": "https://s3-media2.fl.yelpcdn.com/bphoto/_nLU42oWCw9kkt8oPKwVUw/o.jpg", "location": {"city": "Chicago", "address1": "", "address2": "", "address3": "", "state": "IL", "country": "US", "zip_code": "60626"}, "id": "k9-5-dog-walking-and-pet-care-chicago", "categories": [{"alias": "dogwalkers", "title": "Dog Walkers"}, {"alias": "pet_sitting", "title": "Pet Boarding/Pet Sitting"}]}]}
{"total": 323, "businesses": [{"rating": 5.0, "review_count": 5, "name": "Lulu Blossom", "url": "https://www.yelp.com/biz/lulu-blossom-chicago?adjust_creative=_xGZBQTFH5RSnMk3I7VtQQ&utm_campaign=yelp_api_v3&utm_medium=api_v3_business_search&utm_source=_xGZBQTFH5RSnMk3I7VtQQ", "price": "$", "coordinates": {"latitude": 42.01053, "longitude": -87.66843}, "phone": "+13124026701", "image_url": "https://s3-media1.fl.yelpcdn.com/bphoto/ExT_VnTqutfkMWJ6piJkig/o.jpg", "location": {"city": "Chicago", "country": "US", "address2": "", "address3": "", "state": "IL", "address1": "", "zip_code": "60626"}, "id": "lulu-blossom-chicago", "categories": [{"alias": "skincare", "title": "Skin Care"}, {"alias": "cosmetics", "title": "Cosmetics & Beauty Supply"}]}]}
{"total": 323, "businesses": [{"rating": 4.5, "review_count": 10, "name": "Valerie J Chalcraft, PhD", "url": "https://www.yelp.com/biz/valerie-j-chalcraft-phd-chicago?adjust_creative=_xGZBQTFH5RSnMk3I7VtQQ&utm_campaign=yelp_api_v3&utm_medium=api_v3_business_search&utm_source=_xGZBQTFH5RSnMk3I7VtQQ", "coordinates": {"latitude": 42.01035, "longitude": -87.66851}, "phone": "+13123915537", "image_url": "https://s3-media4.fl.yelpcdn.com/bphoto/lqtVGlpfALAEecT00g5lPQ/o.jpg", "location": {"city": "Chicago", "address1": "", "address2": null, "address3": "", "state": "IL", "country": "US", "zip_code": "60626"}, "id": "valerie-j-chalcraft-phd-chicago", "categories": [{"alias": "petservices", "title": "Pet Services"}, {"alias": "psychologists", "title": "Psychologists"}]}]}
{"total": 323, "businesses": [{"rating": 5.0, "review_count": 11, "name": "Handyman Artie", "url": "https://www.yelp.com/biz/handyman-artie-chicago-2?adjust_creative=_xGZBQTFH5RSnMk3I7VtQQ&utm_campaign=yelp_api_v3&utm_medium=api_v3_business_search&utm_source=_xGZBQTFH5RSnMk3I7VtQQ", "coordinates": {"latitude": 41.990972, "longitude": -87.667635}, "phone": "+18722161030", "image_url": "https://s3-media1.fl.yelpcdn.com/bphoto/kqjXkkhD6vrulrric5XICQ/o.jpg", "location": {"city": "Chicago", "country": "US", "address2": "", "address3": "", "state": "IL", "address1": "", "zip_code": "60660"}, "id": "handyman-artie-chicago-2", "categories": [{"alias": "handyman", "title": "Handyman"}]}]}
{"total": 323, "businesses": [{"rating": 4.5, "review_count": 9, "name": "Glenwood Dance Studio", "url": "https://www.yelp.com/biz/glenwood-dance-studio-chicago-2?adjust_creative=_xGZBQTFH5RSnMk3I7VtQQ&utm_campaign=yelp_api_v3&utm_medium=api_v3_business_search&utm_source=_xGZBQTFH5RSnMk3I7VtQQ", "coordinates": {"latitude": 42.011169, "longitude": -87.6658957}, "phone": "+17737697715", "image_url": "https://s3-media4.fl.yelpcdn.com/bphoto/h620zsczky2Ybi1xYhpkJA/o.jpg", "location": {"city": "Chicago", "address1": "7017 N Glenwood Ave", "address2": "", "address3": "", "state": "IL", "country": "US", "zip_code": "60626"}, "id": "glenwood-dance-studio-chicago-2", "categories": [{"alias": "theater", "title": "Performing Arts"}, {"alias": "dancestudio", "title": "Dance Studios"}]}]}
{"total": 323, "businesses": [{"rating": 2.5, "review_count": 5, "name": "Crepes on the Beach", "url": "https://www.yelp.com/biz/crepes-on-the-beach-chicago?adjust_creative=_xGZBQTFH5RSnMk3I7VtQQ&utm_campaign=yelp_api_v3&utm_medium=api_v3_business_search&utm_source=_xGZBQTFH5RSnMk3I7VtQQ", "price": "$$", "coordinates": {"latitude": 42.0105541476468, "longitude": -87.6602556679352}, "phone": "+13127223373", "image_url": "https://s3-media4.fl.yelpcdn.com/bphoto/ohWWZ_mrUjeGcDfvq6tkLw/o.jpg", "location": {"city": "Chicago", "country": "US", "address2": "", "address3": null, "state": "IL", "address1": "1230 W Greenleaf Ave", "zip_code": "60626"}, "id": "crepes-on-the-beach-chicago", "categories": [{"alias": "creperies", "title": "Creperies"}, {"alias": "hotdog", "title": "Hot Dogs"}, {"alias": "foodstands", "title": "Food Stands"}]}]}
{"total": 323, "businesses": [{"rating": 4.0, "review_count": 19, "name": "Pam's Pet Care", "url": "https://www.yelp.com/biz/pams-pet-care-chicago?adjust_creative=_xGZBQTFH5RSnMk3I7VtQQ&utm_campaign=yelp_api_v3&utm_medium=api_v3_business_search&utm_source=_xGZBQTFH5RSnMk3I7VtQQ", "coordinates": {"latitude": 42.0010008, "longitude": -87.6635233}, "phone": "+13125045033", "image_url": "https://s3-media2.fl.yelpcdn.com/bphoto/Parhno_Wx30SMT9otFBvfA/o.jpg", "location": {"city": "Chicago", "country": "US", "address2": "", "address3": "", "state": "IL", "address1": "6532 N Lakewood Ave.", "zip_code": "60626"}, "id": "pams-pet-care-chicago", "categories": [{"alias": "dogwalkers", "title": "Dog Walkers"}, {"alias": "pet_sitting", "title": "Pet Boarding/Pet Sitting"}]}]}
{"total": 323, "businesses": [{"rating": 5.0, "review_count": 4, "name": "Lang House", "url": "https://www.yelp.com/biz/lang-house-chicago?adjust_creative=_xGZBQTFH5RSnMk3I7VtQQ&utm_campaign=yelp_api_v3&utm_medium=api_v3_business_search&utm_source=_xGZBQTFH5RSnMk3I7VtQQ", "coordinates": {"latitude": 42.016737, "longitude": -87.664795}, "phone": "+17737649851", "image_url": "https://s3-media2.fl.yelpcdn.com/bphoto/rRrWlipjmhAqj2W68LekeQ/o.jpg", "location": {"city": "Chicago", "country": "US", "address2": "", "address3": "", "state": "IL", "address1": "7421 N Sheridan Rd", "zip_code": "60626"}, "id": "lang-house-chicago", "categories": [{"alias": "bedbreakfast", "title": "Bed & Breakfast"}]}]}
{"total": 323, "businesses": [{"rating": 4.5, "review_count": 6, "name": "Okrfoto", "url": "https://www.yelp.com/biz/okrfoto-chicago?adjust_creative=_xGZBQTFH5RSnMk3I7VtQQ&utm_campaign=yelp_api_v3&utm_medium=api_v3_business_search&utm_source=_xGZBQTFH5RSnMk3I7VtQQ", "coordinates": {"latitude": 42.0119209289551, "longitude": -87.6648101806641}, "phone": "+13129097412", "image_url": "https://s3-media4.fl.yelpcdn.com/bphoto/9c2XRh9auBZoL_iwayaKFw/o.jpg", "location": {"city": "Chicago", "address1": "1346 W Estes", "address2": null, "address3": "", "state": "IL", "country": "US", "zip_code": "60626"}, "id": "okrfoto-chicago", "categories": [{"alias": "photographers", "title": "Photographers"}]}]}
{"total": 323, "businesses": [{"rating": 3.5, "review_count": 25, "name": "Flatts & Sharpe Music Co.", "url": "https://www.yelp.com/biz/flatts-and-sharpe-music-co-chicago-4?adjust_creative=_xGZBQTFH5RSnMk3I7VtQQ&utm_campaign=yelp_api_v3&utm_medium=api_v3_business_search&utm_source=_xGZBQTFH5RSnMk3I7VtQQ", "price": "$$", "coordinates": {"latitude": 42.004943240547, "longitude": -87.660640615318}, "phone": "+17734655233", "image_url": "https://s3-media2.fl.yelpcdn.com/bphoto/ghhmYWrOokJopfGUaZCtOg/o.jpg", "location": {"city": "Chicago", "country": "US", "address2": "", "address3": "", "state": "IL", "address1": "6749 N Sheridan Rd", "zip_code": "60626"}, "id": "flatts-and-sharpe-music-co-chicago-4", "categories": [{"alias": "musicalinstrumentsandteachers", "title": "Musical Instruments & Teachers"}, {"alias": "musicinstrumentservices", "title": "Musical Instrument Services"}]}]}
{"total": 323, "businesses": [{"rating": 4.5, "review_count": 4, "name": "7-Eleven", "url": "https://www.yelp.com/biz/7-eleven-chicago-64?adjust_creative=_xGZBQTFH5RSnMk3I7VtQQ&utm_campaign=yelp_api_v3&utm_medium=api_v3_business_search&utm_source=_xGZBQTFH5RSnMk3I7VtQQ", "price": "$", "coordinates": {"latitude": 42.005712465963, "longitude": -87.660701637978}, "phone": "+17732620718", "image_url": "https://s3-media2.fl.yelpcdn.com/bphoto/BXwPLGZflfriMob26tAHOw/o.jpg", "location": {"city": "Chicago", "country": "US", "address2": "", "address3": "", "state": "IL", "address1": "6801 N Sheridan Rd", "zip_code": "60626"}, "id": "7-eleven-chicago-64", "categories": [{"alias": "convenience", "title": "Convenience Stores"}]}]}
{"total": 323, "businesses": [{"rating": 3.0, "review_count": 14, "name": "Sonnys Food Store", "url": "https://www.yelp.com/biz/sonnys-food-store-chicago?adjust_creative=_xGZBQTFH5RSnMk3I7VtQQ&utm_campaign=yelp_api_v3&utm_medium=api_v3_business_search&utm_source=_xGZBQTFH5RSnMk3I7VtQQ", "price": "$$", "coordinates": {"latitude": 42.0093742, "longitude": -87.6619737}, "phone": "+17733381528", "image_url": "https://s3-media2.fl.yelpcdn.com/bphoto/Vz6Z92D_tXvbS0cPteV4ZQ/o.jpg", "location": {"city": "Chicago", "country": "US", "address2": "", "address3": "", "state": "IL", "address1": "7001 N Sheridan Rd", "zip_code": "60626"}, "id": "sonnys-food-store-chicago", "categories": [{"alias": "grocery", "title": "Grocery"}]}]}
{"total": 323, "businesses": [{"rating": 5.0, "review_count": 1, "name": "Ireland's Pub", "url": "https://www.yelp.com/biz/irelands-pub-chicago?adjust_creative=_xGZBQTFH5RSnMk3I7VtQQ&utm_campaign=yelp_api_v3&utm_medium=api_v3_business_search&utm_source=_xGZBQTFH5RSnMk3I7VtQQ", "coordinates": {"latitude": 42.0005547255278, "longitude": -87.6606698334217}, "phone": "+17735082172", "image_url": "", "location": {"city": "Chicago", "country": "US", "address2": "", "address3": "", "state": "IL", "address1": "6511 N Sheridan Rd", "zip_code": "60626"}, "id": "irelands-pub-chicago", "categories": [{"alias": "bars", "title": "Bars"}]}]}
{"total": 323, "businesses": [{"rating": 5.0, "review_count": 5, "name": "Sun Telesolutions", "url": "https://www.yelp.com/biz/sun-telesolutions-chicago?adjust_creative=_xGZBQTFH5RSnMk3I7VtQQ&utm_campaign=yelp_api_v3&utm_medium=api_v3_business_search&utm_source=_xGZBQTFH5RSnMk3I7VtQQ", "coordinates": {"latitude": 42.0107154846191, "longitude": -87.6643905639648}, "phone": "+17737561739", "image_url": "https://s3-media3.fl.yelpcdn.com/bphoto/OBLQ29PH7vZjE8L7WR7N8g/o.jpg", "location": {"city": "Chicago", "country": "US", "address2": "Ste 4E", "address3": "", "state": "IL", "address1": "1344 W Greenleaf Ave", "zip_code": "60626"}, "id": "sun-telesolutions-chicago", "categories": [{"alias": "itservices", "title": "IT Services & Computer Repair"}, {"alias": "web_design", "title": "Web Design"}]}]}
{"total": 323, "businesses": [{"rating": 5.0, "review_count": 3, "name": "iCracked Professional iPhone, iPod and iPad Repair", "url": "https://www.yelp.com/biz/icracked-professional-iphone-ipod-and-ipad-repair-chicago-3?adjust_creative=_xGZBQTFH5RSnMk3I7VtQQ&utm_campaign=yelp_api_v3&utm_medium=api_v3_business_search&utm_source=_xGZBQTFH5RSnMk3I7VtQQ", "coordinates": {"latitude": 42.0095118114436, "longitude": -87.6698072023773}, "phone": "+13122487057", "image_url": "https://s3-media2.fl.yelpcdn.com/bphoto/CdCQfxROgHlAyysLEEbwew/o.jpg", "location": {"city": "Chicago", "country": "US", "address2": null, "address3": null, "state": "IL", "address1": null, "zip_code": "60626"}, "id": "icracked-professional-iphone-ipod-and-ipad-repair-chicago-3", "categories": [{"alias": "electronicsrepair", "title": "Electronics Repair"}, {"alias": "mobilephonerepair", "title": "Mobile Phone Repair"}]}]}
{"total": 323, "businesses": [{"rating": 4.0, "review_count": 5, "name": "Nicolenas Photography", "url": "https://www.yelp.com/biz/nicolenas-photography-chicago-2?adjust_creative=_xGZBQTFH5RSnMk3I7VtQQ&utm_campaign=yelp_api_v3&utm_medium=api_v3_business_search&utm_source=_xGZBQTFH5RSnMk3I7VtQQ", "coordinates": {"latitude": 42.0099321, "longitude": -87.663045}, "phone": "+17739778213", "image_url": "https://s3-media4.fl.yelpcdn.com/bphoto/dUzC4PZwbuSgDYeTtv1QSw/o.jpg", "location": {"city": "Chicago", "address1": "", "address2": "", "address3": "", "state": "IL", "country": "US", "zip_code": "60626"}, "id": "nicolenas-photography-chicago-2", "categories": [{"alias": "eventphotography", "title": "Event Photography"}]}]}
{"total": 323, "businesses": [{"rating": 5.0, "review_count": 5, "name": "Chicago Marketing Advantage", "url": "https://www.yelp.com/biz/chicago-marketing-advantage-chicago?adjust_creative=_xGZBQTFH5RSnMk3I7VtQQ&utm_campaign=yelp_api_v3&utm_medium=api_v3_business_search&utm_source=_xGZBQTFH5RSnMk3I7VtQQ", "coordinates": {"latitude": 42.0115419, "longitude": -87.6654761}, "phone": "+17734650573", "image_url": "https://s3-media1.fl.yelpcdn.com/bphoto/SkCwXcJSLI0lTOrMJAzjFQ/o.jpg", "location": {"city": "Chicago", "address1": "1363 W Estes Ave", "address2": "Apt 1R", "address3": "", "state": "IL", "country": "US", "zip_code": "60626"}, "id": "chicago-marketing-advantage-chicago", "categories": [{"alias": "marketing", "title": "Marketing"}]}]}
{"total": 323, "businesses": [{"rating": 5.0, "review_count": 2, "name": "JenInTheCity Design Studio", "url": "https://www.yelp.com/biz/jeninthecity-design-studio-chicago-3?adjust_creative=_xGZBQTFH5RSnMk3I7VtQQ&utm_campaign=yelp_api_v3&utm_medium=api_v3_business_search&utm_source=_xGZBQTFH5RSnMk3I7VtQQ", "coordinates": {"latitude": 42.0186998695135, "longitude": -87.6643987745047}, "phone": "+17733073100", "image_url": "https://s3-media4.fl.yelpcdn.com/bphoto/8UBB5h3MgGg98zejMM3sxg/o.jpg", "location": {"city": "Chicago", "country": "US", "address2": null, "address3": "", "state": "IL", "address1": "7514 N Eastlake Ter", "zip_code": "60626"}, "id": "jeninthecity-design-studio-chicago-3", "categories": [{"alias": "graphicdesign", "title": "Graphic Design"}]}]}
{"total": 323, "businesses": [{"rating": 5.0, "review_count": 3, "name": "Lakeside Treasures", "url": "https://www.yelp.com/biz/lakeside-treasures-chicago?adjust_creative=_xGZBQTFH5RSnMk3I7VtQQ&utm_campaign=yelp_api_v3&utm_medium=api_v3_business_search&utm_source=_xGZBQTFH5RSnMk3I7VtQQ", "price": "$$", "coordinates": {"latitude": 42.01634, "longitude": -87.66912}, "phone": "+17732629354", "image_url": "", "location": {"city": "Chicago", "country": "US", "address2": "", "address3": "", "state": "IL", "address1": "1520 W Jarvis Ave", "zip_code": "60626"}, "id": "lakeside-treasures-chicago", "categories": [{"alias": "antiques", "title": "Antiques"}]}]}
{"total": 323, "businesses": [{"rating": 5.0, "review_count": 2, "name": "Chicago Improv Associates", "url": "https://www.yelp.com/biz/chicago-improv-associates-chicago?adjust_creative=_xGZBQTFH5RSnMk3I7VtQQ&utm_campaign=yelp_api_v3&utm_medium=api_v3_business_search&utm_source=_xGZBQTFH5RSnMk3I7VtQQ", "coordinates": {"latitude": 42.01844, "longitude": -87.66356}, "phone": "+17737644942", "image_url": "https://s3-media2.fl.yelpcdn.com/bphoto/s-QsRGbj0cKDifW9LbIWaQ/o.jpg", "location": {"city": "Chicago", "address1": "1304 W Birchwood Ave", "address2": "Suite 2", "address3": "", "state": "IL", "country": "US", "zip_code": "60626"}, "id": "chicago-improv-associates-chicago", "categories": [{"alias": "eventplanning", "title": "Party & Event Planning"}, {"alias": "theater", "title": "Performing Arts"}]}]}
{"total": 323, "businesses": [{"rating": 5.0, "review_count": 2, "name": "Circle Imagine", "url": "https://www.yelp.com/biz/circle-imagine-chicago?adjust_creative=_xGZBQTFH5RSnMk3I7VtQQ&utm_campaign=yelp_api_v3&utm_medium=api_v3_business_search&utm_source=_xGZBQTFH5RSnMk3I7VtQQ", "coordinates": {"latitude": 42.0184783935547, "longitude": -87.6650924682617}, "image_url": "https://s3-media3.fl.yelpcdn.com/bphoto/SgfocldWhRFyPUAxHo9yQA/o.jpg", "location": {"city": "Chicago", "country": "US", "address2": "Unit E", "address3": "", "state": "IL", "address1": "7505 N Sheridan Rd", "zip_code": "60626"}, "id": "circle-imagine-chicago", "categories": [{"alias": "graphicdesign", "title": "Graphic Design"}]}]}
{"total": 323, "businesses": [{"rating": 5.0, "review_count": 3, "name": "G Thomas Ward Photography", "url": "https://www.yelp.com/biz/g-thomas-ward-photography-chicago?adjust_creative=_xGZBQTFH5RSnMk3I7VtQQ&utm_campaign=yelp_api_v3&utm_medium=api_v3_business_search&utm_source=_xGZBQTFH5RSnMk3I7VtQQ", "coordinates": {"latitude": 42.0021438598633, "longitude": -87.6641235351562}, "phone": "+17732716813", "image_url": "https://s3-media3.fl.yelpcdn.com/bphoto/_hTfe4zpb4mKKyxAbuULyg/o.jpg", "location": {"city": "Chicago", "country": "US", "address2": "1st Fl", "address3": "", "state": "IL", "address1": "1315 W Albion", "zip_code": "60626"}, "id": "g-thomas-ward-photography-chicago", "categories": [{"alias": "photographers", "title": "Photographers"}]}]}
{"total": 323, "businesses": [{"rating": 5.0, "review_count": 2, "name": "Inner Metamorphosis University", "url": "https://www.yelp.com/biz/inner-metamorphosis-university-chicago-2?adjust_creative=_xGZBQTFH5RSnMk3I7VtQQ&utm_campaign=yelp_api_v3&utm_medium=api_v3_business_search&utm_source=_xGZBQTFH5RSnMk3I7VtQQ", "coordinates": {"latitude": 42.0194199, "longitude": -87.6669299}, "phone": "+17082676039", "image_url": "https://s3-media2.fl.yelpcdn.com/bphoto/IhkvpIcQe3RxF5I3_dwOhQ/o.jpg", "location": {"city": "Chicago", "country": "US", "address2": null, "address3": "", "state": "IL", "address1": "1418 W Howard St", "zip_code": "60626"}, "id": "inner-metamorphosis-university-chicago-2", "categories": [{"alias": "taichi", "title": "Tai Chi"}, {"alias": "yoga", "title": "Yoga"}, {"alias": "reiki", "title": "Reiki"}]}]}
{"total": 323, "businesses": [{"rating": 4.5, "review_count": 8, "name": "Rogers Park Vintage Management", "url": "https://www.yelp.com/biz/rogers-park-vintage-management-chicago?adjust_creative=_xGZBQTFH5RSnMk3I7VtQQ&utm_campaign=yelp_api_v3&utm_medium=api_v3_business_search&utm_source=_xGZBQTFH5RSnMk3I7VtQQ", "coordinates": {"latitude": 42.0154262, "longitude": -87.6679139}, "phone": "+13123749785", "image_url": "https://s3-media4.fl.yelpcdn.com/bphoto/uGBpEg-U82ea-m6fKgTVcg/o.jpg", "location": {"city": "Chicago", "country": "US", "address2": null, "address3": null, "state": "IL", "address1": "7361 N Greenview Ave", "zip_code": "60626"}, "id": "rogers-park-vintage-management-chicago", "categories": [{"alias": "propertymgmt", "title": "Property Management"}]}]}
{"total": 323, "businesses": [{"rating": 5.0, "review_count": 2, "name": "St Ignatius Church", "url": "https://www.yelp.com/biz/st-ignatius-church-chicago?adjust_creative=_xGZBQTFH5RSnMk3I7VtQQ&utm_campaign=yelp_api_v3&utm_medium=api_v3_business_search&utm_source=_xGZBQTFH5RSnMk3I7VtQQ", "coordinates": {"latitude": 42.0019502, "longitude": -87.6654851}, "phone": "+17737645936", "image_url": "https://s3-media3.fl.yelpcdn.com/bphoto/5Ey1QXHbol6oLTsDqW_k0w/o.jpg", "location": {"city": "Chicago", "country": "US", "address2": "", "address3": "", "state": "IL", "address1": "6559 N Glenwood Avenue", "zip_code": "60626"}, "id": "st-ignatius-church-chicago", "categories": [{"alias": "churches", "title": "Churches"}]}]}
{"total": 323, "businesses": [{"rating": 5.0, "review_count": 4, "name": "Vanity Picture Booth", "url": "https://www.yelp.com/biz/vanity-picture-booth-chicago-2?adjust_creative=_xGZBQTFH5RSnMk3I7VtQQ&utm_campaign=yelp_api_v3&utm_medium=api_v3_business_search&utm_source=_xGZBQTFH5RSnMk3I7VtQQ", "coordinates": {"latitude": 42.0066, "longitude": -87.66729}, "phone": "+18722226319", "image_url": "https://s3-media1.fl.yelpcdn.com/bphoto/oX93_K5ko2NbIygrrGCh3Q/o.jpg", "location": {"city": "Chicago", "address1": "", "address2": null, "address3": "", "state": "IL", "country": "US", "zip_code": "60626"}, "id": "vanity-picture-booth-chicago-2", "categories": [{"alias": "photoboothrentals", "title": "Photo Booth Rentals"}]}]}
{"total": 323, "businesses": [{"rating": 5.0, "review_count": 2, "name": "Acuity Home Inspections", "url": "https://www.yelp.com/biz/acuity-home-inspections-chicago?adjust_creative=_xGZBQTFH5RSnMk3I7VtQQ&utm_campaign=yelp_api_v3&utm_medium=api_v3_business_search&utm_source=_xGZBQTFH5RSnMk3I7VtQQ", "coordinates": {"latitude": 42.01053, "longitude": -87.66843}, "phone": "+13122175249", "image_url": "https://s3-media4.fl.yelpcdn.com/bphoto/HixI1w8rqjpMhoE_veiXDA/o.jpg", "location": {"city": "Chicago", "country": "US", "address2": "", "address3": "", "state": "IL", "address1": "", "zip_code": "60626"}, "id": "acuity-home-inspections-chicago", "categories": [{"alias": "home_inspectors", "title": "Home Inspectors"}]}]}
{"total": 323, "businesses": [{"rating": 3.0, "review_count": 26, "name": "CTA - Morse", "url": "https://www.yelp.com/biz/cta-morse-chicago?adjust_creative=_xGZBQTFH5RSnMk3I7VtQQ&utm_campaign=yelp_api_v3&utm_medium=api_v3_business_search&utm_source=_xGZBQTFH5RSnMk3I7VtQQ", "coordinates": {"latitude": 42.0080549, "longitude": -87.6653457}, "image_url": "https://s3-media3.fl.yelpcdn.com/bphoto/0QfqOCQI7VXkCwlalx041w/o.jpg", "location": {"city": "Chicago", "country": "US", "address2": null, "address3": "", "state": "IL", "address1": "1358 W Morse Ave", "zip_code": "60626"}, "id": "cta-morse-chicago", "categories": [{"alias": "trainstations", "title": "Train Stations"}]}]}
{"total": 323, "businesses": [{"rating": 4.5, "review_count": 3, "name": "Loyola University Farmer's Market", "url": "https://www.yelp.com/biz/loyola-university-farmers-market-chicago?adjust_creative=_xGZBQTFH5RSnMk3I7VtQQ&utm_campaign=yelp_api_v3&utm_medium=api_v3_business_search&utm_source=_xGZBQTFH5RSnMk3I7VtQQ", "price": "$", "coordinates": {"latitude": 42.0025446, "longitude": -87.6607931}, "image_url": "", "location": {"city": "Chicago", "country": "US", "address2": "", "address3": "", "state": "IL", "address1": "SW Corner of Albion and Sheridan Rd", "zip_code": "60626"}, "id": "loyola-university-farmers-market-chicago", "categories": [{"alias": "farmersmarket", "title": "Farmers Market"}]}]}
{"total": 323, "businesses": [{"rating": 4.0, "review_count": 1, "name": "Mile of Murals", "url": "https://www.yelp.com/biz/mile-of-murals-chicago?adjust_creative=_xGZBQTFH5RSnMk3I7VtQQ&utm_campaign=yelp_api_v3&utm_medium=api_v3_business_search&utm_source=_xGZBQTFH5RSnMk3I7VtQQ", "coordinates": {"latitude": 42.0115582309415, "longitude": -87.6658707276175}, "image_url": "https://s3-media3.fl.yelpcdn.com/bphoto/jOFcXy-mpAHuDWk7EzFr9w/o.jpg", "location": {"city": "Chicago", "country": "US", "address2": "", "address3": "", "state": "IL", "address1": "Glenwood & Estes", "zip_code": "60626"}, "id": "mile-of-murals-chicago", "categories": [{"alias": "publicart", "title": "Public Art"}]}]}
{"total": 323, "businesses": [{"rating": 4.0, "review_count": 1, "name": "Glenwood Avenue Arts District", "url": "https://www.yelp.com/biz/glenwood-avenue-arts-district-chicago?adjust_creative=_xGZBQTFH5RSnMk3I7VtQQ&utm_campaign=yelp_api_v3&utm_medium=api_v3_business_search&utm_source=_xGZBQTFH5RSnMk3I7VtQQ", "coordinates": {"latitude": 42.0079193, "longitude": -87.6657333}, "image_url": "https://s3-media1.fl.yelpcdn.com/bphoto/qdbCU-OX6caqV3jlfVVT7g/o.jpg", "location": {"city": "Chicago", "country": "US", "address2": "", "address3": "", "state": "IL", "address1": "Glenwood Ave at Morse Ave.", "zip_code": "60626"}, "id": "glenwood-avenue-arts-district-chicago", "categories": [{"alias": "localflavor", "title": "Local Flavor"}]}]}
{"total": 323, "businesses": [{"rating": 4.5, "review_count": 3, "name": "White Moon Healing Center", "url": "https://www.yelp.com/biz/white-moon-healing-center-chicago?adjust_creative=_xGZBQTFH5RSnMk3I7VtQQ&utm_campaign=yelp_api_v3&utm_medium=api_v3_business_search&utm_source=_xGZBQTFH5RSnMk3I7VtQQ", "coordinates": {"latitude": 42.002144, "longitude": -87.664001}, "phone": "+17737435229", "image_url": "https://s3-media4.fl.yelpcdn.com/bphoto/76qjT6jNdRSs5p5HswdBew/o.jpg", "location": {"city": "Chicago", "address1": "1309 W Albion Ave", "address2": "", "address3": "", "state": "IL", "country": "US", "zip_code": "60626"}, "id": "white-moon-healing-center-chicago", "categories": [{"alias": "acupuncture", "title": "Acupuncture"}, {"alias": "naturopathic", "title": "Naturopathic/Holistic"}, {"alias": "tcm", "title": "Traditional Chinese Medicine"}]}]}
{"total": 323, "businesses": [{"rating": 4.5, "review_count": 7, "name": "Innocenti Strings", "url": "https://www.yelp.com/biz/innocenti-strings-chicago?adjust_creative=_xGZBQTFH5RSnMk3I7VtQQ&utm_campaign=yelp_api_v3&utm_medium=api_v3_business_search&utm_source=_xGZBQTFH5RSnMk3I7VtQQ", "coordinates": {"latitude": 42.0154, "longitude": -87.66335}, "phone": "+17736392739", "image_url": "https://s3-media3.fl.yelpcdn.com/bphoto/Ew79FJHZkjdrG_hi3BJNCg/o.jpg", "location": {"city": "Chicago", "country": "US", "address2": "", "address3": "", "state": "IL", "address1": "1216 W Sherwin Ave", "zip_code": "60626"}, "id": "innocenti-strings-chicago", "categories": [{"alias": "theater", "title": "Performing Arts"}]}]}
{"total": 323, "businesses": [{"rating": 3.0, "review_count": 18, "name": "Super 8 Chicago / Loyola University", "url": "https://www.yelp.com/biz/super-8-chicago-loyola-university-chicago?adjust_creative=_xGZBQTFH5RSnMk3I7VtQQ&utm_campaign=yelp_api_v3&utm_medium=api_v3_business_search&utm_source=_xGZBQTFH5RSnMk3I7VtQQ", "price": "$$", "coordinates": {"latitude": 42.01418, "longitude": -87.66467}, "phone": "+18005369326", "image_url": "https://s3-media4.fl.yelpcdn.com/bphoto/FaCRdPMoZW8W1wJPssNZKA/o.jpg", "location": {"city": "Chicago", "country": "US", "address2": "", "address3": "", "state": "IL", "address1": "7300 N. Sheridan Rd.", "zip_code": "60626"}, "id": "super-8-chicago-loyola-university-chicago", "categories": [{"alias": "hotels", "title": "Hotels"}]}]}
{"total": 323, "businesses": [{"rating": 5.0, "review_count": 20, "name": "Pawsitive Petcare", "url": "https://www.yelp.com/biz/pawsitive-petcare-evanston?adjust_creative=_xGZBQTFH5RSnMk3I7VtQQ&utm_campaign=yelp_api_v3&utm_medium=api_v3_business_search&utm_source=_xGZBQTFH5RSnMk3I7VtQQ", "coordinates": {"latitude": 42.022011, "longitude": -87.70105}, "phone": "+18476368796", "image_url": "https://s3-media1.fl.yelpcdn.com/bphoto/W6FA01XPhyx81F4o1z8EtQ/o.jpg", "location": {"city": "Evanston", "country": "US", "address2": null, "address3": "", "state": "IL", "address1": "224 Brown Ave", "zip_code": "60202"}, "id": "pawsitive-petcare-evanston", "categories": [{"alias": "dogwalkers", "title": "Dog Walkers"}]}]}
{"total": 323, "businesses": [{"rating": 3.5, "review_count": 12, "name": "Chicago Waldorf School", "url": "https://www.yelp.com/biz/chicago-waldorf-school-chicago?adjust_creative=_xGZBQTFH5RSnMk3I7VtQQ&utm_campaign=yelp_api_v3&utm_medium=api_v3_business_search&utm_source=_xGZBQTFH5RSnMk3I7VtQQ", "coordinates": {"latitude": 42.0015446, "longitude": -87.6637228}, "phone": "+17734652662", "image_url": "https://s3-media3.fl.yelpcdn.com/bphoto/-Y8qIcZIQPxNKslStVLE-A/o.jpg", "location": {"city": "Chicago", "country": "US", "address2": "", "address3": "", "state": "IL", "address1": "1300 W Loyola Ave", "zip_code": "60626"}, "id": "chicago-waldorf-school-chicago", "categories": [{"alias": "elementaryschools", "title": "Elementary Schools"}, {"alias": "preschools", "title": "Preschools"}, {"alias": "highschools", "title": "Middle Schools & High Schools"}]}]}
{"total": 323, "businesses": [{"rating": 3.0, "review_count": 16, "name": "CTA - Jarvis", "url": "https://www.yelp.com/biz/cta-jarvis-chicago?adjust_creative=_xGZBQTFH5RSnMk3I7VtQQ&utm_campaign=yelp_api_v3&utm_medium=api_v3_business_search&utm_source=_xGZBQTFH5RSnMk3I7VtQQ", "coordinates": {"latitude": 42.0159787684679, "longitude": -87.6689035445452}, "image_url": "https://s3-media4.fl.yelpcdn.com/bphoto/MwvTCu54F9QX6xjFGKQglA/o.jpg", "location": {"city": "Chicago", "country": "US", "address2": null, "address3": "", "state": "IL", "address1": "1523 W Jarvis Ave", "zip_code": "60626"}, "id": "cta-jarvis-chicago", "categories": [{"alias": "trainstations", "title": "Train Stations"}]}]}
{"total": 323, "businesses": [{"rating": 2.5, "review_count": 2, "name": "Good To Go", "url": "https://www.yelp.com/biz/good-to-go-chicago?adjust_creative=_xGZBQTFH5RSnMk3I7VtQQ&utm_campaign=yelp_api_v3&utm_medium=api_v3_business_search&utm_source=_xGZBQTFH5RSnMk3I7VtQQ", "coordinates": {"latitude": 42.0192222595215, "longitude": -87.6665115356445}, "phone": "+17733817777", "image_url": "", "location": {"city": "Chicago", "country": "US", "address2": "", "address3": "", "state": "IL", "address1": "1947 Howard St", "zip_code": "60626"}, "id": "good-to-go-chicago", "categories": [{"alias": "caribbean", "title": "Caribbean"}]}]}
{"total": 323, "businesses": [{"rating": 3.5, "review_count": 4, "name": "Beyond the Reflection", "url": "https://www.yelp.com/biz/beyond-the-reflection-chicago?adjust_creative=_xGZBQTFH5RSnMk3I7VtQQ&utm_campaign=yelp_api_v3&utm_medium=api_v3_business_search&utm_source=_xGZBQTFH5RSnMk3I7VtQQ", "coordinates": {"latitude": 42.0101096, "longitude": -87.6625675}, "phone": "+17738560988", "image_url": "", "location": {"city": "Chicago", "country": "US", "address2": "", "address3": "", "state": "IL", "address1": "7030 N Sheridan Rd", "zip_code": "60626"}, "id": "beyond-the-reflection-chicago", "categories": [{"alias": "sewingalterations", "title": "Sewing & Alterations"}]}]}
{"total": 323, "businesses": [{"rating": 3.0, "review_count": 1, "name": "Louis Goldberg Playlot Park", "url": "https://www.yelp.com/biz/louis-goldberg-playlot-park-chicago?adjust_creative=_xGZBQTFH5RSnMk3I7VtQQ&utm_campaign=yelp_api_v3&utm_medium=api_v3_business_search&utm_source=_xGZBQTFH5RSnMk3I7VtQQ", "coordinates": {"latitude": 42.0105298608541, "longitude": -87.6657908409834}, "phone": "+17732625835", "image_url": "https://s3-media4.fl.yelpcdn.com/bphoto/BCsX7rci-38KAV4dva--Iw/o.jpg", "location": {"city": "Chicago", "country": "US", "address2": "", "address3": "", "state": "IL", "address1": "7043 N Glenwood Ave", "zip_code": "60626"}, "id": "louis-goldberg-playlot-park-chicago", "categories": [{"alias": "parks", "title": "Parks"}]}]}
{"total": 323, "businesses": [{"rating": 3.5, "review_count": 5, "name": "Greenview Smart Cleaners", "url": "https://www.yelp.com/biz/greenview-smart-cleaners-chicago?adjust_creative=_xGZBQTFH5RSnMk3I7VtQQ&utm_campaign=yelp_api_v3&utm_medium=api_v3_business_search&utm_source=_xGZBQTFH5RSnMk3I7VtQQ", "price": "$$", "coordinates": {"latitude": 42.015413492918, "longitude": -87.6681625843048}, "phone": "+17732620209", "image_url": "https://s3-media1.fl.yelpcdn.