{"total": 132, "businesses": [{"rating": 4.5, "review_count": 236, "name": "EL Ideas", "url": "https://www.yelp.com/biz/el-ideas-chicago-2?adjust_creative=_xGZBQTFH5RSnMk3I7VtQQ&utm_campaign=yelp_api_v3&utm_medium=api_v3_business_search&utm_source=_xGZBQTFH5RSnMk3I7VtQQ", "price": "$$$$", "coordinates": {"latitude": 41.86275, "longitude": -87.687}, "phone": "+13122268144", "image_url": "https://s3-media1.fl.yelpcdn.com/bphoto/ZBlDMLuVZw-uQaG0IKU-NA/o.jpg", "location": {"city": "Chicago", "address1": "2419 W 14th St", "address2": "", "address3": "", "state": "IL", "country": "US", "zip_code": "60608"}, "id": "el-ideas-chicago-2", "categories": [{"alias": "newamerican", "title": "American (New)"}]}]}
{"total": 132, "businesses": [{"rating": 5.0, "review_count": 34, "name": "Hope Cafe", "url": "https://www.yelp.com/biz/hope-cafe-chicago?adjust_creative=_xGZBQTFH5RSnMk3I7VtQQ&utm_campaign=yelp_api_v3&utm_medium=api_v3_business_search&utm_source=_xGZBQTFH5RSnMk3I7VtQQ", "price": "$", "coordinates": {"latitude": 41.8661003112793, "longitude": -87.6872329711914}, "phone": "+13128576499", "image_url": "https://s3-media3.fl.yelpcdn.com/bphoto/_K8r4VVLTF30WB07PA_SZA/o.jpg", "location": {"city": "Chicago", "country": "US", "address2": null, "address3": "", "state": "IL", "address1": "2431 W Roosevelt Rd", "zip_code": "60608"}, "id": "hope-cafe-chicago", "categories": [{"alias": "coffee", "title": "Coffee & Tea"}]}]}
{"total": 132, "businesses": [{"rating": 4.5, "review_count": 69, "name": "Jarabe- Mexican Street Food", "url": "https://www.yelp.com/biz/jarabe-mexican-street-food-chicago?adjust_creative=_xGZBQTFH5RSnMk3I7VtQQ&utm_campaign=yelp_api_v3&utm_medium=api_v3_business_search&utm_source=_xGZBQTFH5RSnMk3I7VtQQ", "price": "$", "coordinates": {"latitude": 41.86886, "longitude": -87.68334}, "phone": "+13128775005", "image_url": "https://s3-media1.fl.yelpcdn.com/bphoto/snXavKbRgSXrCeaLo2DOXA/o.jpg", "location": {"city": "Chicago", "address1": "2255 W Taylor St", "address2": null, "address3": "", "state": "IL", "country": "US", "zip_code": "60612"}, "id": "jarabe-mexican-street-food-chicago", "categories": [{"alias": "mexican", "title": "Mexican"}, {"alias": "latin", "title": "Latin American"}, {"alias": "tex-mex", "title": "Tex-Mex"}]}]}
{"total": 132, "businesses": [{"rating": 4.5, "review_count": 38, "name": "T\u00e1Koz", "url": "https://www.yelp.com/biz/t%C3%A1koz-chicago-4?adjust_creative=_xGZBQTFH5RSnMk3I7VtQQ&utm_campaign=yelp_api_v3&utm_medium=api_v3_business_search&utm_source=_xGZBQTFH5RSnMk3I7VtQQ", "price": "$", "coordinates": {"latitude": 41.868725, "longitude": -87.682358}, "phone": "+13128466374", "image_url": "https://s3-media2.fl.yelpcdn.com/bphoto/SAnq8qwd41FDg6_HcDFHxw/o.jpg", "location": {"city": "Chicago", "address1": "2229 W Taylor St", "address2": "", "address3": "", "state": "IL", "country": "US", "zip_code": "60612"}, "id": "t\u00e1koz-chicago-4", "categories": [{"alias": "mexican", "title": "Mexican"}]}]}
{"total": 132, "businesses": [{"rating": 4.5, "review_count": 68, "name": "Ryhana's Cuisine", "url": "https://www.yelp.com/biz/ryhanas-cuisine-chicago?adjust_creative=_xGZBQTFH5RSnMk3I7VtQQ&utm_campaign=yelp_api_v3&utm_medium=api_v3_business_search&utm_source=_xGZBQTFH5RSnMk3I7VtQQ", "price": "$", "coordinates": {"latitude": 41.8689145739179, "longitude": -87.6833596475275}, "phone": "+13122511234", "image_url": "https://s3-media2.fl.yelpcdn.com/bphoto/cSmoAwK2SAD1aKDdKjuu2Q/o.jpg", "location": {"city": "Chicago", "country": "US", "address2": "", "address3": "", "state": "IL", "address1": "2253 W Taylor St", "zip_code": "60612"}, "id": "ryhanas-cuisine-chicago", "categories": [{"alias": "indpak", "title": "Indian"}]}]}
{"total": 132, "businesses": [{"rating": 4.0, "review_count": 126, "name": "Original Ferrara Bakery", "url": "https://www.yelp.com/biz/original-ferrara-bakery-chicago-3?adjust_creative=_xGZBQTFH5RSnMk3I7VtQQ&utm_campaign=yelp_api_v3&utm_medium=api_v3_business_search&utm_source=_xGZBQTFH5RSnMk3I7VtQQ", "price": "$", "coordinates": {"latitude": 41.86923, "longitude": -87.68158}, "phone": "+13126662200", "image_url": "https://s3-media2.fl.yelpcdn.com/bphoto/zmigOUuZl2jS3yDgxzIvBg/o.jpg", "location": {"city": "Chicago", "address1": "2210 W Taylor St", "address2": "", "address3": "", "state": "IL", "country": "US", "zip_code": "60612"}, "id": "original-ferrara-bakery-chicago-3", "categories": [{"alias": "bakeries", "title": "Bakeries"}, {"alias": "cafes", "title": "Cafes"}, {"alias": "italian", "title": "Italian"}]}]}
{"total": 132, "businesses": [{"rating": 4.0, "review_count": 45, "name": "Don's Humburgers Grill", "url": "https://www.yelp.com/biz/dons-humburgers-grill-chicago?adjust_creative=_xGZBQTFH5RSnMk3I7VtQQ&utm_campaign=yelp_api_v3&utm_medium=api_v3_business_search&utm_source=_xGZBQTFH5RSnMk3I7VtQQ", "price": "$", "coordinates": {"latitude": 41.856479, "longitude": -87.685517}, "phone": "+13127339351", "image_url": "https://s3-media2.fl.yelpcdn.com/bphoto/AC_wfTSA0ughTN_3rSKYxA/o.jpg", "location": {"city": "Chicago", "address1": "1837 S Western Ave", "address2": null, "address3": "", "state": "IL", "country": "US", "zip_code": "60686"}, "id": "dons-humburgers-grill-chicago", "categories": [{"alias": "burgers", "title": "Burgers"}]}]}
{"total": 132, "businesses": [{"rating": 3.5, "review_count": 115, "name": "Damenzo's Pizza", "url": "https://www.yelp.com/biz/damenzos-pizza-chicago?adjust_creative=_xGZBQTFH5RSnMk3I7VtQQ&utm_campaign=yelp_api_v3&utm_medium=api_v3_business_search&utm_source=_xGZBQTFH5RSnMk3I7VtQQ", "price": "$", "coordinates": {"latitude": 41.8690252304077, "longitude": -87.6845642924309}, "phone": "+13124211142", "image_url": "https://s3-media2.fl.yelpcdn.com/bphoto/mSV_SX3tZXQhED3D2rTH3Q/o.jpg", "location": {"city": "Chicago", "country": "US", "address2": "", "address3": "", "state": "IL", "address1": "2324 W Taylor St", "zip_code": "60612"}, "id": "damenzos-pizza-chicago", "categories": [{"alias": "pizza", "title": "Pizza"}]}]}
{"total": 132, "businesses": [{"rating": 4.0, "review_count": 68, "name": "Lulu's Hot Dogs", "url": "https://www.yelp.com/biz/lulus-hot-dogs-chicago?adjust_creative=_xGZBQTFH5RSnMk3I7VtQQ&utm_campaign=yelp_api_v3&utm_medium=api_v3_business_search&utm_source=_xGZBQTFH5RSnMk3I7VtQQ", "price": "$", "coordinates": {"latitude": 41.8688733374583, "longitude": -87.6814892266157}, "phone": "+13122433444", "image_url": "https://s3-media1.fl.yelpcdn.com/bphoto/WAKBE4hE9MQ07Ucg2MirDw/o.jpg", "location": {"city": "Chicago", "address1": "1000 S Leavitt St", "address2": "", "address3": "", "state": "IL", "country": "US", "zip_code": "60612"}, "id": "lulus-hot-dogs-chicago", "categories": [{"alias": "hotdog", "title": "Hot Dogs"}]}]}
{"total": 132, "businesses": [{"rating": 4.0, "review_count": 35, "name": "Conte Di Savoia West", "url": "https://www.yelp.com/biz/conte-di-savoia-west-chicago?adjust_creative=_xGZBQTFH5RSnMk3I7VtQQ&utm_campaign=yelp_api_v3&utm_medium=api_v3_business_search&utm_source=_xGZBQTFH5RSnMk3I7VtQQ", "price": "$", "coordinates": {"latitude": 41.868724822998, "longitude": -87.6822814941406}, "phone": "+13126664335", "image_url": "https://s3-media3.fl.yelpcdn.com/bphoto/fSZR7mK9Hwlbjl2Br-z-0Q/o.jpg", "location": {"city": "Chicago", "country": "US", "address2": "", "address3": "", "state": "IL", "address1": "2227 W Taylor St", "zip_code": "60612"}, "id": "conte-di-savoia-west-chicago", "categories": [{"alias": "delis", "title": "Delis"}]}]}
{"total": 132, "businesses": [{"rating": 4.5, "review_count": 367, "name": "Lagunitas Brewing Company", "url": "https://www.yelp.com/biz/lagunitas-brewing-company-chicago?adjust_creative=_xGZBQTFH5RSnMk3I7VtQQ&utm_campaign=yelp_api_v3&utm_medium=api_v3_business_search&utm_source=_xGZBQTFH5RSnMk3I7VtQQ", "price": "$$", "coordinates": {"latitude": 41.8577419033754, "longitude": -87.6922491206512}, "phone": "+17735221308", "image_url": "https://s3-media2.fl.yelpcdn.com/bphoto/2CysZ0b6XzMWUD5S-uodzQ/o.jpg", "location": {"city": "Chicago", "country": "US", "address2": "", "address3": "", "state": "IL", "address1": "2607 W 17th St", "zip_code": "60608"}, "id": "lagunitas-brewing-company-chicago", "categories": [{"alias": "breweries", "title": "Breweries"}, {"alias": "musicvenues", "title": "Music Venues"}]}]}
{"total": 132, "businesses": [{"rating": 4.0, "review_count": 23, "name": "Rick's Bar", "url": "https://www.yelp.com/biz/ricks-bar-chicago?adjust_creative=_xGZBQTFH5RSnMk3I7VtQQ&utm_campaign=yelp_api_v3&utm_medium=api_v3_business_search&utm_source=_xGZBQTFH5RSnMk3I7VtQQ", "price": "$", "coordinates": {"latitude": 41.8691062927246, "longitude": -87.6857681274414}, "phone": "+13124214860", "image_url": "https://s3-media1.fl.yelpcdn.com/bphoto/iyJ5IU1RzhyaaCbn45OGoA/o.jpg", "location": {"city": "Chicago", "address1": "939 S Western Ave", "address2": "", "address3": "", "state": "IL", "country": "US", "zip_code": "60612"}, "id": "ricks-bar-chicago", "categories": [{"alias": "bars", "title": "Bars"}, {"alias": "newamerican", "title": "American (New)"}]}]}
{"total": 132, "businesses": [{"rating": 5.0, "review_count": 26, "name": "The Wishing Well Florist", "url": "https://www.yelp.com/biz/the-wishing-well-florist-chicago?adjust_creative=_xGZBQTFH5RSnMk3I7VtQQ&utm_campaign=yelp_api_v3&utm_medium=api_v3_business_search&utm_source=_xGZBQTFH5RSnMk3I7VtQQ", "price": "$$", "coordinates": {"latitude": 41.8588485717773, "longitude": -87.6869506835938}, "phone": "+13124559474", "image_url": "https://s3-media1.fl.yelpcdn.com/bphoto/MKUa8robU87lLfGsT4bpKw/o.jpg", "location": {"city": "Chicago", "address1": "2443 W 16th St", "address2": "", "address3": "", "state": "IL", "country": "US", "zip_code": "60608"}, "id": "the-wishing-well-florist-chicago", "categories": [{"alias": "florists", "title": "Florists"}, {"alias": "eventplanning", "title": "Party & Event Planning"}]}]}
{"total": 132, "businesses": [{"rating": 5.0, "review_count": 4, "name": "The Waterhole-Chicago", "url": "https://www.yelp.com/biz/the-waterhole-chicago-chicago?adjust_creative=_xGZBQTFH5RSnMk3I7VtQQ&utm_campaign=yelp_api_v3&utm_medium=api_v3_business_search&utm_source=_xGZBQTFH5RSnMk3I7VtQQ", "price": "$$", "coordinates": {"latitude": 41.86285, "longitude": -87.686309}, "phone": "+13122437988", "image_url": "https://s3-media4.fl.yelpcdn.com/bphoto/Uo-pa05cRnAI0hCiEcU8zA/o.jpg", "location": {"city": "Chicago", "country": "US", "address2": "", "address3": "", "state": "IL", "address1": "1400 So. Western", "zip_code": "60608"}, "id": "the-waterhole-chicago-chicago", "categories": [{"alias": "jazzandblues", "title": "Jazz & Blues"}, {"alias": "soulfood", "title": "Soul Food"}, {"alias": "pizza", "title": "Pizza"}]}]}
{"total": 132, "businesses": [{"rating": 5.0, "review_count": 7, "name": "Damenzo's Banquets", "url": "https://www.yelp.com/biz/damenzos-banquets-chicago?adjust_creative=_xGZBQTFH5RSnMk3I7VtQQ&utm_campaign=yelp_api_v3&utm_medium=api_v3_business_search&utm_source=_xGZBQTFH5RSnMk3I7VtQQ", "price": "$$", "coordinates": {"latitude": 41.87183, "longitude": -87.68582}, "phone": "+13124215065", "image_url": "https://s3-media1.fl.yelpcdn.com/bphoto/8wb0vI3rxIxhn2OBwsWKQA/o.jpg", "location": {"city": "Chicago", "country": "US", "address2": null, "address3": null, "state": "IL", "address1": "741 S Western Ave", "zip_code": "60612"}, "id": "damenzos-banquets-chicago", "categories": [{"alias": "pizza", "title": "Pizza"}]}]}
{"total": 132, "businesses": [{"rating": 3.0, "review_count": 130, "name": "Bacci Pizzeria", "url": "https://www.yelp.com/biz/bacci-pizzeria-chicago?adjust_creative=_xGZBQTFH5RSnMk3I7VtQQ&utm_campaign=yelp_api_v3&utm_medium=api_v3_business_search&utm_source=_xGZBQTFH5RSnMk3I7VtQQ", "price": "$", "coordinates": {"latitude": 41.86887, "longitude": -87.68395}, "phone": "+13124559000", "image_url": "https://s3-media4.fl.yelpcdn.com/bphoto/1J868VsPQYaJCafuCN-10g/o.jpg", "location": {"city": "Chicago", "country": "US", "address2": null, "address3": "", "state": "IL", "address1": "2301 W Taylor St", "zip_code": "60612"}, "id": "bacci-pizzeria-chicago", "categories": [{"alias": "pizza", "title": "Pizza"}]}]}
{"total": 132, "businesses": [{"rating": 4.0, "review_count": 9, "name": "Water Hole Lounge", "url": "https://www.yelp.com/biz/water-hole-lounge-chicago?adjust_creative=_xGZBQTFH5RSnMk3I7VtQQ&utm_campaign=yelp_api_v3&utm_medium=api_v3_business_search&utm_source=_xGZBQTFH5RSnMk3I7VtQQ", "price": "$", "coordinates": {"latitude": 41.862881, "longitude": -87.68633}, "phone": "+13122437988", "image_url": "https://s3-media3.fl.yelpcdn.com/bphoto/Q4MVm_rIXx5yq3S0jTn8Tw/o.jpg", "location": {"city": "Chicago", "country": "US", "address2": "", "address3": "", "state": "IL", "address1": "1400 S Western Ave", "zip_code": "60608"}, "id": "water-hole-lounge-chicago", "categories": [{"alias": "lounges", "title": "Lounges"}, {"alias": "chicken_wings", "title": "Chicken Wings"}, {"alias": "pizza", "title": "Pizza"}]}]}
{"total": 132, "businesses": [{"rating": 4.5, "review_count": 8, "name": "Joe's Po Boy Restaurant", "url": "https://www.yelp.com/biz/joes-po-boy-restaurant-chicago?adjust_creative=_xGZBQTFH5RSnMk3I7VtQQ&utm_campaign=yelp_api_v3&utm_medium=api_v3_business_search&utm_source=_xGZBQTFH5RSnMk3I7VtQQ", "coordinates": {"latitude": 41.8652654439211, "longitude": -87.6859509944916}, "phone": "+13127632322", "image_url": "https://s3-media1.fl.yelpcdn.com/bphoto/Sm_wf87mCl_JIXf6XwuKfw/o.jpg", "location": {"city": "Chicago", "address1": "1247 S Western Ave", "address2": null, "address3": "", "state": "IL", "country": "US", "zip_code": "60608"}, "id": "joes-po-boy-restaurant-chicago", "categories": [{"alias": "vietnamese", "title": "Vietnamese"}, {"alias": "newamerican", "title": "American (New)"}]}]}
{"total": 132, "businesses": [{"rating": 3.5, "review_count": 49, "name": "Baba Pita", "url": "https://www.yelp.com/biz/baba-pita-chicago-5?adjust_creative=_xGZBQTFH5RSnMk3I7VtQQ&utm_campaign=yelp_api_v3&utm_medium=api_v3_business_search&utm_source=_xGZBQTFH5RSnMk3I7VtQQ", "price": "$$", "coordinates": {"latitude": 41.868755, "longitude": -87.6853261}, "phone": "+13122433439", "image_url": "https://s3-media1.fl.yelpcdn.com/bphoto/TrbbPm1HL1Yiua5NHg3zfw/o.jpg", "location": {"city": "Chicago", "country": "US", "address2": "", "address3": "", "state": "IL", "address1": "2343 W Taylor St", "zip_code": "60612"}, "id": "baba-pita-chicago-5", "categories": [{"alias": "mediterranean", "title": "Mediterranean"}, {"alias": "mideastern", "title": "Middle Eastern"}, {"alias": "vegetarian", "title": "Vegetarian"}]}]}
{"total": 132, "businesses": [{"rating": 4.5, "review_count": 95, "name": "Motoworks Chicago", "url": "https://www.yelp.com/biz/motoworks-chicago-chicago?adjust_creative=_xGZBQTFH5RSnMk3I7VtQQ&utm_campaign=yelp_api_v3&utm_medium=api_v3_business_search&utm_source=_xGZBQTFH5RSnMk3I7VtQQ", "coordinates": {"latitude": 41.85557, "longitude": -87.68538}, "phone": "+13127384269", "image_url": "https://s3-media1.fl.yelpcdn.com/bphoto/9GowtthaDIXF_WyH0RWQKw/o.jpg", "location": {"city": "Chicago", "address1": "1901 S Western Ave", "address2": "", "address3": "", "state": "IL", "country": "US", "zip_code": "60608"}, "id": "motoworks-chicago-chicago", "categories": [{"alias": "motorcycledealers", "title": "Motorcycle Dealers"}, {"alias": "bodyshops", "title": "Body Shops"}, {"alias": "towing", "title": "Towing"}]}]}
{"total": 132, "businesses": [{"rating": 4.0, "review_count": 20, "name": "Casa Cafe", "url": "https://www.yelp.com/biz/casa-cafe-chicago?adjust_creative=_xGZBQTFH5RSnMk3I7VtQQ&utm_campaign=yelp_api_v3&utm_medium=api_v3_business_search&utm_source=_xGZBQTFH5RSnMk3I7VtQQ", "price": "$", "coordinates": {"latitude": 41.8539581, "longitude": -87.685318}, "phone": "+17738231480", "image_url": "https://s3-media4.fl.yelpcdn.com/bphoto/9AwHtZpNuynEKYJwLz0GYg/o.jpg", "location": {"city": "Chicago", "address1": "2025 S Western Ave", "address2": "", "address3": "", "state": "IL", "country": "US", "zip_code": "60608"}, "id": "casa-cafe-chicago", "categories": [{"alias": "mexican", "title": "Mexican"}]}]}
{"total": 132, "businesses": [{"rating": 5.0, "review_count": 4, "name": "Lucero Caribbean Catering", "url": "https://www.yelp.com/biz/lucero-caribbean-catering-chicago?adjust_creative=_xGZBQTFH5RSnMk3I7VtQQ&utm_campaign=yelp_api_v3&utm_medium=api_v3_business_search&utm_source=_xGZBQTFH5RSnMk3I7VtQQ", "price": "$$", "coordinates": {"latitude": 41.858849, "longitude": -87.686935}, "phone": "+17733441598", "image_url": "https://s3-media3.fl.yelpcdn.com/bphoto/x4APfGGtBrRXJDvIVIrE2w/o.jpg", "location": {"city": "Chicago", "country": "US", "address2": "", "address3": "", "state": "IL", "address1": "2443 W 16th St", "zip_code": "60623"}, "id": "lucero-caribbean-catering-chicago", "categories": [{"alias": "latin", "title": "Latin American"}, {"alias": "caribbean", "title": "Caribbean"}]}]}
{"total": 132, "businesses": [{"rating": 4.0, "review_count": 17, "name": "El Chivo Feliz", "url": "https://www.yelp.com/biz/el-chivo-feliz-chicago-2?adjust_creative=_xGZBQTFH5RSnMk3I7VtQQ&utm_campaign=yelp_api_v3&utm_medium=api_v3_business_search&utm_source=_xGZBQTFH5RSnMk3I7VtQQ", "price": "$", "coordinates": {"latitude": 41.85403, "longitude": -87.68532}, "phone": "+17733763959", "image_url": "https://s3-media1.fl.yelpcdn.com/bphoto/MBtC8TYMPLgqDV2uNzgDFg/o.jpg", "location": {"city": "Chicago", "country": "US", "address2": "", "address3": "", "state": "IL", "address1": "2023 S Western Ave", "zip_code": "60608"}, "id": "el-chivo-feliz-chicago-2", "categories": [{"alias": "mexican", "title": "Mexican"}]}]}
{"total": 132, "businesses": [{"rating": 3.0, "review_count": 45, "name": "Jason's Wok", "url": "https://www.yelp.com/biz/jasons-wok-chicago?adjust_creative=_xGZBQTFH5RSnMk3I7VtQQ&utm_campaign=yelp_api_v3&utm_medium=api_v3_business_search&utm_source=_xGZBQTFH5RSnMk3I7VtQQ", "price": "$", "coordinates": {"latitude": 41.8687782, "longitude": -87.68647}, "phone": "+13126668887", "image_url": "https://s3-media2.fl.yelpcdn.com/bphoto/CWH6QyiWLJQ8aV0rc9Cq1g/o.jpg", "location": {"city": "Chicago", "country": "US", "address2": "", "address3": "", "state": "IL", "address1": "1014 S Western Ave", "zip_code": "60612"}, "id": "jasons-wok-chicago", "categories": [{"alias": "chinese", "title": "Chinese"}]}]}
{"total": 132, "businesses": [{"rating": 5.0, "review_count": 10, "name": "Smiling Sole", "url": "https://www.yelp.com/biz/smiling-sole-chicago?adjust_creative=_xGZBQTFH5RSnMk3I7VtQQ&utm_campaign=yelp_api_v3&utm_medium=api_v3_business_search&utm_source=_xGZBQTFH5RSnMk3I7VtQQ", "price": "$", "coordinates": {"latitude": 41.8698080325253, "longitude": -87.6858838112411}, "phone": "+13128775856", "image_url": "https://s3-media4.fl.yelpcdn.com/bphoto/9HF7YT3Y3F2_5yU9u0ZoRg/o.jpg", "location": {"city": "Chicago", "address1": "913 S Western Ave", "address2": null, "address3": "", "state": "IL", "country": "US", "zip_code": "60612"}, "id": "smiling-sole-chicago", "categories": [{"alias": "massage", "title": "Massage"}, {"alias": "reflexology", "title": "Reflexology"}]}]}
{"total": 132, "businesses": [{"rating": 5.0, "review_count": 14, "name": "David's Auto", "url": "https://www.yelp.com/biz/davids-auto-chicago?adjust_creative=_xGZBQTFH5RSnMk3I7VtQQ&utm_campaign=yelp_api_v3&utm_medium=api_v3_business_search&utm_source=_xGZBQTFH5RSnMk3I7VtQQ", "coordinates": {"latitude": 41.869919, "longitude": -87.68576}, "phone": "+13122264778", "image_url": "https://s3-media4.fl.yelpcdn.com/bphoto/5isrheFpn8Cn8EznDzDaJA/o.jpg", "location": {"city": "Chicago", "country": "US", "address2": null, "address3": "", "state": "IL", "address1": "907 S Western Ave", "zip_code": "60612"}, "id": "davids-auto-chicago", "categories": [{"alias": "autorepair", "title": "Auto Repair"}]}]}
{"total": 132, "businesses": [{"rating": 4.5, "review_count": 4, "name": "Taquizas Don Rafa", "url": "https://www.yelp.com/biz/taquizas-don-rafa-chicago?adjust_creative=_xGZBQTFH5RSnMk3I7VtQQ&utm_campaign=yelp_api_v3&utm_medium=api_v3_business_search&utm_source=_xGZBQTFH5RSnMk3I7VtQQ", "price": "$", "coordinates": {"latitude": 41.8540380314778, "longitude": -87.6853200048208}, "phone": "+17739468907", "image_url": "https://s3-media4.fl.yelpcdn.com/bphoto/mV7DqUwS2kUKqJTNAiPOHg/o.jpg", "location": {"city": "Chicago", "address1": "2023 S Western Ave", "address2": "", "address3": "", "state": "IL", "country": "US", "zip_code": "60608"}, "id": "taquizas-don-rafa-chicago", "categories": [{"alias": "mexican", "title": "Mexican"}]}]}
{"total": 132, "businesses": [{"rating": 4.5, "review_count": 46, "name": "Art of Seduction Boudoir Photography Chicago", "url": "https://www.yelp.com/biz/art-of-seduction-boudoir-photography-chicago-chicago-2?adjust_creative=_xGZBQTFH5RSnMk3I7VtQQ&utm_campaign=yelp_api_v3&utm_medium=api_v3_business_search&utm_source=_xGZBQTFH5RSnMk3I7VtQQ", "coordinates": {"latitude": 41.8724018, "longitude": -87.6859029}, "phone": "+16306674633", "image_url": "https://s3-media4.fl.yelpcdn.com/bphoto/rjRqAtGwXEansuS3iU8MlA/o.jpg", "location": {"city": "Chicago", "country": "US", "address2": "", "address3": "", "state": "IL", "address1": "721 S Western Ave", "zip_code": "60612"}, "id": "art-of-seduction-boudoir-photography-chicago-chicago-2", "categories": [{"alias": "photographers", "title": "Photographers"}]}]}
{"total": 132, "businesses": [{"rating": 5.0, "review_count": 8, "name": "Catering Out the Box", "url": "https://www.yelp.com/biz/catering-out-the-box-chicago-2?adjust_creative=_xGZBQTFH5RSnMk3I7VtQQ&utm_campaign=yelp_api_v3&utm_medium=api_v3_business_search&utm_source=_xGZBQTFH5RSnMk3I7VtQQ", "coordinates": {"latitude": 41.858849, "longitude": -87.686935}, "phone": "+13122262601", "image_url": "https://s3-media4.fl.yelpcdn.com/bphoto/QKK2sugnBEraMHYE26UMpg/o.jpg", "location": {"city": "Chicago", "address1": "2443 W 16th St", "address2": "", "address3": "", "state": "IL", "country": "US", "zip_code": "60608"}, "id": "catering-out-the-box-chicago-2", "categories": [{"alias": "catering", "title": "Caterers"}]}]}
{"total": 132, "businesses": [{"rating": 3.5, "review_count": 14, "name": "White Castle", "url": "https://www.yelp.com/biz/white-castle-chicago-3?adjust_creative=_xGZBQTFH5RSnMk3I7VtQQ&utm_campaign=yelp_api_v3&utm_medium=api_v3_business_search&utm_source=_xGZBQTFH5RSnMk3I7VtQQ", "price": "$", "coordinates": {"latitude": 41.86692, "longitude": -87.68552}, "phone": "+13122269472", "image_url": "https://s3-media1.fl.yelpcdn.com/bphoto/TgqfSjpGUNStxOa9NJDc2g/o.jpg", "location": {"city": "Chicago", "country": "US", "address2": "", "address3": "", "state": "IL", "address1": "2348-2354 W Roosevelt Rd", "zip_code": "60608"}, "id": "white-castle-chicago-3", "categories": [{"alias": "burgers", "title": "Burgers"}, {"alias": "hotdogs", "title": "Fast Food"}]}]}
{"total": 132, "businesses": [{"rating": 3.5, "review_count": 23, "name": "West Side Gyros", "url": "https://www.yelp.com/biz/west-side-gyros-chicago?adjust_creative=_xGZBQTFH5RSnMk3I7VtQQ&utm_campaign=yelp_api_v3&utm_medium=api_v3_business_search&utm_source=_xGZBQTFH5RSnMk3I7VtQQ", "price": "$", "coordinates": {"latitude": 41.871345, "longitude": -87.686523}, "phone": "+13127339300", "image_url": "https://s3-media3.fl.yelpcdn.com/bphoto/5lae1SOdRuJT_3gYlEAGTA/o.jpg", "location": {"city": "Chicago", "address1": "754 S Western Ave", "address2": "", "address3": "", "state": "IL", "country": "US", "zip_code": "60612"}, "id": "west-side-gyros-chicago", "categories": [{"alias": "hotdogs", "title": "Fast Food"}]}]}
{"total": 132, "businesses": [{"rating": 5.0, "review_count": 10, "name": "Camera Ambassador Rentals", "url": "https://www.yelp.com/biz/camera-ambassador-rentals-chicago?adjust_creative=_xGZBQTFH5RSnMk3I7VtQQ&utm_campaign=yelp_api_v3&utm_medium=api_v3_business_search&utm_source=_xGZBQTFH5RSnMk3I7VtQQ", "price": "$$", "coordinates": {"latitude": 41.8625946044922, "longitude": -87.6869430541992}, "phone": "+17737916522", "image_url": "https://s3-media2.fl.yelpcdn.com/bphoto/S7d5aJOCnoUQMMY8XXWiGQ/o.jpg", "location": {"city": "Chicago", "address1": "2425 W 14th St", "address2": "Unit B", "address3": "", "state": "IL", "country": "US", "zip_code": "60608"}, "id": "camera-ambassador-rentals-chicago", "categories": [{"alias": "photographystores", "title": "Photography Stores & Services"}]}]}
{"total": 132, "businesses": [{"rating": 4.5, "review_count": 3, "name": "Temaxcalapa Taqueria", "url": "https://www.yelp.com/biz/temaxcalapa-taqueria-chicago?adjust_creative=_xGZBQTFH5RSnMk3I7VtQQ&utm_campaign=yelp_api_v3&utm_medium=api_v3_business_search&utm_source=_xGZBQTFH5RSnMk3I7VtQQ", "price": "$", "coordinates": {"latitude": 41.85403, "longitude": -87.68532}, "image_url": "https://s3-media1.fl.yelpcdn.com/bphoto/lgT7n0fradxsrEdcOQwZEQ/o.jpg", "location": {"city": "Chicago", "country": "US", "address2": "", "address3": "", "state": "IL", "address1": "2023 S Western Ave", "zip_code": "60608"}, "id": "temaxcalapa-taqueria-chicago", "categories": [{"alias": "mexican", "title": "Mexican"}]}]}
{"total": 132, "businesses": [{"rating": 3.0, "review_count": 12, "name": "Joe's Shrimp House", "url": "https://www.yelp.com/biz/joes-shrimp-house-chicago?adjust_creative=_xGZBQTFH5RSnMk3I7VtQQ&utm_campaign=yelp_api_v3&utm_medium=api_v3_business_search&utm_source=_xGZBQTFH5RSnMk3I7VtQQ", "price": "$", "coordinates": {"latitude": 41.868824005127, "longitude": -87.6847076416016}, "phone": "+13122268616", "image_url": "https://s3-media3.fl.yelpcdn.com/bphoto/UL3ncoEDf__nZVvNU10yPA/o.jpg", "location": {"city": "Chicago", "country": "US", "address2": "", "address3": "", "state": "IL", "address1": "2325 W Taylor St", "zip_code": "60612"}, "id": "joes-shrimp-house-chicago", "categories": [{"alias": "seafood", "title": "Seafood"}, {"alias": "desserts", "title": "Desserts"}, {"alias": "salad", "title": "Salad"}]}]}
{"total": 132, "businesses": [{"rating": 4.5, "review_count": 9, "name": "Amazing Edibles Catering", "url": "https://www.yelp.com/biz/amazing-edibles-catering-chicago?adjust_creative=_xGZBQTFH5RSnMk3I7VtQQ&utm_campaign=yelp_api_v3&utm_medium=api_v3_business_search&utm_source=_xGZBQTFH5RSnMk3I7VtQQ", "price": "$$$", "coordinates": {"latitude": 41.86275, "longitude": -87.687}, "phone": "+13125631600", "image_url": "https://s3-media4.fl.yelpcdn.com/bphoto/NlllHGb1bQG5mPjfOY3KOw/o.jpg", "location": {"city": "Chicago", "country": "US", "address2": "Unit C", "address3": "", "state": "IL", "address1": "2419 W 14th St", "zip_code": "60608"}, "id": "amazing-edibles-catering-chicago", "categories": [{"alias": "catering", "title": "Caterers"}]}]}
{"total": 132, "businesses": [{"rating": 5.0, "review_count": 2, "name": "Dairy Queen", "url": "https://www.yelp.com/biz/dairy-queen-chicago-4?adjust_creative=_xGZBQTFH5RSnMk3I7VtQQ&utm_campaign=yelp_api_v3&utm_medium=api_v3_business_search&utm_source=_xGZBQTFH5RSnMk3I7VtQQ", "coordinates": {"latitude": 41.854148240904, "longitude": -87.6814647920016}, "phone": "+17738476797", "image_url": "https://s3-media2.fl.yelpcdn.com/bphoto/wclSjMktm4xbEUc-NfK99Q/o.jpg", "location": {"city": "Chicago", "address1": "2214 W 21st St", "address2": "", "address3": "", "state": "IL", "country": "US", "zip_code": "60608"}, "id": "dairy-queen-chicago-4", "categories": [{"alias": "desserts", "title": "Desserts"}, {"alias": "hotdogs", "title": "Fast Food"}, {"alias": "icecream", "title": "Ice Cream & Frozen Yogurt"}]}]}
{"total": 132, "businesses": [{"rating": 5.0, "review_count": 7, "name": "Randolph Flower Shop", "url": "https://www.yelp.com/biz/randolph-flower-shop-chicago?adjust_creative=_xGZBQTFH5RSnMk3I7VtQQ&utm_campaign=yelp_api_v3&utm_medium=api_v3_business_search&utm_source=_xGZBQTFH5RSnMk3I7VtQQ", "price": "$$", "coordinates": {"latitude": 41.8596001, "longitude": -87.6875992}, "phone": "+13122636037", "image_url": "", "location": {"city": "Chicago", "country": "US", "address2": "", "address3": "", "state": "IL", "address1": "2444 W 16th St", "zip_code": "60601"}, "id": "randolph-flower-shop-chicago", "categories": [{"alias": "florists", "title": "Florists"}]}]}
{"total": 132, "businesses": [{"rating": 2.5, "review_count": 21, "name": "Harold's Chicken Shack", "url": "https://www.yelp.com/biz/harolds-chicken-shack-chicago-15?adjust_creative=_xGZBQTFH5RSnMk3I7VtQQ&utm_campaign=yelp_api_v3&utm_medium=api_v3_business_search&utm_source=_xGZBQTFH5RSnMk3I7VtQQ", "price": "$", "coordinates": {"latitude": 41.868782, "longitude": -87.68647}, "phone": "+13127331401", "image_url": "https://s3-media1.fl.yelpcdn.com/bphoto/ysTgtjjLUHRwksgMAdSFWQ/o.jpg", "location": {"city": "Chicago", "country": "US", "address2": "", "address3": "", "state": "IL", "address1": "1014 S Western Ave", "zip_code": "60612"}, "id": "harolds-chicken-shack-chicago-15", "categories": [{"alias": "chicken_wings", "title": "Chicken Wings"}, {"alias": "hotdogs", "title": "Fast Food"}]}]}
{"total": 132, "businesses": [{"rating": 5.0, "review_count": 3, "name": "Cinespace Chicago Film Studios", "url": "https://www.yelp.com/biz/cinespace-chicago-film-studios-chicago-2?adjust_creative=_xGZBQTFH5RSnMk3I7VtQQ&utm_campaign=yelp_api_v3&utm_medium=api_v3_business_search&utm_source=_xGZBQTFH5RSnMk3I7VtQQ", "coordinates": {"latitude": 41.859836, "longitude": -87.6917508}, "phone": "+17735218000", "image_url": "https://s3-media1.fl.yelpcdn.com/bphoto/luV_4vVG42khNe5KpkoVAw/o.jpg", "location": {"city": "Chicago", "country": "US", "address2": "Suite 200", "address3": "", "state": "IL", "address1": "2621 W 15th Pl", "zip_code": "60608"}, "id": "cinespace-chicago-film-studios-chicago-2", "categories": [{"alias": "videofilmproductions", "title": "Video/Film Production"}]}]}
{"total": 132, "businesses": [{"rating": 3.0, "review_count": 8, "name": "Papi's Tacos", "url": "https://www.yelp.com/biz/papis-tacos-chicago?adjust_creative=_xGZBQTFH5RSnMk3I7VtQQ&utm_campaign=yelp_api_v3&utm_medium=api_v3_business_search&utm_source=_xGZBQTFH5RSnMk3I7VtQQ", "price": "$", "coordinates": {"latitude": 41.871345, "longitude": -87.686523}, "phone": "+13128293001", "image_url": "", "location": {"city": "Chicago", "address1": "754 S Western Ave", "address2": "", "address3": "", "state": "IL", "country": "US", "zip_code": "60612"}, "id": "papis-tacos-chicago", "categories": [{"alias": "mexican", "title": "Mexican"}]}]}
{"total": 132, "businesses": [{"rating": 3.5, "review_count": 5, "name": "Subway", "url": "https://www.yelp.com/biz/subway-chicago-185?adjust_creative=_xGZBQTFH5RSnMk3I7VtQQ&utm_campaign=yelp_api_v3&utm_medium=api_v3_business_search&utm_source=_xGZBQTFH5RSnMk3I7VtQQ", "price": "$", "coordinates": {"latitude": 41.8687782, "longitude": -87.68647}, "phone": "+13122439727", "image_url": "https://s3-media2.fl.yelpcdn.com/bphoto/tK8XgFV1zmgRWPebht-J_w/o.jpg", "location": {"city": "Chicago", "country": "US", "address2": "", "address3": "", "state": "IL", "address1": "1014 S Western Ave", "zip_code": "60612"}, "id": "subway-chicago-185", "categories": [{"alias": "sandwiches", "title": "Sandwiches"}, {"alias": "hotdogs", "title": "Fast Food"}]}]}
{"total": 132, "businesses": [{"rating": 5.0, "review_count": 3, "name": "Richardson Seating Corporation", "url": "https://www.yelp.com/biz/richardson-seating-corporation-chicago?adjust_creative=_xGZBQTFH5RSnMk3I7VtQQ&utm_campaign=yelp_api_v3&utm_medium=api_v3_business_search&utm_source=_xGZBQTFH5RSnMk3I7VtQQ", "price": "$", "coordinates": {"latitude": 41.8700651, "longitude": -87.6900145}, "phone": "+13128294040", "image_url": "https://s3-media2.fl.yelpcdn.com/bphoto/OPoqTRs7jrRJDzXW9mQvhQ/o.jpg", "location": {"city": "Chicago", "address1": "2545 W Arthington Street", "address2": "", "address3": "", "state": "IL", "country": "US", "zip_code": "60612"}, "id": "richardson-seating-corporation-chicago", "categories": [{"alias": "furniture", "title": "Furniture Stores"}]}]}
{"total": 132, "businesses": [{"rating": 3.0, "review_count": 30, "name": "Salad Spinners Catering", "url": "https://www.yelp.com/biz/salad-spinners-catering-chicago?adjust_creative=_xGZBQTFH5RSnMk3I7VtQQ&utm_campaign=yelp_api_v3&utm_medium=api_v3_business_search&utm_source=_xGZBQTFH5RSnMk3I7VtQQ", "price": "$", "coordinates": {"latitude": 41.86275, "longitude": -87.687}, "image_url": "https://s3-media4.fl.yelpcdn.com/bphoto/OmAg0VWGbqzopYiI4wPZOQ/o.jpg", "location": {"city": "Chicago", "country": "US", "address2": "", "address3": "", "state": "IL", "address1": "2419 W 14th St", "zip_code": "60608"}, "id": "salad-spinners-catering-chicago", "categories": [{"alias": "catering", "title": "Caterers"}]}]}
{"total": 132, "businesses": [{"rating": 5.0, "review_count": 3, "name": "Blair Canine Care", "url": "https://www.yelp.com/biz/blair-canine-care-chicago?adjust_creative=_xGZBQTFH5RSnMk3I7VtQQ&utm_campaign=yelp_api_v3&utm_medium=api_v3_business_search&utm_source=_xGZBQTFH5RSnMk3I7VtQQ", "coordinates": {"latitude": 41.8714141845703, "longitude": -87.6868057250977}, "phone": "+13122269346", "image_url": "https://s3-media1.fl.yelpcdn.com/bphoto/Nc_2jMv6sPsZzcTxRcGFrg/o.jpg", "location": {"city": "Chicago", "address1": "2414 W Polk St", "address2": "", "address3": "", "state": "IL", "country": "US", "zip_code": "60612"}, "id": "blair-canine-care-chicago", "categories": [{"alias": "pet_sitting", "title": "Pet Boarding/Pet Sitting"}]}]}
{"total": 132, "businesses": [{"rating": 5.0, "review_count": 5, "name": "Western Live Poultry", "url": "https://www.yelp.com/biz/western-live-poultry-chicago?adjust_creative=_xGZBQTFH5RSnMk3I7VtQQ&utm_campaign=yelp_api_v3&utm_medium=api_v3_business_search&utm_source=_xGZBQTFH5RSnMk3I7VtQQ", "price": "$", "coordinates": {"latitude": 41.8545577, "longitude": -87.6855551}, "phone": "+17738472222", "image_url": "https://s3-media3.fl.yelpcdn.com/bphoto/SDPw9B2seZ8ZEpE0F4oJLw/o.jpg", "location": {"city": "Chicago", "address1": "2003 S Western Ave", "address2": "", "address3": "", "state": "IL", "country": "US", "zip_code": "60608"}, "id": "western-live-poultry-chicago", "categories": [{"alias": "meats", "title": "Meat Shops"}]}]}
{"total": 132, "businesses": [{"rating": 5.0, "review_count": 1, "name": "The Club house", "url": "https://www.yelp.com/biz/the-club-house-chicago-3?adjust_creative=_xGZBQTFH5RSnMk3I7VtQQ&utm_campaign=yelp_api_v3&utm_medium=api_v3_business_search&utm_source=_xGZBQTFH5RSnMk3I7VtQQ", "price": "$", "coordinates": {"latitude": 41.8661003112793, "longitude": -87.6872329711914}, "phone": "+13124911600", "image_url": "https://s3-media2.fl.yelpcdn.com/bphoto/nOZWbaULMux6qdmx5vplxw/o.jpg", "location": {"city": "Chicago", "country": "US", "address2": "", "address3": "", "state": "IL", "address1": "2431 W Roosevelt Rd", "zip_code": "60608"}, "id": "the-club-house-chicago-3", "categories": [{"alias": "venues", "title": "Venues & Event Spaces"}, {"alias": "coffee", "title": "Coffee & Tea"}, {"alias": "social_clubs", "title": "Social Clubs"}]}]}
{"total": 132, "businesses": [{"rating": 3.5, "review_count": 27, "name": "Jiffy Lube", "url": "https://www.yelp.com/biz/jiffy-lube-chicago-19?adjust_creative=_xGZBQTFH5RSnMk3I7VtQQ&utm_campaign=yelp_api_v3&utm_medium=api_v3_business_search&utm_source=_xGZBQTFH5RSnMk3I7VtQQ", "coordinates": {"latitude": 41.8656999, "longitude": -87.68637}, "phone": "+13126330600", "image_url": "https://s3-media3.fl.yelpcdn.com/bphoto/VL96hCa9HBcEQXQgFGJlBQ/o.jpg", "location": {"city": "Chicago", "address1": "1230 S Western Ave", "address2": "", "address3": "", "state": "IL", "country": "US", "zip_code": "60608"}, "id": "jiffy-lube-chicago-19", "categories": [{"alias": "oilchange", "title": "Oil Change Stations"}]}]}
{"total": 132, "businesses": [{"rating": 3.0, "review_count": 6, "name": "Westside Gyros & Pita Kabab", "url": "https://www.yelp.com/biz/westside-gyros-and-pita-kabab-chicago?adjust_creative=_xGZBQTFH5RSnMk3I7VtQQ&utm_campaign=yelp_api_v3&utm_medium=api_v3_business_search&utm_source=_xGZBQTFH5RSnMk3I7VtQQ", "price": "$", "coordinates": {"latitude": 41.8714371, "longitude": -87.686409}, "phone": "+13127339300", "image_url": "https://s3-media3.fl.yelpcdn.com/bphoto/AOP3AxpoDpqBDdemFF1YTA/o.jpg", "location": {"city": "Chicago", "country": "US", "address2": "", "address3": "", "state": "IL", "address1": "754 S Western Ave", "zip_code": "60612"}, "id": "westside-gyros-and-pita-kabab-chicago", "categories": [{"alias": "mediterranean", "title": "Mediterranean"}, {"alias": "hotdogs", "title": "Fast Food"}]}]}
{"total": 132, "businesses": [{"rating": 5.0, "review_count": 1, "name": "Ta Koz", "url": "https://www.yelp.com/biz/ta-koz-chicago?adjust_creative=_xGZBQTFH5RSnMk3I7VtQQ&utm_campaign=yelp_api_v3&utm_medium=api_v3_business_search&utm_source=_xGZBQTFH5RSnMk3I7VtQQ", "price": "$", "coordinates": {"latitude": 41.86886, "longitude": -87.68334}, "phone": "+13128461393", "image_url": "", "location": {"city": "Chicago", "country": "US", "address2": "", "address3": "", "state": "IL", "address1": "2255 W Taylor St", "zip_code": "60612"}, "id": "ta-koz-chicago", "categories": [{"alias": "mexican", "title": "Mexican"}]}]}
{"total": 132, "businesses": [{"rating": 3.0, "review_count": 19, "name": "Goodyear / Interstate Auto Centers", "url": "https://www.yelp.com/biz/goodyear-interstate-auto-centers-chicago?adjust_creative=_xGZBQTFH5RSnMk3I7VtQQ&utm_campaign=yelp_api_v3&utm_medium=api_v3_business_search&utm_source=_xGZBQTFH5RSnMk3I7VtQQ", "coordinates": {"latitude": 41.8650794, "longitude": -87.6864334}, "phone": "+13127335333", "image_url": "https://s3-media4.fl.yelpcdn.com/bphoto/P7Jzou0oGheYB4fXpRSR3g/o.jpg", "location": {"city": "Chicago", "country": "US", "address2": "", "address3": "", "state": "IL", "address1": "1254 S Western Ave", "zip_code": "60608"}, "id": "goodyear-interstate-auto-centers-chicago", "categories": [{"alias": "autorepair", "title": "Auto Repair"}, {"alias": "tires", "title": "Tires"}, {"alias": "oilchange", "title": "Oil Change Stations"}]}]}
{"total": 132, "businesses": [{"rating": 3.0, "review_count": 13, "name": "Taylor Made Fades", "url": "https://www.yelp.com/biz/taylor-made-fades-chicago?adjust_creative=_xGZBQTFH5RSnMk3I7VtQQ&utm_campaign=yelp_api_v3&utm_medium=api_v3_business_search&utm_source=_xGZBQTFH5RSnMk3I7VtQQ", "price": "$$", "coordinates": {"latitude": 41.869258, "longitude": -87.682594}, "phone": "+13129781952", "image_url": "https://s3-media2.fl.yelpcdn.com/bphoto/onfry_v3MMrFKBDamzHfFA/o.jpg", "location": {"city": "Chicago", "country": "US", "address2": "", "address3": "", "state": "IL", "address1": "2234 W Taylor St", "zip_code": "60612"}, "id": "taylor-made-fades-chicago", "categories": [{"alias": "barbers", "title": "Barbers"}]}]}
{"total": 132, "businesses": [{"rating": 5.0, "review_count": 1, "name": "Livingston Park", "url": "https://www.yelp.com/biz/livingston-park-chicago?adjust_creative=_xGZBQTFH5RSnMk3I7VtQQ&utm_campaign=yelp_api_v3&utm_medium=api_v3_business_search&utm_source=_xGZBQTFH5RSnMk3I7VtQQ", "coordinates": {"latitude": 41.8714485168457, "longitude": -87.6763610839844}, "image_url": "https://s3-media4.fl.yelpcdn.com/bphoto/nUCWSZN3ntrLC7IiHbphjA/o.jpg", "location": {"city": "Chicago", "country": "US", "address2": "", "address3": "", "state": "IL", "address1": "Polk St", "zip_code": "60612"}, "id": "livingston-park-chicago", "categories": [{"alias": "parks", "title": "Parks"}]}]}
{"total": 132, "businesses": [{"rating": 5.0, "review_count": 5, "name": "Bowery and Bash", "url": "https://www.yelp.com/biz/bowery-and-bash-chicago?adjust_creative=_xGZBQTFH5RSnMk3I7VtQQ&utm_campaign=yelp_api_v3&utm_medium=api_v3_business_search&utm_source=_xGZBQTFH5RSnMk3I7VtQQ", "coordinates": {"latitude": 41.86074, "longitude": -87.68686}, "phone": "+13128821891", "image_url": "https://s3-media1.fl.yelpcdn.com/bphoto/wEmSwR_NWvKbSP83vS3Vjg/o.jpg", "location": {"city": "Chicago", "address1": "1500 S Western Ave", "address2": null, "address3": "", "state": "IL", "country": "US", "zip_code": "60608"}, "id": "bowery-and-bash-chicago", "categories": [{"alias": "partyequipmentrentals", "title": "Party Equipment Rentals"}]}]}
{"total": 132, "businesses": [{"rating": 3.0, "review_count": 6, "name": "KFC", "url": "https://www.yelp.com/biz/kfc-chicago-71?adjust_creative=_xGZBQTFH5RSnMk3I7VtQQ&utm_campaign=yelp_api_v3&utm_medium=api_v3_business_search&utm_source=_xGZBQTFH5RSnMk3I7VtQQ", "price": "$", "coordinates": {"latitude": 41.8669568869465, "longitude": -87.6863112001564}, "phone": "+13126009353", "image_url": "https://s3-media4.fl.yelpcdn.com/bphoto/TDG7JagusBXJw_0SZoZE4w/o.jpg", "location": {"city": "Chicago", "address1": "1144 S. Western Avenue", "address2": "", "address3": "", "state": "IL", "country": "US", "zip_code": "60612"}, "id": "kfc-chicago-71", "categories": [{"alias": "hotdogs", "title": "Fast Food"}, {"alias": "chicken_wings", "title": "Chicken Wings"}]}]}
{"total": 132, "businesses": [{"rating": 3.0, "review_count": 3, "name": "Dunkin' Donuts", "url": "https://www.yelp.com/biz/dunkin-donuts-chicago-88?adjust_creative=_xGZBQTFH5RSnMk3I7VtQQ&utm_campaign=yelp_api_v3&utm_medium=api_v3_business_search&utm_source=_xGZBQTFH5RSnMk3I7VtQQ", "price": "$", "coordinates": {"latitude": 41.86428, "longitude": -87.68624}, "phone": "+13128509220", "image_url": "https://s3-media3.fl.yelpcdn.com/bphoto/qZraXF_-i35MkDq3xDceeQ/o.jpg", "location": {"city": "Chicago", "country": "US", "address2": "", "address3": "", "state": "IL", "address1": "2401 W Ogden Ave", "zip_code": "60608"}, "id": "dunkin-donuts-chicago-88", "categories": [{"alias": "coffee", "title": "Coffee & Tea"}, {"alias": "donuts", "title": "Donuts"}]}]}
{"total": 132, "businesses": [{"rating": 5.0, "review_count": 4, "name": "Dare2Dream Photography", "url": "https://www.yelp.com/biz/dare2dream-photography-chicago?adjust_creative=_xGZBQTFH5RSnMk3I7VtQQ&utm_campaign=yelp_api_v3&utm_medium=api_v3_business_search&utm_source=_xGZBQTFH5RSnMk3I7VtQQ", "coordinates": {"latitude": 41.868766, "longitude": -87.68576}, "phone": "+17733548505", "image_url": "https://s3-media3.fl.yelpcdn.com/bphoto/vMwxL1341cfNsKdSASCk3w/o.jpg", "location": {"city": "Chicago", "address1": "1017 S Western Ave", "address2": "Unit 4", "address3": "", "state": "IL", "country": "US", "zip_code": "60612"}, "id": "dare2dream-photography-chicago", "categories": [{"alias": "photographers", "title": "Photographers"}]}]}
{"total": 132, "businesses": [{"rating": 5.0, "review_count": 4, "name": "Accent Minded", "url": "https://www.yelp.com/biz/accent-minded-chicago?adjust_creative=_xGZBQTFH5RSnMk3I7VtQQ&utm_campaign=yelp_api_v3&utm_medium=api_v3_business_search&utm_source=_xGZBQTFH5RSnMk3I7VtQQ", "price": "$$", "coordinates": {"latitude": 41.8560299, "longitude": -87.68102}, "phone": "+13126129005", "image_url": "https://s3-media4.fl.yelpcdn.com/bphoto/MkHulx0tEYgFiA7eJ23NpQ/o.jpg", "location": {"city": "Chicago", "country": "US", "address2": null, "address3": "", "state": "IL", "address1": "2200 W 19th St", "zip_code": "60608"}, "id": "accent-minded-chicago", "categories": [{"alias": "homedecor", "title": "Home Decor"}, {"alias": "furniture", "title": "Furniture Stores"}, {"alias": "vintage", "title": "Used, Vintage & Consignment"}]}]}
{"total": 132, "businesses": [{"rating": 5.0, "review_count": 3, "name": "Chicago Producers", "url": "https://www.yelp.com/biz/chicago-producers-chicago?adjust_creative=_xGZBQTFH5RSnMk3I7VtQQ&utm_campaign=yelp_api_v3&utm_medium=api_v3_business_search&utm_source=_xGZBQTFH5RSnMk3I7VtQQ", "coordinates": {"latitude": 41.870754, "longitude": -87.685768}, "phone": "+13122266900", "image_url": "https://s3-media4.fl.yelpcdn.com/bphoto/aMjeMiPcdQXSN5svHmg2aw/o.jpg", "location": {"city": "Chicago", "address1": "817 S Western Ave", "address2": "", "address3": "", "state": "IL", "country": "US", "zip_code": "60612"}, "id": "chicago-producers-chicago", "categories": [{"alias": "web_design", "title": "Web Design"}, {"alias": "photographers", "title": "Photographers"}, {"alias": "videographers", "title": "Videographers"}]}]}
{"total": 132, "businesses": [{"rating": 3.0, "review_count": 5, "name": "Soul Food To Go", "url": "https://www.yelp.com/biz/soul-food-to-go-chicago?adjust_creative=_xGZBQTFH5RSnMk3I7VtQQ&utm_campaign=yelp_api_v3&utm_medium=api_v3_business_search&utm_source=_xGZBQTFH5RSnMk3I7VtQQ", "price": "$", "coordinates": {"latitude": 41.8689381, "longitude": -87.683326}, "image_url": "https://s3-media1.fl.yelpcdn.com/bphoto/-_oBLXAfymYf5G-8r1P3PQ/o.jpg", "location": {"city": "Chicago", "country": "US", "address2": "", "address3": "", "state": "IL", "address1": "2253 W Taylor", "zip_code": "60612"}, "id": "soul-food-to-go-chicago", "categories": [{"alias": "soulfood", "title": "Soul Food"}, {"alias": "southern", "title": "Southern"}, {"alias": "comfortfood", "title": "Comfort Food"}]}]}
{"total": 132, "businesses": [{"rating": 4.5, "review_count": 4, "name": "Juana's Home Daycare", "url": "https://www.yelp.com/biz/juanas-home-daycare-chicago?adjust_creative=_xGZBQTFH5RSnMk3I7VtQQ&utm_campaign=yelp_api_v3&utm_medium=api_v3_business_search&utm_source=_xGZBQTFH5RSnMk3I7VtQQ", "coordinates": {"latitude": 41.872177, "longitude": -87.684631}, "phone": "+13122265529", "image_url": "", "location": {"city": "Chicago", "country": "US", "address2": "", "address3": "", "state": "IL", "address1": "733 S Claremont Ave", "zip_code": "60612"}, "id": "juanas-home-daycare-chicago", "categories": [{"alias": "childcare", "title": "Child Care & Day Care"}]}]}
{"total": 132, "businesses": [{"rating": 4.5, "review_count": 3, "name": "The Music Zone", "url": "https://www.yelp.com/biz/the-music-zone-chicago?adjust_creative=_xGZBQTFH5RSnMk3I7VtQQ&utm_campaign=yelp_api_v3&utm_medium=api_v3_business_search&utm_source=_xGZBQTFH5RSnMk3I7VtQQ", "coordinates": {"latitude": 41.8596, "longitude": -87.6876}, "phone": "+13124464866", "image_url": "", "location": {"city": "Chicago", "address1": "2444 W 16th St", "address2": "", "address3": "", "state": "IL", "country": "US", "zip_code": "60608"}, "id": "the-music-zone-chicago", "categories": [{"alias": "musicvenues", "title": "Music Venues"}]}]}
{"total": 132, "businesses": [{"rating": 4.0, "review_count": 1, "name": "El Conde SA", "url": "https://www.yelp.com/biz/el-conde-sa-chicago-2?adjust_creative=_xGZBQTFH5RSnMk3I7VtQQ&utm_campaign=yelp_api_v3&utm_medium=api_v3_business_search&utm_source=_xGZBQTFH5RSnMk3I7VtQQ", "coordinates": {"latitude": 41.8648339, "longitude": -87.6860232}, "phone": "+13126662539", "image_url": "https://s3-media2.fl.yelpcdn.com/bphoto/7QmcJgWtd5VrMK6sG_ba8g/o.jpg", "location": {"city": "Chicago", "country": "US", "address2": "", "address3": "", "state": "IL", "address1": "1247 S Western Ave", "zip_code": "60608"}, "id": "el-conde-sa-chicago-2", "categories": [{"alias": "mexican", "title": "Mexican"}]}]}
{"total": 132, "businesses": [{"rating": 2.0, "review_count": 9, "name": "Papi's Tacos", "url": "https://www.yelp.com/biz/papis-tacos-chicago-2?adjust_creative=_xGZBQTFH5RSnMk3I7VtQQ&utm_campaign=yelp_api_v3&utm_medium=api_v3_business_search&utm_source=_xGZBQTFH5RSnMk3I7VtQQ", "price": "$", "coordinates": {"latitude": 41.86924, "longitude": -87.68483}, "phone": "+13128293001", "image_url": "", "location": {"city": "Chicago", "country": "US", "address2": "", "address3": "", "state": "IL", "address1": "2322 W Taylor Ave", "zip_code": "60612"}, "id": "papis-tacos-chicago-2", "categories": [{"alias": "mexican", "title": "Mexican"}]}]}
{"total": 132, "businesses": [{"rating": 4.5, "review_count": 3, "name": "Kiwi's Boutique", "url": "https://www.yelp.com/biz/kiwis-boutique-chicago?adjust_creative=_xGZBQTFH5RSnMk3I7VtQQ&utm_campaign=yelp_api_v3&utm_medium=api_v3_business_search&utm_source=_xGZBQTFH5RSnMk3I7VtQQ", "price": "$$", "coordinates": {"latitude": 41.868766, "longitude": -87.68576}, "phone": "+13124213322", "image_url": "https://s3-media1.fl.yelpcdn.com/bphoto/sCZqO9Zg_XEZddbHiSNfPw/o.jpg", "location": {"city": "Chicago", "country": "US", "address2": "", "address3": "", "state": "IL", "address1": "1015 S Western Ave", "zip_code": "60612"}, "id": "kiwis-boutique-chicago", "categories": [{"alias": "womenscloth", "title": "Women's Clothing"}, {"alias": "menscloth", "title": "Men's Clothing"}]}]}
{"total": 132, "businesses": [{"rating": 3.0, "review_count": 10, "name": "Whitening Bright Studio", "url": "https://www.yelp.com/biz/whitening-bright-studio-chicago-2?adjust_creative=_xGZBQTFH5RSnMk3I7VtQQ&utm_campaign=yelp_api_v3&utm_medium=api_v3_business_search&utm_source=_xGZBQTFH5RSnMk3I7VtQQ", "price": "$$", "coordinates": {"latitude": 41.866894, "longitude": -87.687042}, "image_url": "", "location": {"city": "Chicago", "country": "US", "address2": "", "address3": "", "state": "IL", "address1": "2422 W Roosevelt Rd", "zip_code": "60608"}, "id": "whitening-bright-studio-chicago-2", "categories": [{"alias": "medicalspa", "title": "Medical Spas"}]}]}
{"total": 132, "businesses": [{"rating": 4.5, "review_count": 2, "name": "K-suerte Cookies & Cards", "url": "https://www.yelp.com/biz/k-suerte-cookies-and-cards-chicago?adjust_creative=_xGZBQTFH5RSnMk3I7VtQQ&utm_campaign=yelp_api_v3&utm_medium=api_v3_business_search&utm_source=_xGZBQTFH5RSnMk3I7VtQQ", "price": "$", "coordinates": {"latitude": 41.86275, "longitude": -87.687}, "image_url": "", "location": {"city": "Chicago", "country": "US", "address2": "", "address3": "", "state": "IL", "address1": "2419 W 14th St", "zip_code": "60608"}, "id": "k-suerte-cookies-and-cards-chicago", "categories": [{"alias": "bakeries", "title": "Bakeries"}]}]}
{"total": 132, "businesses": [{"rating": 4.5, "review_count": 2, "name": "Chicago Hope Academy", "url": "https://www.yelp.com/biz/chicago-hope-academy-chicago?adjust_creative=_xGZBQTFH5RSnMk3I7VtQQ&utm_campaign=yelp_api_v3&utm_medium=api_v3_business_search&utm_source=_xGZBQTFH5RSnMk3I7VtQQ", "coordinates": {"latitude": 41.8703294, "longitude": -87.6804884}, "phone": "+13124911600", "image_url": "https://s3-media2.fl.yelpcdn.com/bphoto/ToHv6WEsz8Q0C1LUmTQnAg/o.jpg", "location": {"city": "Chicago", "country": "US", "address2": "", "address3": "", "state": "IL", "address1": "2189 W Bowler St", "zip_code": "60612"}, "id": "chicago-hope-academy-chicago", "categories": [{"alias": "highschools", "title": "Middle Schools & High Schools"}]}]}
{"total": 132, "businesses": [{"rating": 4.5, "review_count": 3, "name": "El Valle Food & Liquors", "url": "https://www.yelp.com/biz/el-valle-food-and-liquors-chicago?adjust_creative=_xGZBQTFH5RSnMk3I7VtQQ&utm_campaign=yelp_api_v3&utm_medium=api_v3_business_search&utm_source=_xGZBQTFH5RSnMk3I7VtQQ", "price": "$$", "coordinates": {"latitude": 41.8540725708008, "longitude": -87.6811447143555}, "phone": "+13122265428", "image_url": "https://s3-media3.fl.yelpcdn.com/bphoto/jVJ2OtW0OVBRaCgWe3sWWA/o.jpg", "location": {"city": "Chicago", "address1": "2024 S Leavitt", "address2": "", "address3": "", "state": "IL", "country": "US", "zip_code": "60608"}, "id": "el-valle-food-and-liquors-chicago", "categories": [{"alias": "beer_and_wine", "title": "Beer, Wine & Spirits"}]}]}
{"total": 132, "businesses": [{"rating": 3.0, "review_count": 4, "name": "Enterprise Rent-A-Car", "url": "https://www.yelp.com/biz/enterprise-rent-a-car-chicago-51?adjust_creative=_xGZBQTFH5RSnMk3I7VtQQ&utm_campaign=yelp_api_v3&utm_medium=api_v3_business_search&utm_source=_xGZBQTFH5RSnMk3I7VtQQ", "coordinates": {"latitude": 41.865925, "longitude": -87.686167}, "phone": "+13122439190", "image_url": "https://s3-media2.fl.yelpcdn.com/bphoto/Xp0L3YJVvyx2EL9amRUgVQ/o.jpg", "location": {"city": "Chicago", "address1": "1224 S Western Ave", "address2": null, "address3": null, "state": "IL", "country": "US", "zip_code": "60608"}, "id": "enterprise-rent-a-car-chicago-51", "categories": [{"alias": "carrental", "title": "Car Rental"}]}]}
{"total": 132, "businesses": [{"rating": 4.0, "review_count": 4, "name": "Accents Flowers & Gifts", "url": "https://www.yelp.com/biz/accents-flowers-and-gifts-chicago?adjust_creative=_xGZBQTFH5RSnMk3I7VtQQ&utm_campaign=yelp_api_v3&utm_medium=api_v3_business_search&utm_source=_xGZBQTFH5RSnMk3I7VtQQ", "price": "$$", "coordinates": {"latitude": 41.86925, "longitude": -87.68305}, "phone": "+13128504438", "image_url": "https://s3-media1.fl.yelpcdn.com/bphoto/XdaRG2lKDoy9DVI_04fMMg/o.jpg", "location": {"city": "Chicago", "address1": "2246 W Taylor St", "address2": "", "address3": "", "state": "IL", "country": "US", "zip_code": "60612"}, "id": "accents-flowers-and-gifts-chicago", "categories": [{"alias": "florists", "title": "Florists"}]}]}
{"total": 132, "businesses": [{"rating": 5.0, "review_count": 5, "name": "Pilsen Pet Care", "url": "https://www.yelp.com/biz/pilsen-pet-care-chicago?adjust_creative=_xGZBQTFH5RSnMk3I7VtQQ&utm_campaign=yelp_api_v3&utm_medium=api_v3_business_search&utm_source=_xGZBQTFH5RSnMk3I7VtQQ", "coordinates": {"latitude": 41.8535194, "longitude": -87.6923523}, "image_url": "https://s3-media2.fl.yelpcdn.com/bphoto/0JrZ9SWshY8aJubjHHk_tg/o.jpg", "location": {"city": "Chicago", "address1": "2645 W 21st St", "address2": "", "address3": "", "state": "IL", "country": "US", "zip_code": "60608"}, "id": "pilsen-pet-care-chicago", "categories": [{"alias": "dogwalkers", "title": "Dog Walkers"}, {"alias": "pet_sitting", "title": "Pet Boarding/Pet Sitting"}]}]}
{"total": 132, "businesses": [{"rating": 2.0, "review_count": 4, "name": "See Thru Chinese Kitchen", "url": "https://www.yelp.com/biz/see-thru-chinese-kitchen-chicago-12?adjust_creative=_xGZBQTFH5RSnMk3I7VtQQ&utm_campaign=yelp_api_v3&utm_medium=api_v3_business_search&utm_source=_xGZBQTFH5RSnMk3I7VtQQ", "price": "$$", "coordinates": {"latitude": 41.8667907714844, "longitude": -87.6786804199219}, "phone": "+13127333888", "image_url": "https://s3-media4.fl.yelpcdn.com/bphoto/yn79guOo_noDuTL4jBz3lA/o.jpg", "location": {"city": "Chicago", "country": "US", "address2": "", "address3": "", "state": "IL", "address1": "5616 W Roosevelt Rd", "zip_code": "60608"}, "id": "see-thru-chinese-kitchen-chicago-12", "categories": [{"alias": "chinese", "title": "Chinese"}]}]}
{"total": 132, "businesses": [{"rating": 3.0, "review_count": 9, "name": "BeerHoptacular", "url": "https://www.yelp.com/biz/beerhoptacular-chicago?adjust_creative=_xGZBQTFH5RSnMk3I7VtQQ&utm_campaign=yelp_api_v3&utm_medium=api_v3_business_search&utm_source=_xGZBQTFH5RSnMk3I7VtQQ", "price": "$$", "coordinates": {"latitude": 41.859836, "longitude": -87.6917508}, "image_url": "https://s3-media3.fl.yelpcdn.com/bphoto/jOERrNXt2p3nn4Ox76bofg/o.jpg", "location": {"city": "Chicago", "country": "US", "address2": "", "address3": "", "state": "IL", "address1": "2621 W 15th Pl", "zip_code": "60608"}, "id": "beerhoptacular-chicago", "categories": [{"alias": "festivals", "title": "Festivals"}, {"alias": "breweries", "title": "Breweries"}]}]}
{"total": 132, "businesses": [{"rating": 2.5, "review_count": 11, "name": "Angel's Tire Shop", "url": "https://www.yelp.com/biz/angels-tire-shop-chicago?adjust_creative=_xGZBQTFH5RSnMk3I7VtQQ&utm_campaign=yelp_api_v3&utm_medium=api_v3_business_search&utm_source=_xGZBQTFH5RSnMk3I7VtQQ", "coordinates": {"latitude": 41.85734, "longitude": -87.68071}, "phone": "+13124550822", "image_url": "https://s3-media2.fl.yelpcdn.com/bphoto/Req36MwJE3AjyfuerqVYxA/o.jpg", "location": {"city": "Chicago", "country": "US", "address2": "", "address3": "", "state": "IL", "address1": "2159 W 18th St", "zip_code": "60608"}, "id": "angels-tire-shop-chicago", "categories": [{"alias": "tires", "title": "Tires"}]}]}
{"total": 132, "businesses": [{"rating": 5.0, "review_count": 1, "name": "Piece Of Mine Hair Salon", "url": "https://www.yelp.com/biz/piece-of-mine-hair-salon-chicago?adjust_creative=_xGZBQTFH5RSnMk3I7VtQQ&utm_campaign=yelp_api_v3&utm_medium=api_v3_business_search&utm_source=_xGZBQTFH5RSnMk3I7VtQQ", "price": "$$", "coordinates": {"latitude": 41.8666522682121, "longitude": -87.6865877753853}, "phone": "+13122433862", "image_url": "", "location": {"city": "Chicago", "address1": "2422 W Roosevelt Rd", "address2": "", "address3": "", "state": "IL", "country": "US", "zip_code": "60608"}, "id": "piece-of-mine-hair-salon-chicago", "categories": [{"alias": "hairstylists", "title": "Hair Stylists"}]}]}
{"total": 132, "businesses": [{"rating": 3.5, "review_count": 5, "name": "The Classic Man Barbershop", "url": "https://www.yelp.com/biz/the-classic-man-barbershop-chicago?adjust_creative=_xGZBQTFH5RSnMk3I7VtQQ&utm_campaign=yelp_api_v3&utm_medium=api_v3_business_search&utm_source=_xGZBQTFH5RSnMk3I7VtQQ", "coordinates": {"latitude": 41.8691496466039, "longitude": -87.6850593596195}, "phone": "+13122557472", "image_url": "https://s3-media2.fl.yelpcdn.com/bphoto/qdNcYocee4ffKBIdeXwlNg/o.jpg", "location": {"city": "Chicago", "country": "US", "address2": "Ste 1", "address3": "", "state": "IL", "address1": "2334 W Taylor St", "zip_code": "60612"}, "id": "the-classic-man-barbershop-chicago", "categories": [{"alias": "barbers", "title": "Barbers"}]}]}
{"total": 132, "businesses": [{"rating": 4.5, "review_count": 6, "name": "G & R Auto Corp", "url": "https://www.yelp.com/biz/g-and-r-auto-corp-chicago?adjust_creative=_xGZBQTFH5RSnMk3I7VtQQ&utm_campaign=yelp_api_v3&utm_medium=api_v3_business_search&utm_source=_xGZBQTFH5RSnMk3I7VtQQ", "coordinates": {"latitude": 41.8705567, "longitude": -87.6863354}, "phone": "+13128509417", "image_url": "https://s3-media3.fl.yelpcdn.com/bphoto/TPD6RK0HSiXLPlarK_a0wg/o.jpg", "location": {"city": "Chicago", "country": "US", "address2": null, "address3": null, "state": "IL", "address1": "824 S Western Ave", "zip_code": "60612"}, "id": "g-and-r-auto-corp-chicago", "categories": [{"alias": "autorepair", "title": "Auto Repair"}]}]}
{"total": 132, "businesses": [{"rating": 5.0, "review_count": 1, "name": "Bean Products", "url": "https://www.yelp.com/biz/bean-products-chicago?adjust_creative=_xGZBQTFH5RSnMk3I7VtQQ&utm_campaign=yelp_api_v3&utm_medium=api_v3_business_search&utm_source=_xGZBQTFH5RSnMk3I7VtQQ", "coordinates": {"latitude": 41.86074, "longitude": -87.68686}, "phone": "+13126663600", "image_url": "", "location": {"city": "Chicago", "address1": "1500 S Western Avenue", "address2": "", "address3": "", "state": "IL", "country": "US", "zip_code": "60608"}, "id": "bean-products-chicago", "categories": [{"alias": "homedecor", "title": "Home Decor"}, {"alias": "pilates", "title": "Pilates"}, {"alias": "yoga", "title": "Yoga"}]}]}
{"total": 132, "businesses": [{"rating": 3.0, "review_count": 2, "name": "Department of Consumer Services", "url": "https://www.yelp.com/biz/department-of-consumer-services-chicago-2?adjust_creative=_xGZBQTFH5RSnMk3I7VtQQ&utm_campaign=yelp_api_v3&utm_medium=api_v3_business_search&utm_source=_xGZBQTFH5RSnMk3I7VtQQ", "coordinates": {"latitude": 41.8657068230499, "longitude": -87.6851912587881}, "phone": "+13127464200", "image_url": "https://s3-media3.fl.yelpcdn.com/bphoto/unMKSzpJ9UIUUZE7g_vGlg/o.jpg", "location": {"city": "Chicago", "address1": "2350 W Ogden Ave", "address2": "", "address3": "", "state": "IL", "country": "US", "zip_code": "60608"}, "id": "department-of-consumer-services-chicago-2", "categories": [{"alias": "publicservicesgovt", "title": "Public Services & Government"}]}]}
{"total": 132, "businesses": [{"rating": 5.0, "review_count": 1, "name": "Barron Custom Furniture", "url": "https://www.yelp.com/biz/barron-custom-furniture-chicago?adjust_creative=_xGZBQTFH5RSnMk3I7VtQQ&utm_campaign=yelp_api_v3&utm_medium=api_v3_business_search&utm_source=_xGZBQTFH5RSnMk3I7VtQQ", "price": "$$", "coordinates": {"latitude": 41.8594666, "longitude": -87.6874924}, "phone": "+13128294974", "image_url": "", "location": {"city": "Chicago", "country": "US", "address2": "Ste 5F", "address3": "", "state": "IL", "address1": "2444 W 16th St", "zip_code": "60608"}, "id": "barron-custom-furniture-chicago", "categories": [{"alias": "furniture", "title": "Furniture Stores"}]}]}
{"total": 132, "businesses": [{"rating": 4.0, "review_count": 2, "name": "Sinai Community Institute", "url": "https://www.yelp.com/biz/sinai-community-institute-chicago?adjust_creative=_xGZBQTFH5RSnMk3I7VtQQ&utm_campaign=yelp_api_v3&utm_medium=api_v3_business_search&utm_source=_xGZBQTFH5RSnMk3I7VtQQ", "coordinates": {"latitude": 41.8620449, "longitude": -87.6930117}, "phone": "+17732576936", "image_url": "https://s3-media1.fl.yelpcdn.com/bphoto/sbbITJfiS0okoFXyNQOjXA/o.jpg", "location": {"city": "Chicago", "address1": "2653 W Ogden Avenue", "address2": "", "address3": "", "state": "IL", "country": "US", "zip_code": "60608"}, "id": "sinai-community-institute-chicago", "categories": [{"alias": "collegeuniv", "title": "Colleges & Universities"}]}]}
{"total": 132, "businesses": [{"rating": 5.0, "review_count": 1, "name": "Randolph Floral Design", "url": "https://www.yelp.com/biz/randolph-floral-design-chicago?adjust_creative=_xGZBQTFH5RSnMk3I7VtQQ&utm_campaign=yelp_api_v3&utm_medium=api_v3_business_search&utm_source=_xGZBQTFH5RSnMk3I7VtQQ", "coordinates": {"latitude": 41.859615, "longitude": -87.686394}, "phone": "+13122437750", "image_url": "", "location": {"city": "Chicago", "country": "US", "address2": "", "address3": "", "state": "IL", "address1": "2410 W 16th St", "zip_code": "60608"}, "id": "randolph-floral-design-chicago", "categories": [{"alias": "florists", "title": "Florists"}]}]}
{"total": 132, "businesses": [{"rating": 5.0, "review_count": 2, "name": "Roosevelt-Western Currency Exchange Inc", "url": "https://www.yelp.com/biz/roosevelt-western-currency-exchange-inc-chicago?adjust_creative=_xGZBQTFH5RSnMk3I7VtQQ&utm_campaign=yelp_api_v3&utm_medium=api_v3_business_search&utm_source=_xGZBQTFH5RSnMk3I7VtQQ", "coordinates": {"latitude": 41.8671264648438, "longitude": -87.6856689453125}, "phone": "+13126667909", "image_url": "", "location": {"city": "Chicago", "country": "US", "address2": "", "address3": "", "state": "IL", "address1": "1143 S Western Ave", "zip_code": "60612"}, "id": "roosevelt-western-currency-exchange-inc-chicago", "categories": [{"alias": "currencyexchange", "title": "Currency Exchange"}]}]}
{"total": 132, "businesses": [{"rating": 5.0, "review_count": 1, "name": "15th and West", "url": "https://www.yelp.com/biz/15th-and-west-chicago?adjust_creative=_xGZBQTFH5RSnMk3I7VtQQ&utm_campaign=yelp_api_v3&utm_medium=api_v3_business_search&utm_source=_xGZBQTFH5RSnMk3I7VtQQ", "coordinates": {"latitude": 41.8611006438732, "longitude": -87.6876823604107}, "phone": "+13129124744", "image_url": "", "location": {"city": "Chicago", "country": "US", "address2": "", "address3": "", "state": "IL", "address1": "2439 W 15th St", "zip_code": "60608"}, "id": "15th-and-west-chicago", "categories": [{"alias": "galleries", "title": "Art Galleries"}]}]}
{"total": 132, "businesses": [{"rating": 5.0, "review_count": 1, "name": "Lukas Piano Service", "url": "https://www.yelp.com/biz/lukas-piano-service-chicago?adjust_creative=_xGZBQTFH5RSnMk3I7VtQQ&utm_campaign=yelp_api_v3&utm_medium=api_v3_business_search&utm_source=_xGZBQTFH5RSnMk3I7VtQQ", "coordinates": {"latitude": 41.86074, "longitude": -87.68686}, "phone": "+13125631550", "image_url": "", "location": {"city": "Chicago", "address1": "1500 S Western Ave", "address2": "", "address3": "", "state": "IL", "country": "US", "zip_code": "60608"}, "id": "lukas-piano-service-chicago", "categories": [{"alias": "musicalinstrumentsandteachers", "title": "Musical Instruments & Teachers"}]}]}
{"total": 132, "businesses": [{"rating": 5.0, "review_count": 1, "name": "Soupcan", "url": "https://www.yelp.com/biz/soupcan-chicago?adjust_creative=_xGZBQTFH5RSnMk3I7VtQQ&utm_campaign=yelp_api_v3&utm_medium=api_v3_business_search&utm_source=_xGZBQTFH5RSnMk3I7VtQQ", "coordinates": {"latitude": 41.860713, "longitude": -87.686958}, "phone": "+13122436928", "image_url": "", "location": {"city": "Chicago", "country": "US", "address2": "", "address3": "", "state": "IL", "address1": "1500 S Western Ave", "zip_code": "60608"}, "id": "soupcan-chicago", "categories": [{"alias": "countertopinstall", "title": "Countertop Installation"}]}]}
{"total": 132, "businesses": [{"rating": 5.0, "review_count": 2, "name": "Mascorro Linda Tiffin, DDS", "url": "https://www.yelp.com/biz/linda-tiffin-mascorro-chicago?adjust_creative=_xGZBQTFH5RSnMk3I7VtQQ&utm_campaign=yelp_api_v3&utm_medium=api_v3_business_search&utm_source=_xGZBQTFH5RSnMk3I7VtQQ", "coordinates": {"latitude": 41.8692, "longitude": -87.68387}, "phone": "+13124214646", "image_url": "https://s3-media1.fl.yelpcdn.com/bphoto/wBTplOmDJgfwFZI6RMPByQ/o.jpg", "location": {"city": "Chicago", "country": "US", "address2": "", "address3": "", "state": "IL", "address1": "2300 W Taylor St", "zip_code": "60612"}, "id": "linda-tiffin-mascorro-chicago", "categories": [{"alias": "generaldentistry", "title": "General Dentistry"}]}]}
{"total": 132, "businesses": [{"rating": 5.0, "review_count": 1, "name": "Winners Club Auto Spa & Hand Car Wash", "url": "https://www.yelp.com/biz/winners-club-auto-spa-and-hand-car-wash-chicago?adjust_creative=_xGZBQTFH5RSnMk3I7VtQQ&utm_campaign=yelp_api_v3&utm_medium=api_v3_business_search&utm_source=_xGZBQTFH5RSnMk3I7VtQQ", "coordinates": {"latitude": 41.8704988258377, "longitude": -87.6859164610505}, "image_url": "https://s3-media1.fl.yelpcdn.com/bphoto/jKaHpVU9XzJBXukx6A1zBA/o.jpg", "location": {"city": "Chicago", "country": "US", "address2": "", "address3": "", "state": "IL", "address1": "825 S Western Ave", "zip_code": "60612"}, "id": "winners-club-auto-spa-and-hand-car-wash-chicago", "categories": [{"alias": "auto_detailing", "title": "Auto Detailing"}, {"alias": "carwash", "title": "Car Wash"}]}]}
{"total": 132, "businesses": [{"rating": 5.0, "review_count": 3, "name": "Chicago Snow Studio", "url": "https://www.yelp.com/biz/chicago-snow-studio-chicago?adjust_creative=_xGZBQTFH5RSnMk3I7VtQQ&utm_campaign=yelp_api_v3&utm_medium=api_v3_business_search&utm_source=_xGZBQTFH5RSnMk3I7VtQQ", "coordinates": {"latitude": 41.870771, "longitude": -87.685788}, "phone": "+13124551940", "image_url": "https://s3-media4.fl.yelpcdn.com/bphoto/Hl-scP91o-9iqKk6wCzd5w/o.jpg", "location": {"city": "Chicago", "address1": "823 S Western Ave", "address2": "", "address3": "", "state": "IL", "country": "US", "zip_code": "60612"}, "id": "chicago-snow-studio-chicago", "categories": [{"alias": "healthtrainers", "title": "Trainers"}]}]}
{"total": 132, "businesses": [{"rating": 5.0, "review_count": 1, "name": "Automotriz Monterrey", "url": "https://www.yelp.com/biz/automotriz-monterrey-chicago-2?adjust_creative=_xGZBQTFH5RSnMk3I7VtQQ&utm_campaign=yelp_api_v3&utm_medium=api_v3_business_search&utm_source=_xGZBQTFH5RSnMk3I7VtQQ", "coordinates": {"latitude": 41.854662001133, "longitude": -87.6857572048903}, "image_url": "", "location": {"city": "Chicago", "address1": "2000 S Western Ave", "address2": "", "address3": "", "state": "IL", "country": "US", "zip_code": "60608"}, "id": "automotriz-monterrey-chicago-2", "categories": [{"alias": "car_dealers", "title": "Car Dealers"}]}]}
{"total": 132, "businesses": [{"rating": 2.0, "review_count": 4, "name": "Burger King", "url": "https://www.yelp.com/biz/burger-king-chicago-5?adjust_creative=_xGZBQTFH5RSnMk3I7VtQQ&utm_campaign=yelp_api_v3&utm_medium=api_v3_business_search&utm_source=_xGZBQTFH5RSnMk3I7VtQQ", "coordinates": {"latitude": 41.8640508192299, "longitude": -87.6864253578745}, "phone": "+13122435293", "image_url": "https://s3-media1.fl.yelpcdn.com/bphoto/ajpwkssWPgXGsWqeQFEMug/o.jpg", "location": {"city": "Chicago", "country": "US", "address2": "", "address3": "", "state": "IL", "address1": "2401 W Ogden Ave", "zip_code": "60608"}, "id": "burger-king-chicago-5", "categories": [{"alias": "hotdogs", "title": "Fast Food"}, {"alias": "burgers", "title": "Burgers"}]}]}
{"total": 132, "businesses": [{"rating": 5.0, "review_count": 1, "name": "Computer Love", "url": "https://www.yelp.com/biz/computer-love-chicago-4?adjust_creative=_xGZBQTFH5RSnMk3I7VtQQ&utm_campaign=yelp_api_v3&utm_medium=api_v3_business_search&utm_source=_xGZBQTFH5RSnMk3I7VtQQ", "coordinates": {"latitude": 41.8538799, "longitude": -87.69341}, "phone": "+17738865211", "image_url": "https://s3-media4.fl.yelpcdn.com/bphoto/9RYiESw7FErM4FrF_CP-MQ/o.jpg", "location": {"city": "Chicago", "address1": "2026 S Washtenaw", "address2": "", "address3": "", "state": "IL", "country": "US", "zip_code": "60608"}, "id": "computer-love-chicago-4", "categories": [{"alias": "itservices", "title": "IT Services & Computer Repair"}]}]}
{"total": 132, "businesses": [{"rating": 5.0, "review_count": 2, "name": "Rene's Auto Parts", "url": "https://www.yelp.com/biz/renes-auto-parts-chicago?adjust_creative=_xGZBQTFH5RSnMk3I7VtQQ&utm_campaign=yelp_api_v3&utm_medium=api_v3_business_search&utm_source=_xGZBQTFH5RSnMk3I7VtQQ", "coordinates": {"latitude": 41.87254, "longitude": -87.68584}, "phone": "+13126667950", "image_url": "https://s3-media2.fl.yelpcdn.com/bphoto/QwRRhzX934Sm1rEMA27_1Q/o.jpg", "location": {"city": "Chicago", "country": "US", "address2": "", "address3": "", "state": "IL", "address1": "717 S Western Ave", "zip_code": "60612"}, "id": "renes-auto-parts-chicago", "categories": [{"alias": "autopartssupplies", "title": "Auto Parts & Supplies"}, {"alias": "autorepair", "title": "Auto Repair"}]}]}
{"total": 132, "businesses": [{"rating": 1.0, "review_count": 1, "name": "Cleo's Southern Cuisine", "url": "https://www.yelp.com/biz/cleos-southern-cuisine-chicago?adjust_creative=_xGZBQTFH5RSnMk3I7VtQQ&utm_campaign=yelp_api_v3&utm_medium=api_v3_business_search&utm_source=_xGZBQTFH5RSnMk3I7VtQQ", "coordinates": {"latitude": 41.8588486, "longitude": -87.6869431}, "phone": "+17735757120", "image_url": "https://s3-media4.fl.yelpcdn.com/bphoto/v4hNhdBEflwZMTBYYZtLJA/o.jpg", "location": {"city": "Chicago", "country": "US", "address2": null, "address3": "", "state": "IL", "address1": "2443 W 16th St", "zip_code": "60608"}, "id": "cleos-southern-cuisine-chicago", "categories": [{"alias": "southern", "title": "Southern"}, {"alias": "personalchefs", "title": "Personal Chefs"}, {"alias": "catering", "title": "Caterers"}]}]}
{"total": 132, "businesses": [{"rating": 2.0, "review_count": 12, "name": "WK Carpet Cleaning", "url": "https://www.yelp.com/biz/wk-carpet-cleaning-chicago?adjust_creative=_xGZBQTFH5RSnMk3I7VtQQ&utm_campaign=yelp_api_v3&utm_medium=api_v3_business_search&utm_source=_xGZBQTFH5RSnMk3I7VtQQ", "coordinates": {"latitude": 41.8538620322943, "longitude": -87.683465257287}, "phone": "+17735301998", "image_url": "", "location": {"city": "Chicago", "country": "US", "address2": "", "address3": "", "state": "IL", "address1": "2303 W 21st St", "zip_code": "60608"}, "id": "wk-carpet-cleaning-chicago", "categories": [{"alias": "homecleaning", "title": "Home Cleaning"}, {"alias": "carpeting", "title": "Carpeting"}]}]}
{"total": 132, "businesses": [{"rating": 5.0, "review_count": 1, "name": "Carey Primeau", "url": "https://www.yelp.com/biz/carey-primeau-chicago?adjust_creative=_xGZBQTFH5RSnMk3I7VtQQ&utm_campaign=yelp_api_v3&utm_medium=api_v3_business_search&utm_source=_xGZBQTFH5RSnMk3I7VtQQ", "coordinates": {"latitude": 41.85365, "longitude": -87.68267}, "phone": "+17732976419", "image_url": "https://s3-media4.fl.yelpcdn.com/bphoto/RaVcIRMFqKECzJTlXS6BHg/o.jpg", "location": {"city": "Chicago", "address1": "2249 W 21st St", "address2": "", "address3": "", "state": "IL", "country": "US", "zip_code": "60608"}, "id": "carey-primeau-chicago", "categories": [{"alias": "galleries", "title": "Art Galleries"}]}]}
{"total": 132, "businesses": [{"rating": 3.0, "review_count": 8, "name": "Mobile Lock & Safe", "url": "https://www.yelp.com/biz/mobile-lock-and-safe-chicago-3?adjust_creative=_xGZBQTFH5RSnMk3I7VtQQ&utm_campaign=yelp_api_v3&utm_medium=api_v3_business_search&utm_source=_xGZBQTFH5RSnMk3I7VtQQ", "coordinates": {"latitude": 41.8625946044922, "longitude": -87.6869430541992}, "phone": "+13122266000", "image_url": "https://s3-media4.fl.yelpcdn.com/bphoto/qsEzXEJH2ZJqxeO9tQxSgg/o.jpg", "location": {"city": "Chicago", "country": "US", "address2": "", "address3": "", "state": "IL", "address1": "2425 W 14th St", "zip_code": "60608"}, "id": "mobile-lock-and-safe-chicago-3", "categories": [{"alias": "locksmiths", "title": "Keys & Locksmiths"}]}]}
{"total": 132, "businesses": [{"rating": 2.5, "review_count": 12, "name": "Lepke Auto Transport", "url": "https://www.yelp.com/biz/lepke-auto-transport-chicago?adjust_creative=_xGZBQTFH5RSnMk3I7VtQQ&utm_campaign=yelp_api_v3&utm_medium=api_v3_business_search&utm_source=_xGZBQTFH5RSnMk3I7VtQQ", "coordinates": {"latitude": 41.8538799, "longitude": -87.69341}, "phone": "+13127333478", "image_url": "https://s3-media2.fl.yelpcdn.com/bphoto/mOMSXZrDsJrzmtuBGCK-8g/o.jpg", "location": {"city": "Chicago", "country": "US", "address2": "Ste 3W", "address3": null, "state": "IL", "address1": "2026 S Washtenaw Ave", "zip_code": "60608"}, "id": "lepke-auto-transport-chicago", "categories": [{"alias": "vehicleshipping", "title": "Vehicle Shipping"}]}]}
{"total": 132, "businesses": [{"rating": 4.0, "review_count": 1, "name": "Mobil", "url": "https://www.yelp.com/biz/mobil-chicago-15?adjust_creative=_xGZBQTFH5RSnMk3I7VtQQ&utm_campaign=yelp_api_v3&utm_medium=api_v3_business_search&utm_source=_xGZBQTFH5RSnMk3I7VtQQ", "coordinates": {"latitude": 41.8641917234157, "longitude": -87.6862896233797}, "image_url": "", "location": {"city": "Chicago", "address1": "1358 South Western Ave", "address2": "", "address3": null, "state": "IL", "country": "US", "zip_code": "60608"}, "id": "mobil-chicago-15", "categories": [{"alias": "servicestations", "title": "Gas & Service Stations"}]}]}
{"total": 132, "businesses": [{"rating": 4.0, "review_count": 1, "name": "National Beverage", "url": "https://www.yelp.com/biz/national-beverage-broadview?adjust_creative=_xGZBQTFH5RSnMk3I7VtQQ&utm_campaign=yelp_api_v3&utm_medium=api_v3_business_search&utm_source=_xGZBQTFH5RSnMk3I7VtQQ", "price": "$$", "coordinates": {"latitude": 41.8644, "longitude": -87.84983}, "phone": "+17083451055", "image_url": "", "location": {"city": "Broadview", "country": "US", "address2": "", "address3": "", "state": "IL", "address1": "1401 W Roosevelt Rd", "zip_code": "60155"}, "id": "national-beverage-broadview", "categories": [{"alias": "beer_and_wine", "title": "Beer, Wine & Spirits"}]}]}
{"total": 132, "businesses": [{"rating": 3.0, "review_count": 2, "name": "Glorious Remy Hair", "url": "https://www.yelp.com/biz/glorious-remy-hair-chicago-2?adjust_creative=_xGZBQTFH5RSnMk3I7VtQQ&utm_campaign=yelp_api_v3&utm_medium=api_v3_business_search&utm_source=_xGZBQTFH5RSnMk3I7VtQQ", "coordinates": {"latitude": 41.8660316, "longitude": -87.6857376}, "phone": "+17083079877", "image_url": "https://s3-media1.fl.yelpcdn.com/bphoto/c65H-6QdYHo6huTFLoorKg/o.jpg", "location": {"city": "Chicago", "address1": "1211 S Western Ave", "address2": null, "address3": "", "state": "IL", "country": "US", "zip_code": "60608"}, "id": "glorious-remy-hair-chicago-2", "categories": [{"alias": "hair_extensions", "title": "Hair Extensions"}, {"alias": "hairstylists", "title": "Hair Stylists"}]}]}
{"total": 132, "businesses": [{"rating": 2.0, "review_count": 4, "name": "Tri Taylor Uniforms", "url": "https://www.yelp.com/biz/tri-taylor-uniforms-chicago?adjust_creative=_xGZBQTFH5RSnMk3I7VtQQ&utm_campaign=yelp_api_v3&utm_medium=api_v3_business_search&utm_source=_xGZBQTFH5RSnMk3I7VtQQ", "price": "$$", "coordinates": {"latitude": 41.86693, "longitude": -87.68461}, "phone": "+13126663351", "image_url": "https://s3-media3.fl.yelpcdn.com/bphoto/ZUDhc2zp3j2BmcYAJtxhyw/o.jpg", "location": {"city": "Chicago", "country": "US", "address2": "", "address3": "", "state": "IL", "address1": "2322 W Roosevelt Rd", "zip_code": "60608"}, "id": "tri-taylor-uniforms-chicago", "categories": [{"alias": "uniforms", "title": "Uniforms"}]}]}
{"total": 132, "businesses": [{"rating": 4.0, "review_count": 1, "name": "Concrete Age Artworks", "url": "https://www.yelp.com/biz/concrete-age-artworks-chicago?adjust_creative=_xGZBQTFH5RSnMk3I7VtQQ&utm_campaign=yelp_api_v3&utm_medium=api_v3_business_search&utm_source=_xGZBQTFH5RSnMk3I7VtQQ", "coordinates": {"latitude": 41.8556711822748, "longitude": -87.69083596766}, "phone": "+13122263542", "image_url": "https://s3-media3.fl.yelpcdn.com/bphoto/aCdXlK6Inz_u7ce1VyMSmA/o.jpg", "location": {"city": "Chicago", "country": "US", "address2": "", "address3": "", "state": "IL", "address1": "2600 W 19th St", "zip_code": "60608"}, "id": "concrete-age-artworks-chicago", "categories": [{"alias": "contractors", "title": "Contractors"}]}]}
{"total": 132, "businesses": [{"rating": 4.0, "review_count": 1, "name": "Hair and Company", "url": "https://www.yelp.com/biz/hair-and-company-broadview?adjust_creative=_xGZBQTFH5RSnMk3I7VtQQ&utm_campaign=yelp_api_v3&utm_medium=api_v3_business_search&utm_source=_xGZBQTFH5RSnMk3I7VtQQ", "coordinates": {"latitude": 41.86423, "longitude": -87.85655}, "phone": "+17083442526", "image_url": "", "location": {"city": "Broadview", "address1": "1929 W Roosevelt Rd", "address2": "", "address3": "", "state": "IL", "country": "US", "zip_code": "60155"}, "id": "hair-and-company-broadview", "categories": [{"alias": "hair", "title": "Hair Salons"}]}]}
{"total": 132, "businesses": [{"rating": 4.0, "review_count": 1, "name": "Veterans Affairs", "url": "https://www.yelp.com/biz/veterans-affairs-chicago?adjust_creative=_xGZBQTFH5RSnMk3I7VtQQ&utm_campaign=yelp_api_v3&utm_medium=api_v3_business_search&utm_source=_xGZBQTFH5RSnMk3I7VtQQ", "coordinates": {"latitude": 41.8691965, "longitude": -87.6791199}, "phone": "+13127066665", "image_url": "https://s3-media2.fl.yelpcdn.com/bphoto/sUOMlbYN3mO7DdtuTaME0g/o.jpg", "location": {"city": "Chicago", "address1": "2122 W Taylor Street", "address2": "", "address3": "", "state": "IL", "country": "US", "zip_code": "60612"}, "id": "veterans-affairs-chicago", "categories": []}]}
{"total": 132, "businesses": [{"rating": 3.0, "review_count": 2, "name": "College Rising Company", "url": "https://www.yelp.com/biz/college-rising-company-chicago-2?adjust_creative=_xGZBQTFH5RSnMk3I7VtQQ&utm_campaign=yelp_api_v3&utm_medium=api_v3_business_search&utm_source=_xGZBQTFH5RSnMk3I7VtQQ", "coordinates": {"latitude": 41.8690466880798, "longitude": -87.6838789880276}, "phone": "+17732573797", "image_url": "https://s3-media1.fl.yelpcdn.com/bphoto/LEm1RCasc51GGewpu7eSMQ/o.jpg", "location": {"city": "Chicago", "address1": "2302 W Taylor St", "address2": "Unit 1", "address3": "", "state": "IL", "country": "US", "zip_code": "60612"}, "id": "college-rising-company-chicago-2", "categories": [{"alias": "apartments", "title": "Apartments"}, {"alias": "university_housing", "title": "University Housing"}]}]}
{"total": 132, "businesses": [{"rating": 2.5, "review_count": 2, "name": "Liberty Tax Service", "url": "https://www.yelp.com/biz/liberty-tax-service-chicago-50?adjust_creative=_xGZBQTFH5RSnMk3I7VtQQ&utm_campaign=yelp_api_v3&utm_medium=api_v3_business_search&utm_source=_xGZBQTFH5RSnMk3I7VtQQ", "coordinates": {"latitude": 41.86728, "longitude": -87.68568}, "phone": "+13124551040", "image_url": "https://s3-media3.fl.yelpcdn.com/bphoto/uT8eiQw14XG_raqppcCwSQ/o.jpg", "location": {"city": "Chicago", "address1": "1139 S Western Ave", "address2": null, "address3": null, "state": "IL", "country": "US", "zip_code": "60612"}, "id": "liberty-tax-service-chicago-50", "categories": [{"alias": "taxservices", "title": "Tax Services"}]}]}
{"total": 132, "businesses": [{"rating": 2.5, "review_count": 2, "name": "Roosevelt & Western Shell", "url": "https://www.yelp.com/biz/roosevelt-and-western-shell-chicago?adjust_creative=_xGZBQTFH5RSnMk3I7VtQQ&utm_campaign=yelp_api_v3&utm_medium=api_v3_business_search&utm_source=_xGZBQTFH5RSnMk3I7VtQQ", "coordinates": {"latitude": 41.8662691461245, "longitude": -87.6864511399353}, "phone": "+13124210343", "image_url": "https://s3-media1.fl.yelpcdn.com/bphoto/-RDCTPy76IDsKpphYsVENA/o.jpg", "location": {"city": "Chicago", "country": "US", "address2": "", "address3": "", "state": "IL", "address1": "2401 W Roosevelt Rd", "zip_code": "60608"}, "id": "roosevelt-and-western-shell-chicago", "categories": [{"alias": "servicestations", "title": "Gas & Service Stations"}]}]}
{"total": 132, "businesses": [{"rating": 1.5, "review_count": 14, "name": "Divas Nails", "url": "https://www.yelp.com/biz/divas-nails-chicago?adjust_creative=_xGZBQTFH5RSnMk3I7VtQQ&utm_campaign=yelp_api_v3&utm_medium=api_v3_business_search&utm_source=_xGZBQTFH5RSnMk3I7VtQQ", "price": "$$", "coordinates": {"latitude": 41.8687782, "longitude": -87.68647}, "phone": "+17737519838", "image_url": "https://s3-media2.fl.yelpcdn.com/bphoto/uaSepOrMNZD-WjvU1rTKJQ/o.jpg", "location": {"city": "Chicago", "address1": "1014 S Western Ave", "address2": "", "address3": "", "state": "IL", "country": "US", "zip_code": "60612"}, "id": "divas-nails-chicago", "categories": [{"alias": "othersalons", "title": "Nail Salons"}]}]}
{"total": 132, "businesses": [{"rating": 3.0, "review_count": 1, "name": "Brk Food & Deli", "url": "https://www.yelp.com/biz/brk-food-and-deli-chicago?adjust_creative=_xGZBQTFH5RSnMk3I7VtQQ&utm_campaign=yelp_api_v3&utm_medium=api_v3_business_search&utm_source=_xGZBQTFH5RSnMk3I7VtQQ", "price": "$", "coordinates": {"latitude": 41.8688811, "longitude": -87.6829402}, "phone": "+13128290097", "image_url": "https://s3-media4.fl.yelpcdn.com/bphoto/1-xrcTy8sq_8STBxgil-JQ/o.jpg", "location": {"city": "Chicago", "country": "US", "address2": "", "address3": "", "state": "IL", "address1": "2257 W Taylor Street", "zip_code": "60612"}, "id": "brk-food-and-deli-chicago", "categories": [{"alias": "grocery", "title": "Grocery"}]}]}
{"total": 132, "businesses": [{"rating": 2.5, "review_count": 2, "name": "Netccino Internet Cafe", "url": "https://www.yelp.com/biz/netccino-internet-cafe-chicago?adjust_creative=_xGZBQTFH5RSnMk3I7VtQQ&utm_campaign=yelp_api_v3&utm_medium=api_v3_business_search&utm_source=_xGZBQTFH5RSnMk3I7VtQQ", "coordinates": {"latitude": 41.86925, "longitude": -87.68259}, "phone": "+13124928900", "image_url": "https://s3-media4.fl.yelpcdn.com/bphoto/__H9PxcRs7D4hiV4l091pQ/o.jpg", "location": {"city": "Chicago", "country": "US", "address2": null, "address3": "", "state": "IL", "address1": "2234 W Taylor St", "zip_code": "60612"}, "id": "netccino-internet-cafe-chicago", "categories": [{"alias": "internetcafe", "title": "Internet Cafes"}]}]}
{"total": 132, "businesses": [{"rating": 1.5, "review_count": 6, "name": "A-1 Citywide Towing", "url": "https://www.yelp.com/biz/a-1-citywide-towing-chicago?adjust_creative=_xGZBQTFH5RSnMk3I7VtQQ&utm_campaign=yelp_api_v3&utm_medium=api_v3_business_search&utm_source=_xGZBQTFH5RSnMk3I7VtQQ", "coordinates": {"latitude": 41.85808, "longitude": -87.6862}, "phone": "+13128293697", "image_url": "", "location": {"city": "Chicago", "address1": "1716 S Western Ave", "address2": null, "address3": null, "state": "IL", "country": "US", "zip_code": "60608"}, "id": "a-1-citywide-towing-chicago", "categories": [{"alias": "towing", "title": "Towing"}]}]}
{"total": 132, "businesses": [{"rating": 3.0, "review_count": 1, "name": "University of Chicago", "url": "https://www.yelp.com/biz/university-of-chicago-chicago-14?adjust_creative=_xGZBQTFH5RSnMk3I7VtQQ&utm_campaign=yelp_api_v3&utm_medium=api_v3_business_search&utm_source=_xGZBQTFH5RSnMk3I7VtQQ", "coordinates": {"latitude": 41.8680663406849, "longitude": -87.6821254938841}, "phone": "+13124216290", "image_url": "https://s3-media3.fl.yelpcdn.com/bphoto/2plCW3n-xeoHaQOhGMMfRw/o.jpg", "location": {"city": "Chicago", "country": "US", "address2": "", "address3": "", "state": "IL", "address1": "2240 W Ogden Avenue", "zip_code": "60612"}, "id": "university-of-chicago-chicago-14", "categories": [{"alias": "collegeuniv", "title": "Colleges & Universities"}]}]}
{"total": 132, "businesses": [{"rating": 2.0, "review_count": 10, "name": "Trans-O-Mex", "url": "https://www.yelp.com/biz/trans-o-mex-chicago?adjust_creative=_xGZBQTFH5RSnMk3I7VtQQ&utm_campaign=yelp_api_v3&utm_medium=api_v3_business_search&utm_source=_xGZBQTFH5RSnMk3I7VtQQ", "coordinates": {"latitude": 41.870495, "longitude": -87.685783}, "phone": "+13126661616", "image_url": "https://s3-media2.fl.yelpcdn.com/bphoto/hHXP4SeKcL9o3_f25s5HRg/o.jpg", "location": {"city": "Chicago", "address1": "825 S Western Ave", "address2": null, "address3": "", "state": "IL", "country": "US", "zip_code": "60612"}, "id": "trans-o-mex-chicago", "categories": [{"alias": "autorepair", "title": "Auto Repair"}]}]}
{"total": 132, "businesses": [{"rating": 2.0, "review_count": 1, "name": "Tony's Mobil", "url": "https://www.yelp.com/biz/tonys-mobil-chicago?adjust_creative=_xGZBQTFH5RSnMk3I7VtQQ&utm_campaign=yelp_api_v3&utm_medium=api_v3_business_search&utm_source=_xGZBQTFH5RSnMk3I7VtQQ", "price": "$$$", "coordinates": {"latitude": 41.8642195, "longitude": -87.6868611}, "phone": "+13122265485", "image_url": "", "location": {"city": "Chicago", "address1": "2411 W Ogden Ave", "address2": "", "address3": "", "state": "IL", "country": "US", "zip_code": "60608"}, "id": "tonys-mobil-chicago", "categories": [{"alias": "mobilephones", "title": "Mobile Phones"}]}]}
{"total": 132, "businesses": [{"rating": 1.5, "review_count": 2, "name": "Sebbeb African Hair Braiding", "url": "https://www.yelp.com/biz/sebbeb-african-hair-braiding-chicago?adjust_creative=_xGZBQTFH5RSnMk3I7VtQQ&utm_campaign=yelp_api_v3&utm_medium=api_v3_business_search&utm_source=_xGZBQTFH5RSnMk3I7VtQQ", "coordinates": {"latitude": 41.868766, "longitude": -87.68576}, "phone": "+13122266460", "image_url": "https://s3-media4.fl.yelpcdn.com/bphoto/qFhTOMwOJWGE46VDSocw-Q/o.jpg", "location": {"city": "Chicago", "country": "US", "address2": "", "address3": "", "state": "IL", "address1": "1017 S Western Avenue", "zip_code": "60612"}, "id": "sebbeb-african-hair-braiding-chicago", "categories": []}]}
{"total": 132, "businesses": [{"rating": 1.0, "review_count": 1, "name": "Steelskin", "url": "https://www.yelp.com/biz/steelskin-chicago?adjust_creative=_xGZBQTFH5RSnMk3I7VtQQ&utm_campaign=yelp_api_v3&utm_medium=api_v3_business_search&utm_source=_xGZBQTFH5RSnMk3I7VtQQ", "coordinates": {"latitude": 41.860713, "longitude": -87.686958}, "phone": "+13127381544", "image_url": "https://s3-media4.fl.yelpcdn.com/bphoto/IXbnSyEsAKugObKlBMpqHg/o.jpg", "location": {"city": "Chicago", "country": "US", "address2": null, "address3": null, "state": "IL", "address1": "1500 S Western Ave", "zip_code": "60608"}, "id": "steelskin-chicago", "categories": [{"alias": "contractors", "title": "Contractors"}]}]}
{"total": 132, "businesses": [{"rating": 1.5, "review_count": 4, "name": "Shell Gas", "url": "https://www.yelp.com/biz/shell-gas-chicago?adjust_creative=_xGZBQTFH5RSnMk3I7VtQQ&utm_campaign=yelp_api_v3&utm_medium=api_v3_business_search&utm_source=_xGZBQTFH5RSnMk3I7VtQQ", "coordinates": {"latitude": 41.8535829, "longitude": -87.6855351}, "phone": "+17738476908", "image_url": "", "location": {"city": "Chicago", "country": "US", "address2": "", "address3": "", "state": "IL", "address1": "2107 S Western Ave", "zip_code": "60608"}, "id": "shell-gas-chicago", "categories": [{"alias": "servicestations", "title": "Gas & Service Stations"}]}]}
{"total": 132, "businesses": [{"rating": 2.0, "review_count": 1, "name": "123 All Day & Night Locksmith & Lockout", "url": "https://www.yelp.com/biz/123-all-day-and-night-locksmith-and-lockout-chicago-5?adjust_creative=_xGZBQTFH5RSnMk3I7VtQQ&utm_campaign=yelp_api_v3&utm_medium=api_v3_business_search&utm_source=_xGZBQTFH5RSnMk3I7VtQQ", "coordinates": {"latitude": 41.86871, "longitude": -87.68432}, "phone": "+13124161998", "image_url": "", "location": {"city": "Chicago", "country": "US", "address2": null, "address3": null, "state": "IL", "address1": "2315 W Taylor St", "zip_code": "60612"}, "id": "123-all-day-and-night-locksmith-and-lockout-chicago-5", "categories": [{"alias": "locksmiths", "title": "Keys & Locksmiths"}]}]}
{"total": 132, "businesses": [{"rating": 1.5, "review_count": 3, "name": "Joe's Cleaner's & Tailor Shop", "url": "https://www.yelp.com/biz/joes-cleaners-and-tailor-shop-chicago?adjust_creative=_xGZBQTFH5RSnMk3I7VtQQ&utm_campaign=yelp_api_v3&utm_medium=api_v3_business_search&utm_source=_xGZBQTFH5RSnMk3I7VtQQ", "price": "$$", "coordinates": {"latitude": 41.8689762800932, "longitude": -87.6829549670219}, "phone": "+13124216778", "image_url": "https://s3-media4.fl.yelpcdn.com/bphoto/Mkgf4gxPR8Vh9TjbXtZgww/o.jpg", "location": {"city": "Chicago", "country": "US", "address2": "", "address3": "", "state": "IL", "address1": "2259 W Taylor St", "zip_code": "60612"}, "id": "joes-cleaners-and-tailor-shop-chicago", "categories": [{"alias": "drycleaninglaundry", "title": "Dry Cleaning & Laundry"}]}]}
{"total": 132, "businesses": [{"rating": 5.0, "review_count": 2, "name": "Pacing Pups Pet Care", "url": "https://www.yelp.com/biz/pacing-pups-pet-care-chicago?adjust_creative=_xGZBQTFH5RSnMk3I7VtQQ&utm_campaign=yelp_api_v3&utm_medium=api_v3_business_search&utm_source=_xGZBQTFH5RSnMk3I7VtQQ", "coordinates": {"latitude": 41.8867726448136, "longitude": -87.6919390544921}, "phone": "+18155193469", "image_url": "https://s3-media3.fl.yelpcdn.com/bphoto/TRdQJg8fobPQQEJKrgvwAA/o.jpg", "location": {"city": "Chicago", "country": "US", "address2": null, "address3": "", "state": "IL", "address1": null, "zip_code": "60612"}, "id": "pacing-pups-pet-care-chicago", "categories": [{"alias": "dogwalkers", "title": "Dog Walkers"}, {"alias": "pet_sitting", "title": "Pet Boarding/Pet Sitting"}]}]}
{"total": 132, "businesses": [{"rating": 1.0, "review_count": 2, "name": "CTA Western- Pink Line", "url": "https://www.yelp.com/biz/cta-western-pink-line-chicago?adjust_creative=_xGZBQTFH5RSnMk3I7VtQQ&utm_campaign=yelp_api_v3&utm_medium=api_v3_business_search&utm_source=_xGZBQTFH5RSnMk3I7VtQQ", "coordinates": {"latitude": 41.854408, "longitude": -87.685325}, "image_url": "https://s3-media1.fl.yelpcdn.com/bphoto/1_kWeN2jSvwU4ALMXnZwAQ/o.jpg", "location": {"city": "Chicago", "country": "US", "address2": "", "address3": "", "state": "IL", "address1": "2315 S Western Ave", "zip_code": "60608"}, "id": "cta-western-pink-line-chicago", "categories": [{"alias": "trainstations", "title": "Train Stations"}]}]}
{"total": 132, "businesses": [{"rating": 1.0, "review_count": 1, "name": "Christi's Hair Braiding and Beauty Supply", "url": "https://www.yelp.com/biz/christis-hair-braiding-and-beauty-supply-chicago?adjust_creative=_xGZBQTFH5RSnMk3I7VtQQ&utm_campaign=yelp_api_v3&utm_medium=api_v3_business_search&utm_source=_xGZBQTFH5RSnMk3I7VtQQ", "coordinates": {"latitude": 41.87076, "longitude": -87.68577}, "phone": "+13128502614", "image_url": "", "location": {"city": "Chicago", "country": "US", "address2": null, "address3": null, "state": "IL", "address1": "811 S Western Ave", "zip_code": "60612"}, "id": "christis-hair-braiding-and-beauty-supply-chicago", "categories": [{"alias": "cosmetics", "title": "Cosmetics & Beauty Supply"}, {"alias": "hair_extensions", "title": "Hair Extensions"}]}]}
{"total": 132, "businesses": [{"rating": 1.0, "review_count": 1, "name": "Patriots Heating and Cooling", "url": "https://www.yelp.com/biz/patriots-heating-and-cooling-chicago?adjust_creative=_xGZBQTFH5RSnMk3I7VtQQ&utm_campaign=yelp_api_v3&utm_medium=api_v3_business_search&utm_source=_xGZBQTFH5RSnMk3I7VtQQ", "coordinates": {"latitude": 41.8538747082744, "longitude": -87.6901751796875}, "phone": "+17738702888", "image_url": "https://s3-media3.fl.yelpcdn.com/bphoto/lBYj01I_Z7457HSUmLHceg/o.jpg", "location": {"city": "Chicago", "address1": "5360 W 91st St", "address2": null, "address3": "", "state": "IL", "country": "US", "zip_code": "60623"}, "id": "patriots-heating-and-cooling-chicago", "categories": [{"alias": "hvac", "title": "Heating & Air Conditioning/HVAC"}]}]}
{"total": 132, "businesses": [{"rating": 1.0, "review_count": 1, "name": "World Discount Auto", "url": "https://www.yelp.com/biz/world-discount-auto-chicago-2?adjust_creative=_xGZBQTFH5RSnMk3I7VtQQ&utm_campaign=yelp_api_v3&utm_medium=api_v3_business_search&utm_source=_xGZBQTFH5RSnMk3I7VtQQ", "coordinates": {"latitude": 41.86878, "longitude": -87.68647}, "phone": "+13122260033", "image_url": "", "location": {"city": "Chicago", "country": "US", "address2": "", "address3": "", "state": "IL", "address1": "1014 S Western Ave", "zip_code": "60612"}, "id": "world-discount-auto-chicago-2", "categories": [{"alias": "car_dealers", "title": "Car Dealers"}]}]}
{"total": 132, "businesses": [{"rating": 5.0, "review_count": 2, "name": "Cornerstone Chicago", "url": "https://www.yelp.com/biz/cornerstone-chicago-chicago?adjust_creative=_xGZBQTFH5RSnMk3I7VtQQ&utm_campaign=yelp_api_v3&utm_medium=api_v3_business_search&utm_source=_xGZBQTFH5RSnMk3I7VtQQ", "coordinates": {"latitude": 41.8703951, "longitude": -87.6810088}, "phone": "+13174456194", "image_url": "https://s3-media4.fl.yelpcdn.com/bphoto/1ogAjidIWgD1YFTEPwB4GQ/o.jpg", "location": {"city": "Chicago", "country": "US", "address2": null, "address3": "", "state": "IL", "address1": "2189 W Bowler St", "zip_code": "60612"}, "id": "cornerstone-chicago-chicago", "categories": [{"alias": "churches", "title": "Churches"}]}]}
{"total": 132, "businesses": [{"rating": 1.0, "review_count": 2, "name": "Tri-Taylor Realty Management", "url": "https://www.yelp.com/biz/tri-taylor-realty-management-chicago?adjust_creative=_xGZBQTFH5RSnMk3I7VtQQ&utm_campaign=yelp_api_v3&utm_medium=api_v3_business_search&utm_source=_xGZBQTFH5RSnMk3I7VtQQ", "coordinates": {"latitude": 41.86926, "longitude": -87.6821499}, "phone": "+13128297368", "image_url": "", "location": {"city": "Chicago", "country": "US", "address2": "", "address3": "", "state": "IL", "address1": "2222 W Taylor St", "zip_code": "60612"}, "id": "tri-taylor-realty-management-chicago", "categories": [{"alias": "realestateagents", "title": "Real Estate Agents"}, {"alias": "realestatesvcs", "title": "Real Estate Services"}]}]}
{"total": 132, "businesses": [{"rating": 1.0, "review_count": 1, "name": "National Power Rodding", "url": "https://www.yelp.com/biz/national-power-rodding-chicago?adjust_creative=_xGZBQTFH5RSnMk3I7VtQQ&utm_campaign=yelp_api_v3&utm_medium=api_v3_business_search&utm_source=_xGZBQTFH5RSnMk3I7VtQQ", "coordinates": {"latitude": 41.87048, "longitude": -87.68982}, "phone": "+13126667700", "image_url": "", "location": {"city": "Chicago", "country": "US", "address2": "", "address3": "", "state": "IL", "address1": "2500 W Arthington St", "zip_code": "60612"}, "id": "national-power-rodding-chicago", "categories": []}]}
{"total": 132, "businesses": [{"rating": 1.0, "review_count": 1, "name": "Irving Washington", "url": "https://www.yelp.com/biz/irving-washington-chicago?adjust_creative=_xGZBQTFH5RSnMk3I7VtQQ&utm_campaign=yelp_api_v3&utm_medium=api_v3_business_search&utm_source=_xGZBQTFH5RSnMk3I7VtQQ", "coordinates": {"latitude": 41.8716784, "longitude": -87.6835443}, "phone": "+17735347295", "image_url": "https://s3-media1.fl.yelpcdn.com/bphoto/I_s9oTROmRwg-m4oEDb7PQ/o.jpg", "location": {"city": "Chicago", "address1": "749 S Oakley Boulevard", "address2": "", "address3": "", "state": "IL", "country": "US", "zip_code": "60612"}, "id": "irving-washington-chicago", "categories": [{"alias": "elementaryschools", "title": "Elementary Schools"}, {"alias": "highschools", "title": "Middle Schools & High Schools"}]}]}
{"total": 132, "businesses": [{"rating": 1.0, "review_count": 1, "name": "Budget Truck Rental", "url": "https://www.yelp.com/biz/budget-truck-rental-chicago-3?adjust_creative=_xGZBQTFH5RSnMk3I7VtQQ&utm_campaign=yelp_api_v3&utm_medium=api_v3_business_search&utm_source=_xGZBQTFH5RSnMk3I7VtQQ", "coordinates": {"latitude": 41.854662001133, "longitude": -87.6857572048903}, "phone": "+17738476989", "image_url": "", "location": {"city": "Chicago", "country": "US", "address2": null, "address3": "", "state": "IL", "address1": "2000 S Western Ave", "zip_code": "60608"}, "id": "budget-truck-rental-chicago-3", "categories": [{"alias": "truck_rental", "title": "Truck Rental"}]}]}
{"total": 132, "businesses": [{"rating": 5.0, "review_count": 1, "name": "Patrick's Appliances", "url": "https://www.yelp.com/biz/patricks-appliances-chicago?adjust_creative=_xGZBQTFH5RSnMk3I7VtQQ&utm_campaign=yelp_api_v3&utm_medium=api_v3_business_search&utm_source=_xGZBQTFH5RSnMk3I7VtQQ", "coordinates": {"latitude": 41.853699, "longitude": -87.679726}, "phone": "+13123881289", "image_url": "https://s3-media1.fl.yelpcdn.com/bphoto/IvvhJCroJWedcAjRgKvu6A/o.jpg", "location": {"city": "Chicago", "country": "US", "address2": null, "address3": "", "state": "IL", "address1": "2135 W 21st St", "zip_code": "60608"}, "id": "patricks-appliances-chicago", "categories": [{"alias": "hvac", "title": "Heating & Air Conditioning/HVAC"}, {"alias": "handyman", "title": "Handyman"}]}]}
{"total": 132, "businesses": [{"rating": 5.0, "review_count": 2, "name": "WK Complete", "url": "https://www.yelp.com/biz/wk-complete-chicago?adjust_creative=_xGZBQTFH5RSnMk3I7VtQQ&utm_campaign=yelp_api_v3&utm_medium=api_v3_business_search&utm_source=_xGZBQTFH5RSnMk3I7VtQQ", "coordinates": {"latitude": 41.8538620322943, "longitude": -87.683465257287}, "phone": "+17735301998", "image_url": "", "location": {"city": "Chicago", "country": "US", "address2": "", "address3": "", "state": "IL", "address1": "2303 W 21st St", "zip_code": "60608"}, "id": "wk-complete-chicago", "categories": [{"alias": "carpet_cleaning", "title": "Carpet Cleaning"}]}]}
{"total": 132, "businesses": []}
