{"total": 227, "businesses": [{"rating": 4.5, "review_count": 43, "name": "Lake Shore Drive", "url": "https://www.yelp.com/biz/lake-shore-drive-chicago-4?adjust_creative=_xGZBQTFH5RSnMk3I7VtQQ&utm_campaign=yelp_api_v3&utm_medium=api_v3_business_search&utm_source=_xGZBQTFH5RSnMk3I7VtQQ", "coordinates": {"latitude": 41.9129447233625, "longitude": -87.6263779297096}, "image_url": "https://s3-media3.fl.yelpcdn.com/bphoto/lz4sPJ6q29PDZ07_5IbzUw/o.jpg", "location": {"city": "Chicago", "address1": "N Lake Shore Dr", "address2": "", "address3": "", "state": "IL", "country": "US", "zip_code": "60611"}, "id": "lake-shore-drive-chicago-4", "categories": [{"alias": "localflavor", "title": "Local Flavor"}]}]}
{"total": 227, "businesses": [{"rating": 4.5, "review_count": 260, "name": "3 Arts Club Cafe", "url": "https://www.yelp.com/biz/3-arts-club-cafe-chicago-2?adjust_creative=_xGZBQTFH5RSnMk3I7VtQQ&utm_campaign=yelp_api_v3&utm_medium=api_v3_business_search&utm_source=_xGZBQTFH5RSnMk3I7VtQQ", "price": "$$", "coordinates": {"latitude": 41.9058, "longitude": -87.63047}, "phone": "+13124759116", "image_url": "https://s3-media2.fl.yelpcdn.com/bphoto/1e0YfZLWLsQ-MUIjtMUrqA/o.jpg", "location": {"city": "Chicago", "country": "US", "address2": "1300 North Dearborn St", "address3": "", "state": "IL", "address1": "Restoration Hardware", "zip_code": "60610"}, "id": "3-arts-club-cafe-chicago-2", "categories": [{"alias": "cafes", "title": "Cafes"}, {"alias": "tradamerican", "title": "American (Traditional)"}]}]}
{"total": 227, "businesses": [{"rating": 4.0, "review_count": 447, "name": "The 3rd Coast", "url": "https://www.yelp.com/biz/the-3rd-coast-chicago?adjust_creative=_xGZBQTFH5RSnMk3I7VtQQ&utm_campaign=yelp_api_v3&utm_medium=api_v3_business_search&utm_source=_xGZBQTFH5RSnMk3I7VtQQ", "price": "$$", "coordinates": {"latitude": 41.905647277832, "longitude": -87.6304550170898}, "phone": "+13126490730", "image_url": "https://s3-media2.fl.yelpcdn.com/bphoto/lhB-moNyZ_AQC104Bh-HeA/o.jpg", "location": {"city": "Chicago", "country": "US", "address2": "", "address3": "", "state": "IL", "address1": "1260 N Dearborn Pkwy", "zip_code": "60610"}, "id": "the-3rd-coast-chicago", "categories": [{"alias": "breakfast_brunch", "title": "Breakfast & Brunch"}, {"alias": "wine_bars", "title": "Wine Bars"}, {"alias": "newamerican", "title": "American (New)"}]}]}
{"total": 227, "businesses": [{"rating": 4.0, "review_count": 254, "name": "Eduardo's Enoteca", "url": "https://www.yelp.com/biz/eduardos-enoteca-chicago?adjust_creative=_xGZBQTFH5RSnMk3I7VtQQ&utm_campaign=yelp_api_v3&utm_medium=api_v3_business_search&utm_source=_xGZBQTFH5RSnMk3I7VtQQ", "price": "$$", "coordinates": {"latitude": 41.90439, "longitude": -87.63043}, "phone": "+13123374490", "image_url": "https://s3-media3.fl.yelpcdn.com/bphoto/NRfRR3dpNTh92abUNTZV6Q/o.jpg", "location": {"city": "Chicago", "address1": "1212 N Dearborn St", "address2": "", "address3": "", "state": "IL", "country": "US", "zip_code": "60610"}, "id": "eduardos-enoteca-chicago", "categories": [{"alias": "italian", "title": "Italian"}]}]}
{"total": 230, "businesses": [{"rating": 4.5, "review_count": 83, "name": "Cassava Cafe", "url": "https://www.yelp.com/biz/cassava-cafe-chicago?adjust_creative=_xGZBQTFH5RSnMk3I7VtQQ&utm_campaign=yelp_api_v3&utm_medium=api_v3_business_search&utm_source=_xGZBQTFH5RSnMk3I7VtQQ", "price": "$", "coordinates": {"latitude": 41.9044574929354, "longitude": -87.6327339559793}, "phone": "+13124872888", "image_url": "https://s3-media3.fl.yelpcdn.com/bphoto/CzBTUq3jUBNqUM59YTSSOQ/o.jpg", "location": {"city": "Chicago", "country": "US", "address2": "Unit CU", "address3": "", "state": "IL", "address1": "1211 N Lasalle Dr", "zip_code": "60610"}, "id": "cassava-cafe-chicago", "categories": [{"alias": "coffee", "title": "Coffee & Tea"}, {"alias": "bubbletea", "title": "Bubble Tea"}]}]}
{"total": 227, "businesses": [{"rating": 4.0, "review_count": 652, "name": "Pump Room", "url": "https://www.yelp.com/biz/pump-room-chicago?adjust_creative=_xGZBQTFH5RSnMk3I7VtQQ&utm_campaign=yelp_api_v3&utm_medium=api_v3_business_search&utm_source=_xGZBQTFH5RSnMk3I7VtQQ", "price": "$$$", "coordinates": {"latitude": 41.9059410095215, "longitude": -87.6283493041992}, "phone": "+13127873700", "image_url": "https://s3-media1.fl.yelpcdn.com/bphoto/TazJwzWLrMduUAf1DMpkLw/o.jpg", "location": {"city": "Chicago", "country": "US", "address2": "", "address3": "", "state": "IL", "address1": "1301 N State Pkwy", "zip_code": "60610"}, "id": "pump-room-chicago", "categories": [{"alias": "newamerican", "title": "American (New)"}]}]}
{"total": 227, "businesses": [{"rating": 3.5, "review_count": 465, "name": "Elly's Pancake House", "url": "https://www.yelp.com/biz/ellys-pancake-house-chicago-4?adjust_creative=_xGZBQTFH5RSnMk3I7VtQQ&utm_campaign=yelp_api_v3&utm_medium=api_v3_business_search&utm_source=_xGZBQTFH5RSnMk3I7VtQQ", "price": "$$", "coordinates": {"latitude": 41.9110351, "longitude": -87.63184}, "phone": "+13126432300", "image_url": "https://s3-media3.fl.yelpcdn.com/bphoto/igest2Ej-xj5cIh0fb3m7w/o.jpg", "location": {"city": "Chicago", "country": "US", "address2": "", "address3": "", "state": "IL", "address1": "101 W North Ave", "zip_code": "60610"}, "id": "ellys-pancake-house-chicago-4", "categories": [{"alias": "breakfast_brunch", "title": "Breakfast & Brunch"}, {"alias": "burgers", "title": "Burgers"}, {"alias": "sandwiches", "title": "Sandwiches"}]}]}
{"total": 227, "businesses": [{"rating": 4.5, "review_count": 11, "name": "Lincoln Park Lagoon", "url": "https://www.yelp.com/biz/lincoln-park-lagoon-chicago?adjust_creative=_xGZBQTFH5RSnMk3I7VtQQ&utm_campaign=yelp_api_v3&utm_medium=api_v3_business_search&utm_source=_xGZBQTFH5RSnMk3I7VtQQ", "coordinates": {"latitude": 41.9199080765247, "longitude": -87.6313110440969}, "phone": "+17735492628", "image_url": "https://s3-media4.fl.yelpcdn.com/bphoto/FK_ip8hxWEGQyFrG243cbQ/o.jpg", "location": {"city": "Chicago", "country": "US", "address2": null, "address3": "", "state": "IL", "address1": "2200 N Cannon Dr", "zip_code": "60686"}, "id": "lincoln-park-lagoon-chicago", "categories": [{"alias": "parks", "title": "Parks"}]}]}
{"total": 227, "businesses": [{"rating": 3.5, "review_count": 661, "name": "Hash House a Go Go", "url": "https://www.yelp.com/biz/hash-house-a-go-go-chicago?adjust_creative=_xGZBQTFH5RSnMk3I7VtQQ&utm_campaign=yelp_api_v3&utm_medium=api_v3_business_search&utm_source=_xGZBQTFH5RSnMk3I7VtQQ", "price": "$$", "coordinates": {"latitude": 41.9043801, "longitude": -87.6288349}, "phone": "+13122020994", "image_url": "https://s3-media3.fl.yelpcdn.com/bphoto/b5Dj_YYJmwRpAxNn0a0WCQ/o.jpg", "location": {"city": "Chicago", "country": "US", "address2": "", "address3": "", "state": "IL", "address1": "1212 N State Pkwy", "zip_code": "60610"}, "id": "hash-house-a-go-go-chicago", "categories": [{"alias": "newamerican", "title": "American (New)"}, {"alias": "breakfast_brunch", "title": "Breakfast & Brunch"}]}]}
{"total": 227, "businesses": [{"rating": 4.0, "review_count": 133, "name": "Zebra Lounge", "url": "https://www.yelp.com/biz/zebra-lounge-chicago?adjust_creative=_xGZBQTFH5RSnMk3I7VtQQ&utm_campaign=yelp_api_v3&utm_medium=api_v3_business_search&utm_source=_xGZBQTFH5RSnMk3I7VtQQ", "price": "$$", "coordinates": {"latitude": 41.9045219421387, "longitude": -87.6290664672852}, "phone": "+13126425140", "image_url": "https://s3-media4.fl.yelpcdn.com/bphoto/zkY5erSN1FffRlvFLQFlvw/o.jpg", "location": {"city": "Chicago", "country": "US", "address2": "", "address3": "", "state": "IL", "address1": "1220 N State Pkwy", "zip_code": "60610"}, "id": "zebra-lounge-chicago", "categories": [{"alias": "lounges", "title": "Lounges"}, {"alias": "pianobars", "title": "Piano Bars"}]}]}
{"total": 227, "businesses": [{"rating": 4.0, "review_count": 133, "name": "Mario's Table", "url": "https://www.yelp.com/biz/marios-table-chicago?adjust_creative=_xGZBQTFH5RSnMk3I7VtQQ&utm_campaign=yelp_api_v3&utm_medium=api_v3_business_search&utm_source=_xGZBQTFH5RSnMk3I7VtQQ", "price": "$$", "coordinates": {"latitude": 41.9055595397949, "longitude": -87.6296463012695}, "phone": "+13129440199", "image_url": "https://s3-media3.fl.yelpcdn.com/bphoto/pqA48WSTeFMEK52vQHG3Hg/o.jpg", "location": {"city": "Chicago", "country": "US", "address2": "", "address3": "", "state": "IL", "address1": "21 W Goethe St", "zip_code": "60610"}, "id": "marios-table-chicago", "categories": [{"alias": "italian", "title": "Italian"}]}]}
{"total": 227, "businesses": [{"rating": 3.5, "review_count": 199, "name": "Butch McGuire's", "url": "https://www.yelp.com/biz/butch-mcguires-chicago-2?adjust_creative=_xGZBQTFH5RSnMk3I7VtQQ&utm_campaign=yelp_api_v3&utm_medium=api_v3_business_search&utm_source=_xGZBQTFH5RSnMk3I7VtQQ", "price": "$$", "coordinates": {"latitude": 41.9040749, "longitude": -87.6294822}, "phone": "+13127874318", "image_url": "https://s3-media4.fl.yelpcdn.com/bphoto/0H1OCc-qu259gWMJ80hybw/o.jpg", "location": {"city": "Chicago", "country": "US", "address2": "", "address3": "", "state": "IL", "address1": "20 W Division St", "zip_code": "60610"}, "id": "butch-mcguires-chicago-2", "categories": [{"alias": "pubs", "title": "Pubs"}, {"alias": "tradamerican", "title": "American (Traditional)"}]}]}
{"total": 227, "businesses": [{"rating": 3.5, "review_count": 119, "name": "Five Faces Ice Cream Shop", "url": "https://www.yelp.com/biz/five-faces-ice-cream-shop-chicago?adjust_creative=_xGZBQTFH5RSnMk3I7VtQQ&utm_campaign=yelp_api_v3&utm_medium=api_v3_business_search&utm_source=_xGZBQTFH5RSnMk3I7VtQQ", "price": "$", "coordinates": {"latitude": 41.9039931893349, "longitude": -87.6292148977518}, "phone": "+13126427837", "image_url": "https://s3-media2.fl.yelpcdn.com/bphoto/9cyxv4zYElzC35GPI6J50Q/o.jpg", "location": {"city": "Chicago", "country": "US", "address2": "", "address3": "", "state": "IL", "address1": "10 W Division St", "zip_code": "60610"}, "id": "five-faces-ice-cream-shop-chicago", "categories": [{"alias": "icecream", "title": "Ice Cream & Frozen Yogurt"}, {"alias": "hotdogs", "title": "Fast Food"}, {"alias": "burgers", "title": "Burgers"}]}]}
{"total": 230, "businesses": [{"rating": 4.5, "review_count": 411, "name": "Direct Repair", "url": "https://www.yelp.com/biz/direct-repair-chicago-3?adjust_creative=_xGZBQTFH5RSnMk3I7VtQQ&utm_campaign=yelp_api_v3&utm_medium=api_v3_business_search&utm_source=_xGZBQTFH5RSnMk3I7VtQQ", "price": "$$", "coordinates": {"latitude": 41.9033818, "longitude": -87.6288672}, "phone": "+13129449630", "image_url": "https://s3-media4.fl.yelpcdn.com/bphoto/YFaxMcqfGtCZaiVLI64sHg/o.jpg", "location": {"city": "Chicago", "address1": "1156 N State St", "address2": null, "address3": "", "state": "IL", "country": "US", "zip_code": "60610"}, "id": "direct-repair-chicago-3", "categories": [{"alias": "electronicsrepair", "title": "Electronics Repair"}, {"alias": "mobilephonerepair", "title": "Mobile Phone Repair"}]}]}
{"total": 227, "businesses": [{"rating": 5.0, "review_count": 60, "name": "Mattress Firm Gold Coast", "url": "https://www.yelp.com/biz/mattress-firm-gold-coast-chicago?adjust_creative=_xGZBQTFH5RSnMk3I7VtQQ&utm_campaign=yelp_api_v3&utm_medium=api_v3_business_search&utm_source=_xGZBQTFH5RSnMk3I7VtQQ", "price": "$$", "coordinates": {"latitude": 41.904129, "longitude": -87.631051}, "phone": "+13125731230", "image_url": "https://s3-media2.fl.yelpcdn.com/bphoto/ao5DoHD8syMGPMdQsXsDMQ/o.jpg", "location": {"city": "Chicago", "country": "US", "address2": "Ste F", "address3": "", "state": "IL", "address1": "1201 N Clark", "zip_code": "60610"}, "id": "mattress-firm-gold-coast-chicago", "categories": [{"alias": "mattresses", "title": "Mattresses"}]}]}
{"total": 227, "businesses": [{"rating": 5.0, "review_count": 26, "name": "Global Postal & Shipping", "url": "https://www.yelp.com/biz/global-postal-and-shipping-chicago?adjust_creative=_xGZBQTFH5RSnMk3I7VtQQ&utm_campaign=yelp_api_v3&utm_medium=api_v3_business_search&utm_source=_xGZBQTFH5RSnMk3I7VtQQ", "coordinates": {"latitude": 41.9105141, "longitude": -87.6318689}, "phone": "+13129435049", "image_url": "https://s3-media4.fl.yelpcdn.com/bphoto/1NFm__xZnKe4qgevvP9zGA/o.jpg", "location": {"city": "Chicago", "country": "US", "address2": "", "address3": "", "state": "IL", "address1": "106 W Germania Pl", "zip_code": "60610"}, "id": "global-postal-and-shipping-chicago", "categories": [{"alias": "shipping_centers", "title": "Shipping Centers"}]}]}
{"total": 227, "businesses": [{"rating": 3.5, "review_count": 359, "name": "The Halal Guys", "url": "https://www.yelp.com/biz/the-halal-guys-chicago?adjust_creative=_xGZBQTFH5RSnMk3I7VtQQ&utm_campaign=yelp_api_v3&utm_medium=api_v3_business_search&utm_source=_xGZBQTFH5RSnMk3I7VtQQ", "price": "$", "coordinates": {"latitude": 41.9038892537355, "longitude": -87.6304426789284}, "phone": "+13128775575", "image_url": "https://s3-media1.fl.yelpcdn.com/bphoto/vzkuytXmhWRVNvPVX6qZhQ/o.jpg", "location": {"city": "Chicago", "country": "US", "address2": null, "address3": "", "state": "IL", "address1": "49 West Division St", "zip_code": "60610"}, "id": "the-halal-guys-chicago", "categories": [{"alias": "mideastern", "title": "Middle Eastern"}, {"alias": "halal", "title": "Halal"}]}]}
{"total": 227, "businesses": [{"rating": 4.0, "review_count": 23, "name": "Tip Top Inn", "url": "https://www.yelp.com/biz/tip-top-inn-chicago?adjust_creative=_xGZBQTFH5RSnMk3I7VtQQ&utm_campaign=yelp_api_v3&utm_medium=api_v3_business_search&utm_source=_xGZBQTFH5RSnMk3I7VtQQ", "price": "$$", "coordinates": {"latitude": 41.9041786193848, "longitude": -87.6290512084961}, "phone": "+13128775900", "image_url": "https://s3-media4.fl.yelpcdn.com/bphoto/ne5k4mKxP81Jxh86iwozdw/o.jpg", "location": {"city": "Chicago", "address1": "1204 N State St", "address2": null, "address3": "", "state": "IL", "country": "US", "zip_code": "60610"}, "id": "tip-top-inn-chicago", "categories": [{"alias": "tradamerican", "title": "American (Traditional)"}, {"alias": "lounges", "title": "Lounges"}]}]}
{"total": 230, "businesses": [{"rating": 3.5, "review_count": 116, "name": "The Lodge", "url": "https://www.yelp.com/biz/the-lodge-chicago-2?adjust_creative=_xGZBQTFH5RSnMk3I7VtQQ&utm_campaign=yelp_api_v3&utm_medium=api_v3_business_search&utm_source=_xGZBQTFH5RSnMk3I7VtQQ", "price": "$$", "coordinates": {"latitude": 41.903986, "longitude": -87.629573}, "phone": "+13126424406", "image_url": "https://s3-media2.fl.yelpcdn.com/bphoto/Rlag6RZuN0cUTeCB_6YOYg/o.jpg", "location": {"city": "Chicago", "country": "US", "address2": "", "address3": "", "state": "IL", "address1": "21 W Division St", "zip_code": "60610"}, "id": "the-lodge-chicago-2", "categories": [{"alias": "divebars", "title": "Dive Bars"}, {"alias": "lounges", "title": "Lounges"}]}]}
{"total": 227, "businesses": [{"rating": 5.0, "review_count": 67, "name": "HDInstalls", "url": "https://www.yelp.com/biz/hdinstalls-chicago?adjust_creative=_xGZBQTFH5RSnMk3I7VtQQ&utm_campaign=yelp_api_v3&utm_medium=api_v3_business_search&utm_source=_xGZBQTFH5RSnMk3I7VtQQ", "price": "$$", "coordinates": {"latitude": 41.9042167663574, "longitude": -87.6273574829102}, "phone": "+13124505470", "image_url": "https://s3-media1.fl.yelpcdn.com/bphoto/i44UkKw2EFKO13H6yLasmg/o.jpg", "location": {"city": "Chicago", "country": "US", "address2": "", "address3": "", "state": "IL", "address1": "30 E Division St", "zip_code": "60686"}, "id": "hdinstalls-chicago", "categories": [{"alias": "electronics", "title": "Electronics"}, {"alias": "hometheatreinstallation", "title": "Home Theatre Installation"}]}]}
{"total": 227, "businesses": [{"rating": 3.0, "review_count": 207, "name": "Castaways Bar & Grill", "url": "https://www.yelp.com/biz/castaways-bar-and-grill-chicago?adjust_creative=_xGZBQTFH5RSnMk3I7VtQQ&utm_campaign=yelp_api_v3&utm_medium=api_v3_business_search&utm_source=_xGZBQTFH5RSnMk3I7VtQQ", "price": "$$", "coordinates": {"latitude": 41.913407981046, "longitude": -87.624149656451}, "phone": "+17732811200", "image_url": "https://s3-media4.fl.yelpcdn.com/bphoto/bKm1UqWO73tCPkYmfZUABg/o.jpg", "location": {"city": "Chicago", "address1": "1603 N Lake Shore Dr", "address2": "", "address3": "", "state": "IL", "country": "US", "zip_code": "60614"}, "id": "castaways-bar-and-grill-chicago", "categories": [{"alias": "tradamerican", "title": "American (Traditional)"}, {"alias": "bars", "title": "Bars"}, {"alias": "sandwiches", "title": "Sandwiches"}]}]}
{"total": 227, "businesses": [{"rating": 4.5, "review_count": 49, "name": "Chicago SUP", "url": "https://www.yelp.com/biz/chicago-sup-chicago?adjust_creative=_xGZBQTFH5RSnMk3I7VtQQ&utm_campaign=yelp_api_v3&utm_medium=api_v3_business_search&utm_source=_xGZBQTFH5RSnMk3I7VtQQ", "price": "$$$", "coordinates": {"latitude": 41.9130704595399, "longitude": -87.6230007573944}, "phone": "+17735754787", "image_url": "https://s3-media1.fl.yelpcdn.com/bphoto/uQF82fBDdK-RSjisMM84yQ/o.jpg", "location": {"city": "Chicago", "address1": "1601 N Lake Shore Dr", "address2": "", "address3": "", "state": "IL", "country": "US", "zip_code": "60611"}, "id": "chicago-sup-chicago", "categories": [{"alias": "beaches", "title": "Beaches"}, {"alias": "paddleboarding", "title": "Paddleboarding"}, {"alias": "boating", "title": "Boating"}]}]}
{"total": 227, "businesses": [{"rating": 5.0, "review_count": 64, "name": "TRIFACTIVE Sports Injury & Performance Clinic", "url": "https://www.yelp.com/biz/trifactive-sports-injury-and-performance-clinic-chicago?adjust_creative=_xGZBQTFH5RSnMk3I7VtQQ&utm_campaign=yelp_api_v3&utm_medium=api_v3_business_search&utm_source=_xGZBQTFH5RSnMk3I7VtQQ", "price": "$$", "coordinates": {"latitude": 41.9045376777649, "longitude": -87.6328687369823}, "phone": "+13126006117", "image_url": "https://s3-media1.fl.yelpcdn.com/bphoto/2v7nNTxQZQbE3K7Mzx5m0A/o.jpg", "location": {"city": "Chicago", "country": "US", "address2": null, "address3": "", "state": "IL", "address1": "1221 N Lasalle St", "zip_code": "60610"}, "id": "trifactive-sports-injury-and-performance-clinic-chicago", "categories": [{"alias": "chiropractors", "title": "Chiropractors"}, {"alias": "massage", "title": "Massage"}]}]}
{"total": 227, "businesses": [{"rating": 3.0, "review_count": 220, "name": "Tiparos", "url": "https://www.yelp.com/biz/tiparos-chicago-2?adjust_creative=_xGZBQTFH5RSnMk3I7VtQQ&utm_campaign=yelp_api_v3&utm_medium=api_v3_business_search&utm_source=_xGZBQTFH5RSnMk3I7VtQQ", "price": "$$", "coordinates": {"latitude": 41.9105593, "longitude": -87.6318331}, "phone": "+13127129900", "image_url": "https://s3-media3.fl.yelpcdn.com/bphoto/lb-l8E0y4bfZifCe5224cA/o.jpg", "location": {"city": "Chicago", "country": "US", "address2": "", "address3": "", "state": "IL", "address1": "1540 N Clark St", "zip_code": "60610"}, "id": "tiparos-chicago-2", "categories": [{"alias": "thai", "title": "Thai"}, {"alias": "sushi", "title": "Sushi Bars"}]}]}
{"total": 227, "businesses": [{"rating": 3.5, "review_count": 62, "name": "Mr. Gyros", "url": "https://www.yelp.com/biz/mr-gyros-chicago?adjust_creative=_xGZBQTFH5RSnMk3I7VtQQ&utm_campaign=yelp_api_v3&utm_medium=api_v3_business_search&utm_source=_xGZBQTFH5RSnMk3I7VtQQ", "price": "$", "coordinates": {"latitude": 41.9038584083319, "longitude": -87.6318769901991}, "phone": "+13129515207", "image_url": "https://s3-media3.fl.yelpcdn.com/bphoto/abZIoA8z7YEcwm1dBd9bBg/o.jpg", "location": {"city": "Chicago", "country": "US", "address2": "", "address3": "", "state": "IL", "address1": "109 W Division St", "zip_code": "60610"}, "id": "mr-gyros-chicago", "categories": [{"alias": "hotdogs", "title": "Fast Food"}]}]}
{"total": 230, "businesses": [{"rating": 4.0, "review_count": 277, "name": "Chicago History Museum", "url": "https://www.yelp.com/biz/chicago-history-museum-chicago?adjust_creative=_xGZBQTFH5RSnMk3I7VtQQ&utm_campaign=yelp_api_v3&utm_medium=api_v3_business_search&utm_source=_xGZBQTFH5RSnMk3I7VtQQ", "coordinates": {"latitude": 41.9113772, "longitude": -87.6315416}, "phone": "+13126424600", "image_url": "https://s3-media4.fl.yelpcdn.com/bphoto/ohp5b0wjt_3idQTsfeHn6w/o.jpg", "location": {"city": "Chicago", "country": "US", "address2": "", "address3": "", "state": "IL", "address1": "1601 N Clark St", "zip_code": "60614"}, "id": "chicago-history-museum-chicago", "categories": [{"alias": "museums", "title": "Museums"}]}]}
{"total": 227, "businesses": [{"rating": 4.0, "review_count": 94, "name": "Marianne Strokirk Salon", "url": "https://www.yelp.com/biz/marianne-strokirk-salon-chicago?adjust_creative=_xGZBQTFH5RSnMk3I7VtQQ&utm_campaign=yelp_api_v3&utm_medium=api_v3_business_search&utm_source=_xGZBQTFH5RSnMk3I7VtQQ", "price": "$$$", "coordinates": {"latitude": 41.906438, "longitude": -87.628369}, "phone": "+13126400101", "image_url": "https://s3-media2.fl.yelpcdn.com/bphoto/NCKnfplOlv3ateG14OKRsQ/o.jpg", "location": {"city": "Chicago", "country": "US", "address2": "", "address3": "", "state": "IL", "address1": "1325 N St Pkwy", "zip_code": "60610"}, "id": "marianne-strokirk-salon-chicago", "categories": [{"alias": "hair", "title": "Hair Salons"}, {"alias": "waxing", "title": "Waxing"}]}]}
{"total": 227, "businesses": [{"rating": 4.5, "review_count": 63, "name": "Germania Place", "url": "https://www.yelp.com/biz/germania-place-chicago?adjust_creative=_xGZBQTFH5RSnMk3I7VtQQ&utm_campaign=yelp_api_v3&utm_medium=api_v3_business_search&utm_source=_xGZBQTFH5RSnMk3I7VtQQ", "coordinates": {"latitude": 41.91061, "longitude": -87.63206}, "phone": "+13125731968", "image_url": "https://s3-media2.fl.yelpcdn.com/bphoto/sK16mGKb6dxyyoauo2G6vg/o.jpg", "location": {"city": "Chicago", "country": "US", "address2": "", "address3": "", "state": "IL", "address1": "108 W Germania Place", "zip_code": "60610"}, "id": "germania-place-chicago", "categories": [{"alias": "eventplanning", "title": "Party & Event Planning"}, {"alias": "venues", "title": "Venues & Event Spaces"}]}]}
{"total": 227, "businesses": [{"rating": 4.5, "review_count": 45, "name": "J Andrews Salon", "url": "https://www.yelp.com/biz/j-andrews-salon-chicago?adjust_creative=_xGZBQTFH5RSnMk3I7VtQQ&utm_campaign=yelp_api_v3&utm_medium=api_v3_business_search&utm_source=_xGZBQTFH5RSnMk3I7VtQQ", "price": "$$", "coordinates": {"latitude": 41.905647277832, "longitude": -87.6304550170898}, "phone": "+13129515338", "image_url": "https://s3-media4.fl.yelpcdn.com/bphoto/AGSnlu0u44yRmx7pA__Qgg/o.jpg", "location": {"city": "Chicago", "country": "US", "address2": "", "address3": "", "state": "IL", "address1": "1260 N Dearborn St", "zip_code": "60610"}, "id": "j-andrews-salon-chicago", "categories": [{"alias": "hair", "title": "Hair Salons"}, {"alias": "skincare", "title": "Skin Care"}]}]}
{"total": 227, "businesses": [{"rating": 5.0, "review_count": 37, "name": "SIT Social: A Dog Lounge", "url": "https://www.yelp.com/biz/sit-social-a-dog-lounge-chicago-2?adjust_creative=_xGZBQTFH5RSnMk3I7VtQQ&utm_campaign=yelp_api_v3&utm_medium=api_v3_business_search&utm_source=_xGZBQTFH5RSnMk3I7VtQQ", "coordinates": {"latitude": 41.9096691, "longitude": -87.6301764}, "phone": "+17736619336", "image_url": "https://s3-media4.fl.yelpcdn.com/bphoto/LPiOelPlv61vJ7Jqu-YkGw/o.jpg", "location": {"city": "Chicago", "country": "US", "address2": "", "address3": "", "state": "IL", "address1": "3920 N Ashland Ave", "zip_code": "60613"}, "id": "sit-social-a-dog-lounge-chicago-2", "categories": [{"alias": "dogwalkers", "title": "Dog Walkers"}, {"alias": "pet_sitting", "title": "Pet Boarding/Pet Sitting"}, {"alias": "pet_training", "title": "Pet Training"}]}]}
{"total": 227, "businesses": [{"rating": 4.5, "review_count": 100, "name": "Joseph Michael's Salon and Spa", "url": "https://www.yelp.com/biz/joseph-michaels-salon-and-spa-chicago?adjust_creative=_xGZBQTFH5RSnMk3I7VtQQ&utm_campaign=yelp_api_v3&utm_medium=api_v3_business_search&utm_source=_xGZBQTFH5RSnMk3I7VtQQ", "price": "$$$", "coordinates": {"latitude": 41.90619, "longitude": -87.626278}, "phone": "+13124829800", "image_url": "https://s3-media3.fl.yelpcdn.com/bphoto/9-WTVgaClgquK9-HrbXdlw/o.jpg", "location": {"city": "Chicago", "country": "US", "address2": "", "address3": "", "state": "IL", "address1": "1313 N Ritchie Ct", "zip_code": "60610"}, "id": "joseph-michaels-salon-and-spa-chicago", "categories": [{"alias": "hair", "title": "Hair Salons"}, {"alias": "massage", "title": "Massage"}, {"alias": "spas", "title": "Day Spas"}]}]}
{"total": 227, "businesses": [{"rating": 4.0, "review_count": 99, "name": "International Museum of Surgical Science", "url": "https://www.yelp.com/biz/international-museum-of-surgical-science-chicago?adjust_creative=_xGZBQTFH5RSnMk3I7VtQQ&utm_campaign=yelp_api_v3&utm_medium=api_v3_business_search&utm_source=_xGZBQTFH5RSnMk3I7VtQQ", "coordinates": {"latitude": 41.909853, "longitude": -87.6263293}, "phone": "+13126426502", "image_url": "https://s3-media2.fl.yelpcdn.com/bphoto/MUKEICS34pPeN_0EPu8pCw/o.jpg", "location": {"city": "Chicago", "country": "US", "address2": "", "address3": "", "state": "IL", "address1": "1524 N Lake Shore Dr", "zip_code": "60610"}, "id": "international-museum-of-surgical-science-chicago", "categories": [{"alias": "museums", "title": "Museums"}, {"alias": "venues", "title": "Venues & Event Spaces"}]}]}
{"total": 227, "businesses": [{"rating": 5.0, "review_count": 12, "name": "Junior League of Chicago", "url": "https://www.yelp.com/biz/junior-league-of-chicago-chicago?adjust_creative=_xGZBQTFH5RSnMk3I7VtQQ&utm_campaign=yelp_api_v3&utm_medium=api_v3_business_search&utm_source=_xGZBQTFH5RSnMk3I7VtQQ", "coordinates": {"latitude": 41.90914, "longitude": -87.62721}, "phone": "+13126644462", "image_url": "https://s3-media4.fl.yelpcdn.com/bphoto/tJ-wA9HrquU0UcsBP-Stww/o.jpg", "location": {"city": "Chicago", "country": "US", "address2": "", "address3": "", "state": "IL", "address1": "1447 N Astor St", "zip_code": "60610"}, "id": "junior-league-of-chicago-chicago", "categories": [{"alias": "nonprofit", "title": "Community Service/Non-Profit"}]}]}
{"total": 230, "businesses": [{"rating": 5.0, "review_count": 15, "name": "Nick Roy Magic", "url": "https://www.yelp.com/biz/nick-roy-magic-chicago?adjust_creative=_xGZBQTFH5RSnMk3I7VtQQ&utm_campaign=yelp_api_v3&utm_medium=api_v3_business_search&utm_source=_xGZBQTFH5RSnMk3I7VtQQ", "coordinates": {"latitude": 41.90514, "longitude": -87.627899}, "phone": "+17737061780", "image_url": "https://s3-media4.fl.yelpcdn.com/bphoto/BMAS6l5mO6jDVbAbv8w3pw/o.jpg", "location": {"city": "Chicago", "address1": "20 E Scott St", "address2": null, "address3": "", "state": "IL", "country": "US", "zip_code": "60610"}, "id": "nick-roy-magic-chicago", "categories": [{"alias": "magicians", "title": "Magicians"}]}]}
{"total": 227, "businesses": [{"rating": 5.0, "review_count": 3, "name": "Lincoln Park Chess Pavilion", "url": "https://www.yelp.com/biz/lincoln-park-chess-pavilion-chicago?adjust_creative=_xGZBQTFH5RSnMk3I7VtQQ&utm_campaign=yelp_api_v3&utm_medium=api_v3_business_search&utm_source=_xGZBQTFH5RSnMk3I7VtQQ", "coordinates": {"latitude": 41.911316040085, "longitude": -87.6250094297817}, "phone": "", "image_url": "https://s3-media4.fl.yelpcdn.com/bphoto/pKKnyn3ViD0p1X1iIWbkLw/o.jpg", "location": {"city": "Chicago", "country": "US", "address2": "", "address3": "", "state": "IL", "address1": "1601 N Lake Shore Dr", "zip_code": "60614"}, "id": "lincoln-park-chess-pavilion-chicago", "categories": [{"alias": "parks", "title": "Parks"}]}]}
{"total": 227, "businesses": [{"rating": 4.0, "review_count": 172, "name": "North Avenue Beach", "url": "https://www.yelp.com/biz/north-avenue-beach-chicago?adjust_creative=_xGZBQTFH5RSnMk3I7VtQQ&utm_campaign=yelp_api_v3&utm_medium=api_v3_business_search&utm_source=_xGZBQTFH5RSnMk3I7VtQQ", "coordinates": {"latitude": 41.9140405726627, "longitude": -87.6243486042974}, "phone": "+13127470832", "image_url": "https://s3-media2.fl.yelpcdn.com/bphoto/Q60CQunYn9_ZXEoDFccmiQ/o.jpg", "location": {"city": "Chicago", "address1": "1600 N. Lake Shore Dr", "address2": null, "address3": "", "state": "IL", "country": "US", "zip_code": "60614"}, "id": "north-avenue-beach-chicago", "categories": [{"alias": "beaches", "title": "Beaches"}]}]}
{"total": 230, "businesses": [{"rating": 4.0, "review_count": 20, "name": "The Moody Church", "url": "https://www.yelp.com/biz/the-moody-church-chicago?adjust_creative=_xGZBQTFH5RSnMk3I7VtQQ&utm_campaign=yelp_api_v3&utm_medium=api_v3_business_search&utm_source=_xGZBQTFH5RSnMk3I7VtQQ", "coordinates": {"latitude": 41.9113972, "longitude": -87.6329951}, "phone": "+13123278600", "image_url": "https://s3-media1.fl.yelpcdn.com/bphoto/d_yxOzmYp9C0G3uAndXv_w/o.jpg", "location": {"city": "Chicago", "country": "US", "address2": "", "address3": "", "state": "IL", "address1": "1609 N LaSalle", "zip_code": "60614"}, "id": "the-moody-church-chicago", "categories": [{"alias": "churches", "title": "Churches"}]}]}
{"total": 230, "businesses": [{"rating": 4.5, "review_count": 31, "name": "Verizon", "url": "https://www.yelp.com/biz/verizon-chicago-12?adjust_creative=_xGZBQTFH5RSnMk3I7VtQQ&utm_campaign=yelp_api_v3&utm_medium=api_v3_business_search&utm_source=_xGZBQTFH5RSnMk3I7VtQQ", "price": "$$", "coordinates": {"latitude": 41.904129, "longitude": -87.631051}, "phone": "+13122528195", "image_url": "https://s3-media2.fl.yelpcdn.com/bphoto/Ggm37A1_6uCza-oePxyxRw/o.jpg", "location": {"city": "Chicago", "address1": "1201 N Clark St", "address2": null, "address3": null, "state": "IL", "country": "US", "zip_code": "60610"}, "id": "verizon-chicago-12", "categories": [{"alias": "mobilephones", "title": "Mobile Phones"}, {"alias": "televisionserviceproviders", "title": "Television Service Providers"}, {"alias": "isps", "title": "Internet Service Providers"}]}]}
{"total": 227, "businesses": [{"rating": 5.0, "review_count": 16, "name": "Mike Kravitz - Remax Premier Properties", "url": "https://www.yelp.com/biz/mike-kravitz-remax-premier-properties-chicago?adjust_creative=_xGZBQTFH5RSnMk3I7VtQQ&utm_campaign=yelp_api_v3&utm_medium=api_v3_business_search&utm_source=_xGZBQTFH5RSnMk3I7VtQQ", "coordinates": {"latitude": 41.9042821, "longitude": -87.6298141}, "phone": "+13124859868", "image_url": "https://s3-media1.fl.yelpcdn.com/bphoto/t7PZtFLaEuvMXqplvQOm7A/o.jpg", "location": {"city": "Chicago", "country": "US", "address2": "", "address3": "", "state": "IL", "address1": "1207 N Dearborn Ave", "zip_code": "60610"}, "id": "mike-kravitz-remax-premier-properties-chicago", "categories": [{"alias": "realestateagents", "title": "Real Estate Agents"}]}]}
{"total": 227, "businesses": [{"rating": 4.0, "review_count": 30, "name": "Kenmare Catering & Events", "url": "https://www.yelp.com/biz/kenmare-catering-and-events-chicago?adjust_creative=_xGZBQTFH5RSnMk3I7VtQQ&utm_campaign=yelp_api_v3&utm_medium=api_v3_business_search&utm_source=_xGZBQTFH5RSnMk3I7VtQQ", "coordinates": {"latitude": 41.91061, "longitude": -87.63206}, "phone": "+13127870190", "image_url": "https://s3-media2.fl.yelpcdn.com/bphoto/aG9ThHrJ0VMeOuEkIZmGaA/o.jpg", "location": {"city": "Chicago", "country": "US", "address2": null, "address3": null, "state": "IL", "address1": "108 W Germania Pl", "zip_code": "60610"}, "id": "kenmare-catering-and-events-chicago", "categories": [{"alias": "catering", "title": "Caterers"}]}]}
{"total": 227, "businesses": [{"rating": 5.0, "review_count": 7, "name": "The Latin School of Chicago", "url": "https://www.yelp.com/biz/the-latin-school-of-chicago-chicago?adjust_creative=_xGZBQTFH5RSnMk3I7VtQQ&utm_campaign=yelp_api_v3&utm_medium=api_v3_business_search&utm_source=_xGZBQTFH5RSnMk3I7VtQQ", "coordinates": {"latitude": 41.9108322461817, "longitude": -87.631261968025}, "phone": "+13125826000", "image_url": "https://s3-media2.fl.yelpcdn.com/bphoto/m_MdsXuRqrz4L2NIdQzFcA/o.jpg", "location": {"city": "Chicago", "country": "US", "address2": "", "address3": "", "state": "IL", "address1": "59 W North Blvd", "zip_code": "60610"}, "id": "the-latin-school-of-chicago-chicago", "categories": [{"alias": "elementaryschools", "title": "Elementary Schools"}, {"alias": "highschools", "title": "Middle Schools & High Schools"}]}]}
{"total": 227, "businesses": [{"rating": 4.0, "review_count": 12, "name": "Gold Coast Wellness", "url": "https://www.yelp.com/biz/gold-coast-wellness-chicago?adjust_creative=_xGZBQTFH5RSnMk3I7VtQQ&utm_campaign=yelp_api_v3&utm_medium=api_v3_business_search&utm_source=_xGZBQTFH5RSnMk3I7VtQQ", "price": "$$", "coordinates": {"latitude": 41.9070408, "longitude": -87.6322849}, "phone": "+13129444653", "image_url": "https://s3-media3.fl.yelpcdn.com/bphoto/hLR3IbAJ64O21svjdz5Tsw/o.jpg", "location": {"city": "Chicago", "country": "US", "address2": "Ste 101", "address3": "", "state": "IL", "address1": "1360 N Sandburg Ter", "zip_code": "60610"}, "id": "gold-coast-wellness-chicago", "categories": [{"alias": "chiropractors", "title": "Chiropractors"}, {"alias": "massage", "title": "Massage"}, {"alias": "acupuncture", "title": "Acupuncture"}]}]}
{"total": 227, "businesses": [{"rating": 4.5, "review_count": 32, "name": "The Naughty Little Cabaret", "url": "https://www.yelp.com/biz/the-naughty-little-cabaret-chicago?adjust_creative=_xGZBQTFH5RSnMk3I7VtQQ&utm_campaign=yelp_api_v3&utm_medium=api_v3_business_search&utm_source=_xGZBQTFH5RSnMk3I7VtQQ", "price": "$$", "coordinates": {"latitude": 41.9040752, "longitude": -87.6292366}, "phone": "+17738996274", "image_url": "https://s3-media2.fl.yelpcdn.com/bphoto/6IPczstizw10DgPyJYt0zw/o.jpg", "location": {"city": "Chicago", "country": "US", "address2": "", "address3": "", "state": "IL", "address1": "26 W Division", "zip_code": "60610"}, "id": "the-naughty-little-cabaret-chicago", "categories": [{"alias": "adultentertainment", "title": "Adult Entertainment"}]}]}
{"total": 230, "businesses": [{"rating": 3.5, "review_count": 218, "name": "PUBLIC Chicago", "url": "https://www.yelp.com/biz/public-chicago-chicago?adjust_creative=_xGZBQTFH5RSnMk3I7VtQQ&utm_campaign=yelp_api_v3&utm_medium=api_v3_business_search&utm_source=_xGZBQTFH5RSnMk3I7VtQQ", "price": "$$$", "coordinates": {"latitude": 41.905846, "longitude": -87.628719}, "phone": "+13127873700", "image_url": "https://s3-media2.fl.yelpcdn.com/bphoto/E3kGq2uW0AIx7QOUkww5xA/o.jpg", "location": {"city": "Chicago", "country": "US", "address2": "", "address3": "", "state": "IL", "address1": "1301 North State Pkwy", "zip_code": "60610"}, "id": "public-chicago-chicago", "categories": [{"alias": "hotels", "title": "Hotels"}]}]}
{"total": 227, "businesses": [{"rating": 3.0, "review_count": 15, "name": "Starbucks", "url": "https://www.yelp.com/biz/starbucks-chicago-180?adjust_creative=_xGZBQTFH5RSnMk3I7VtQQ&utm_campaign=yelp_api_v3&utm_medium=api_v3_business_search&utm_source=_xGZBQTFH5RSnMk3I7VtQQ", "price": "$$", "coordinates": {"latitude": 41.91061, "longitude": -87.63206}, "phone": "+13123376481", "image_url": "https://s3-media1.fl.yelpcdn.com/bphoto/QFdiVjxXQd2mDJ_Euxwq3w/o.jpg", "location": {"city": "Chicago", "country": "US", "address2": "", "address3": "", "state": "IL", "address1": "108 W Germania Pl", "zip_code": "60610"}, "id": "starbucks-chicago-180", "categories": [{"alias": "coffee", "title": "Coffee & Tea"}]}]}
{"total": 227, "businesses": [{"rating": 5.0, "review_count": 8, "name": "Chicago Face Painting by Valery", "url": "https://www.yelp.com/biz/chicago-face-painting-by-valery-chicago?adjust_creative=_xGZBQTFH5RSnMk3I7VtQQ&utm_campaign=yelp_api_v3&utm_medium=api_v3_business_search&utm_source=_xGZBQTFH5RSnMk3I7VtQQ", "price": "$$", "coordinates": {"latitude": 41.909016, "longitude": -87.626572}, "phone": "+16306390190", "image_url": "https://s3-media3.fl.yelpcdn.com/bphoto/2UEvuBnr-4ntb1ykjwwjiA/o.jpg", "location": {"city": "Chicago", "country": "US", "address2": "", "address3": "", "state": "IL", "address1": "1440 N Lake Shore Dr", "zip_code": "60610"}, "id": "chicago-face-painting-by-valery-chicago", "categories": [{"alias": "facepainting", "title": "Face Painting"}]}]}
{"total": 230, "businesses": [{"rating": 4.5, "review_count": 21, "name": "Immediate MD", "url": "https://www.yelp.com/biz/immediate-md-chicago-4?adjust_creative=_xGZBQTFH5RSnMk3I7VtQQ&utm_campaign=yelp_api_v3&utm_medium=api_v3_business_search&utm_source=_xGZBQTFH5RSnMk3I7VtQQ", "coordinates": {"latitude": 41.9111251831055, "longitude": -87.6325750350952}, "phone": "+13126435606", "image_url": "https://s3-media4.fl.yelpcdn.com/bphoto/KDdvJpiwg3-mkg6VL_Vurg/o.jpg", "location": {"city": "Chicago", "address1": "121 W North Ave", "address2": null, "address3": "", "state": "IL", "country": "US", "zip_code": "60610"}, "id": "immediate-md-chicago-4", "categories": [{"alias": "urgent_care", "title": "Urgent Care"}, {"alias": "medcenters", "title": "Medical Centers"}]}]}
{"total": 227, "businesses": [{"rating": 4.0, "review_count": 14, "name": "Fine Makeup Art & Associates", "url": "https://www.yelp.com/biz/fine-makeup-art-and-associates-chicago?adjust_creative=_xGZBQTFH5RSnMk3I7VtQQ&utm_campaign=yelp_api_v3&utm_medium=api_v3_business_search&utm_source=_xGZBQTFH5RSnMk3I7VtQQ", "price": "$$", "coordinates": {"latitude": 41.9227161667392, "longitude": -87.6214599609375}, "phone": "+18478478972", "image_url": "https://s3-media1.fl.yelpcdn.com/bphoto/ZmYZQNBl_kb7WwbG5PICPg/o.jpg", "location": {"city": "Chicago", "country": "US", "address2": "", "address3": "", "state": "IL", "address1": "207 E Ohio St", "zip_code": "60611"}, "id": "fine-makeup-art-and-associates-chicago", "categories": [{"alias": "makeupartists", "title": "Makeup Artists"}]}]}
{"total": 227, "businesses": [{"rating": 3.5, "review_count": 12, "name": "North and Clark Caf\u00e9", "url": "https://www.yelp.com/biz/north-and-clark-caf%C3%A9-chicago-2?adjust_creative=_xGZBQTFH5RSnMk3I7VtQQ&utm_campaign=yelp_api_v3&utm_medium=api_v3_business_search&utm_source=_xGZBQTFH5RSnMk3I7VtQQ", "price": "$$", "coordinates": {"latitude": 41.9113772, "longitude": -87.6315416}, "phone": "+13127992121", "image_url": "https://s3-media1.fl.yelpcdn.com/bphoto/0k0OpGInJ6ByqkOQuMdz5A/o.jpg", "location": {"city": "Chicago", "address1": "Chicago History Museum", "address2": "1601 N Clark St", "address3": "", "state": "IL", "country": "US", "zip_code": "60614"}, "id": "north-and-clark-caf\u00e9-chicago-2", "categories": [{"alias": "coffee", "title": "Coffee & Tea"}, {"alias": "newamerican", "title": "American (New)"}]}]}
{"total": 230, "businesses": [{"rating": 4.5, "review_count": 29, "name": "The Barre Code Gold Coast", "url": "https://www.yelp.com/biz/the-barre-code-gold-coast-chicago?adjust_creative=_xGZBQTFH5RSnMk3I7VtQQ&utm_campaign=yelp_api_v3&utm_medium=api_v3_business_search&utm_source=_xGZBQTFH5RSnMk3I7VtQQ", "coordinates": {"latitude": 41.9039898673687, "longitude": -87.6314914226532}, "phone": "+13122806800", "image_url": "https://s3-media1.fl.yelpcdn.com/bphoto/_0UPXhZv5vX8idYhVaBSCQ/o.jpg", "location": {"city": "Chicago", "country": "US", "address2": "", "address3": "", "state": "IL", "address1": "1165 N Clark St", "zip_code": "60610"}, "id": "the-barre-code-gold-coast-chicago", "categories": [{"alias": "barreclasses", "title": "Barre Classes"}, {"alias": "gyms", "title": "Gyms"}]}]}
{"total": 227, "businesses": [{"rating": 4.0, "review_count": 27, "name": "Salon Duo", "url": "https://www.yelp.com/biz/salon-duo-chicago?adjust_creative=_xGZBQTFH5RSnMk3I7VtQQ&utm_campaign=yelp_api_v3&utm_medium=api_v3_business_search&utm_source=_xGZBQTFH5RSnMk3I7VtQQ", "price": "$$$", "coordinates": {"latitude": 41.9080924987793, "longitude": -87.6263961791992}, "phone": "+13126648710", "image_url": "https://s3-media1.fl.yelpcdn.com/bphoto/IqBMYtZo_T3OVXFR_4O3gw/o.jpg", "location": {"city": "Chicago", "country": "US", "address2": "", "address3": "", "state": "IL", "address1": "1400 N Lake Shore Dr", "zip_code": "60610"}, "id": "salon-duo-chicago", "categories": [{"alias": "hair", "title": "Hair Salons"}]}]}
{"total": 227, "businesses": [{"rating": 2.5, "review_count": 287, "name": "McFadden's Restaurant and Saloon", "url": "https://www.yelp.com/biz/mcfaddens-restaurant-and-saloon-chicago?adjust_creative=_xGZBQTFH5RSnMk3I7VtQQ&utm_campaign=yelp_api_v3&utm_medium=api_v3_business_search&utm_source=_xGZBQTFH5RSnMk3I7VtQQ", "price": "$$", "coordinates": {"latitude": 41.90424, "longitude": -87.62907}, "phone": "+13124759450", "image_url": "https://s3-media2.fl.yelpcdn.com/bphoto/6vsuAS6kvVeLlT1RAVnKFw/o.jpg", "location": {"city": "Chicago", "address1": "1206 N State Pkwy", "address2": null, "address3": "", "state": "IL", "country": "US", "zip_code": "60610"}, "id": "mcfaddens-restaurant-and-saloon-chicago", "categories": [{"alias": "pubs", "title": "Pubs"}, {"alias": "irish", "title": "Irish"}]}]}
{"total": 227, "businesses": [{"rating": 3.0, "review_count": 50, "name": "Peking Chinese Food", "url": "https://www.yelp.com/biz/peking-chinese-food-chicago-2?adjust_creative=_xGZBQTFH5RSnMk3I7VtQQ&utm_campaign=yelp_api_v3&utm_medium=api_v3_business_search&utm_source=_xGZBQTFH5RSnMk3I7VtQQ", "price": "$", "coordinates": {"latitude": 41.9111251831055, "longitude": -87.6328700780869}, "phone": "+13129517207", "image_url": "https://s3-media2.fl.yelpcdn.com/bphoto/XqizZrg5EyZ3eVbadn-xqA/o.jpg", "location": {"city": "Chicago", "country": "US", "address2": "", "address3": "", "state": "IL", "address1": "129 W North Ave", "zip_code": "60610"}, "id": "peking-chinese-food-chicago-2", "categories": [{"alias": "chinese", "title": "Chinese"}]}]}
{"total": 230, "businesses": [{"rating": 5.0, "review_count": 16, "name": "My Chicago Stylist", "url": "https://www.yelp.com/biz/my-chicago-stylist-chicago?adjust_creative=_xGZBQTFH5RSnMk3I7VtQQ&utm_campaign=yelp_api_v3&utm_medium=api_v3_business_search&utm_source=_xGZBQTFH5RSnMk3I7VtQQ", "price": "$$", "coordinates": {"latitude": 41.9045524597168, "longitude": -87.628303527832}, "phone": "+13127250625", "image_url": "https://s3-media3.fl.yelpcdn.com/bphoto/-k0jRi7-qU4-fvOEn3b_vg/o.jpg", "location": {"city": "Chicago", "country": "US", "address2": null, "address3": "", "state": "IL", "address1": "1 E Scott St", "zip_code": "60610"}, "id": "my-chicago-stylist-chicago", "categories": [{"alias": "personal_shopping", "title": "Personal Shopping"}]}]}
{"total": 227, "businesses": [{"rating": 3.5, "review_count": 144, "name": "Hotel Indigo Chicago Downtown Gold Coast", "url": "https://www.yelp.com/biz/hotel-indigo-chicago-downtown-gold-coast-chicago-3?adjust_creative=_xGZBQTFH5RSnMk3I7VtQQ&utm_campaign=yelp_api_v3&utm_medium=api_v3_business_search&utm_source=_xGZBQTFH5RSnMk3I7VtQQ", "price": "$$", "coordinates": {"latitude": 41.9052099, "longitude": -87.63045}, "phone": "+13127874980", "image_url": "https://s3-media2.fl.yelpcdn.com/bphoto/LRTN6xolXHM8CF1isMNoug/o.jpg", "location": {"city": "Chicago", "country": "US", "address2": "", "address3": "", "state": "IL", "address1": "1244 N Dearborn Pkwy", "zip_code": "60610"}, "id": "hotel-indigo-chicago-downtown-gold-coast-chicago-3", "categories": [{"alias": "hotels", "title": "Hotels"}, {"alias": "venues", "title": "Venues & Event Spaces"}]}]}
{"total": 230, "businesses": [{"rating": 5.0, "review_count": 11, "name": "Verzenay Patisserie", "url": "https://www.yelp.com/biz/verzenay-patisserie-chicago?adjust_creative=_xGZBQTFH5RSnMk3I7VtQQ&utm_campaign=yelp_api_v3&utm_medium=api_v3_business_search&utm_source=_xGZBQTFH5RSnMk3I7VtQQ", "price": "$$", "coordinates": {"latitude": 41.9160038721511, "longitude": -87.630342737204}, "phone": "+18178082533", "image_url": "https://s3-media2.fl.yelpcdn.com/bphoto/Yqeqgx5Di3aQ8s_-cZufXQ/o.jpg", "location": {"city": "Chicago", "country": "US", "address2": "Clark and North Ave", "address3": "", "state": "IL", "address1": "Green City Market", "zip_code": "60614"}, "id": "verzenay-patisserie-chicago", "categories": [{"alias": "desserts", "title": "Desserts"}, {"alias": "farmersmarket", "title": "Farmers Market"}, {"alias": "bakeries", "title": "Bakeries"}]}]}
{"total": 227, "businesses": [{"rating": 4.0, "review_count": 22, "name": "Near North Chicago Farmer's Market", "url": "https://www.yelp.com/biz/near-north-chicago-farmers-market-chicago?adjust_creative=_xGZBQTFH5RSnMk3I7VtQQ&utm_campaign=yelp_api_v3&utm_medium=api_v3_business_search&utm_source=_xGZBQTFH5RSnMk3I7VtQQ", "price": "$", "coordinates": {"latitude": 41.9039497010683, "longitude": -87.6299895290298}, "image_url": "https://s3-media2.fl.yelpcdn.com/bphoto/8bAjzcUAISq1ZkAEZ8yxMQ/o.jpg", "location": {"city": "Chicago", "country": "US", "address2": null, "address3": "", "state": "IL", "address1": "Division and Dearborn", "zip_code": "60611"}, "id": "near-north-chicago-farmers-market-chicago", "categories": [{"alias": "markets", "title": "Fruits & Veggies"}]}]}
{"total": 227, "businesses": [{"rating": 2.5, "review_count": 148, "name": "She-nannigan's House of Beer", "url": "https://www.yelp.com/biz/she-nannigans-house-of-beer-chicago?adjust_creative=_xGZBQTFH5RSnMk3I7VtQQ&utm_campaign=yelp_api_v3&utm_medium=api_v3_business_search&utm_source=_xGZBQTFH5RSnMk3I7VtQQ", "price": "$$", "coordinates": {"latitude": 41.9041134, "longitude": -87.6294253}, "phone": "+13126422344", "image_url": "https://s3-media1.fl.yelpcdn.com/bphoto/SU-Fbg23IzN9KGALevVbwA/o.jpg", "location": {"city": "Chicago", "country": "US", "address2": "", "address3": "", "state": "IL", "address1": "16 W Division St", "zip_code": "60610"}, "id": "she-nannigans-house-of-beer-chicago", "categories": [{"alias": "sportsbars", "title": "Sports Bars"}]}]}
{"total": 230, "businesses": [{"rating": 4.0, "review_count": 17, "name": "Zoolights", "url": "https://www.yelp.com/biz/zoolights-chicago?adjust_creative=_xGZBQTFH5RSnMk3I7VtQQ&utm_campaign=yelp_api_v3&utm_medium=api_v3_business_search&utm_source=_xGZBQTFH5RSnMk3I7VtQQ", "coordinates": {"latitude": 41.9175019672686, "longitude": -87.6324389129877}, "image_url": "https://s3-media1.fl.yelpcdn.com/bphoto/UnPx0-xD_c6eanXxE2Y8TA/o.jpg", "location": {"city": "Chicago", "country": "US", "address2": "", "address3": "", "state": "IL", "address1": "2001 N Clark St", "zip_code": "60614"}, "id": "zoolights-chicago", "categories": [{"alias": "amusementparks", "title": "Amusement Parks"}]}]}
{"total": 227, "businesses": [{"rating": 2.5, "review_count": 69, "name": "Mother's Too", "url": "https://www.yelp.com/biz/mothers-too-chicago?adjust_creative=_xGZBQTFH5RSnMk3I7VtQQ&utm_campaign=yelp_api_v3&utm_medium=api_v3_business_search&utm_source=_xGZBQTFH5RSnMk3I7VtQQ", "price": "$", "coordinates": {"latitude": 41.9039822, "longitude": -87.6292163}, "phone": "+13122667444", "image_url": "https://s3-media3.fl.yelpcdn.com/bphoto/ufWaqxwXldWCmqg7xtzSrg/o.jpg", "location": {"city": "Chicago", "country": "US", "address2": "", "address3": "", "state": "IL", "address1": "14 W Division St", "zip_code": "60610"}, "id": "mothers-too-chicago", "categories": [{"alias": "sportsbars", "title": "Sports Bars"}]}]}
{"total": 227, "businesses": [{"rating": 3.5, "review_count": 50, "name": "Restoration Hardware", "url": "https://www.yelp.com/biz/restoration-hardware-chicago-2?adjust_creative=_xGZBQTFH5RSnMk3I7VtQQ&utm_campaign=yelp_api_v3&utm_medium=api_v3_business_search&utm_source=_xGZBQTFH5RSnMk3I7VtQQ", "price": "$$$", "coordinates": {"latitude": 41.9059249, "longitude": -87.6302211}, "phone": "+13124759116", "image_url": "https://s3-media1.fl.yelpcdn.com/bphoto/xhElsbEfTxCQ0bj3w8iUOQ/o.jpg", "location": {"city": "Chicago", "country": "US", "address2": "", "address3": "", "state": "IL", "address1": "1300 N Dearborn Pkwy", "zip_code": "60610"}, "id": "restoration-hardware-chicago-2", "categories": [{"alias": "furniture", "title": "Furniture Stores"}]}]}
{"total": 227, "businesses": [{"rating": 5.0, "review_count": 5, "name": "Racquet Club of Chicago", "url": "https://www.yelp.com/biz/racquet-club-of-chicago-chicago?adjust_creative=_xGZBQTFH5RSnMk3I7VtQQ&utm_campaign=yelp_api_v3&utm_medium=api_v3_business_search&utm_source=_xGZBQTFH5RSnMk3I7VtQQ", "coordinates": {"latitude": 41.90759, "longitude": -87.62967}, "phone": "+13127873200", "image_url": "https://s3-media4.fl.yelpcdn.com/bphoto/UsW6oFFT9k74o32c2SnIIA/o.jpg", "location": {"city": "Chicago", "address1": "1365 N Dearborn St", "address2": "", "address3": "", "state": "IL", "country": "US", "zip_code": "60610"}, "id": "racquet-club-of-chicago-chicago", "categories": [{"alias": "tennis", "title": "Tennis"}]}]}
{"total": 227, "businesses": [{"rating": 4.0, "review_count": 32, "name": "Sprint Store", "url": "https://www.yelp.com/biz/sprint-store-chicago-19?adjust_creative=_xGZBQTFH5RSnMk3I7VtQQ&utm_campaign=yelp_api_v3&utm_medium=api_v3_business_search&utm_source=_xGZBQTFH5RSnMk3I7VtQQ", "price": "$$$", "coordinates": {"latitude": 41.9043047, "longitude": -87.6312906}, "phone": "+13123372294", "image_url": "https://s3-media4.fl.yelpcdn.com/bphoto/wAWn3uKHy8WeRcYsHILbjA/o.jpg", "location": {"city": "Chicago", "country": "US", "address2": "", "address3": "", "state": "IL", "address1": "1201 N Clark St", "zip_code": "60610"}, "id": "sprint-store-chicago-19", "categories": [{"alias": "mobilephones", "title": "Mobile Phones"}, {"alias": "electronics", "title": "Electronics"}]}]}
{"total": 227, "businesses": [{"rating": 4.5, "review_count": 40, "name": "City Pets", "url": "https://www.yelp.com/biz/city-pets-chicago?adjust_creative=_xGZBQTFH5RSnMk3I7VtQQ&utm_campaign=yelp_api_v3&utm_medium=api_v3_business_search&utm_source=_xGZBQTFH5RSnMk3I7VtQQ", "coordinates": {"latitude": 41.892004, "longitude": -87.616617}, "phone": "+13122651420", "image_url": "https://s3-media4.fl.yelpcdn.com/bphoto/YimfJgMEmQKCn4XaN69v7g/o.jpg", "location": {"city": "Chicago", "country": "US", "address2": "Ste A", "address3": "", "state": "IL", "address1": "432 E Grand Ave", "zip_code": "60611"}, "id": "city-pets-chicago", "categories": [{"alias": "groomer", "title": "Pet Groomers"}, {"alias": "dogwalkers", "title": "Dog Walkers"}, {"alias": "pet_sitting", "title": "Pet Boarding/Pet Sitting"}]}]}
{"total": 227, "businesses": [{"rating": 5.0, "review_count": 4, "name": "Irving J Leonard, DDS", "url": "https://www.yelp.com/biz/irving-j-leonard-dds-chicago?adjust_creative=_xGZBQTFH5RSnMk3I7VtQQ&utm_campaign=yelp_api_v3&utm_medium=api_v3_business_search&utm_source=_xGZBQTFH5RSnMk3I7VtQQ", "coordinates": {"latitude": 41.9070408, "longitude": -87.6322849}, "phone": "+13126646463", "image_url": "https://s3-media1.fl.yelpcdn.com/bphoto/ypnb5nCNOR87u_vfNmgYxA/o.jpg", "location": {"city": "Chicago", "country": "US", "address2": "", "address3": "", "state": "IL", "address1": "1360 N Sandburg Ter", "zip_code": "60610"}, "id": "irving-j-leonard-dds-chicago", "categories": [{"alias": "oralsurgeons", "title": "Oral Surgeons"}, {"alias": "cosmeticdentists", "title": "Cosmetic Dentists"}]}]}
{"total": 227, "businesses": [{"rating": 3.0, "review_count": 10, "name": "Chicago Hotdog Fest", "url": "https://www.yelp.com/biz/chicago-hotdog-fest-chicago-2?adjust_creative=_xGZBQTFH5RSnMk3I7VtQQ&utm_campaign=yelp_api_v3&utm_medium=api_v3_business_search&utm_source=_xGZBQTFH5RSnMk3I7VtQQ", "coordinates": {"latitude": 41.9113772, "longitude": -87.6315416}, "phone": "+13126424600", "image_url": "https://s3-media3.fl.yelpcdn.com/bphoto/nMl9UaDupsva8BqQA57e3Q/o.jpg", "location": {"city": "Chicago", "country": "US", "address2": "", "address3": "", "state": "IL", "address1": "1601 N Clark St", "zip_code": "60614"}, "id": "chicago-hotdog-fest-chicago-2", "categories": [{"alias": "festivals", "title": "Festivals"}, {"alias": "hotdog", "title": "Hot Dogs"}]}]}
{"total": 227, "businesses": [{"rating": 4.0, "review_count": 17, "name": "Sally Beauty Supply", "url": "https://www.yelp.com/biz/sally-beauty-supply-chicago-3?adjust_creative=_xGZBQTFH5RSnMk3I7VtQQ&utm_campaign=yelp_api_v3&utm_medium=api_v3_business_search&utm_source=_xGZBQTFH5RSnMk3I7VtQQ", "price": "$$", "coordinates": {"latitude": 41.8954499, "longitude": -87.6278899}, "phone": "+13125732405", "image_url": "https://s3-media2.fl.yelpcdn.com/bphoto/U-CfUJ7azEZqBWTDOpPyFw/o.jpg", "location": {"city": "Chicago", "country": "US", "address2": "", "address3": "", "state": "IL", "address1": "715 N State St", "zip_code": "60610"}, "id": "sally-beauty-supply-chicago-3", "categories": [{"alias": "cosmetics", "title": "Cosmetics & Beauty Supply"}]}]}
{"total": 227, "businesses": [{"rating": 5.0, "review_count": 8, "name": "Krav Academy", "url": "https://www.yelp.com/biz/krav-academy-chicago?adjust_creative=_xGZBQTFH5RSnMk3I7VtQQ&utm_campaign=yelp_api_v3&utm_medium=api_v3_business_search&utm_source=_xGZBQTFH5RSnMk3I7VtQQ", "coordinates": {"latitude": 41.9047241, "longitude": -87.6327515}, "phone": "+13124740210", "image_url": "", "location": {"city": "Chicago", "country": "US", "address2": null, "address3": "", "state": "IL", "address1": "1235 N Lasalle", "zip_code": "60610"}, "id": "krav-academy-chicago", "categories": [{"alias": "martialarts", "title": "Martial Arts"}]}]}
{"total": 227, "businesses": [{"rating": 2.5, "review_count": 50, "name": "Bootleggers", "url": "https://www.yelp.com/biz/bootleggers-chicago?adjust_creative=_xGZBQTFH5RSnMk3I7VtQQ&utm_campaign=yelp_api_v3&utm_medium=api_v3_business_search&utm_source=_xGZBQTFH5RSnMk3I7VtQQ", "price": "$$", "coordinates": {"latitude": 41.9038767, "longitude": -87.6292547}, "phone": "+13122660944", "image_url": "https://s3-media2.fl.yelpcdn.com/bphoto/yD4cM68XaEYOfC4dopYqbQ/o.jpg", "location": {"city": "Chicago", "address1": "13 W Division St", "address2": "", "address3": "", "state": "IL", "country": "US", "zip_code": "60610"}, "id": "bootleggers-chicago", "categories": [{"alias": "comedyclubs", "title": "Comedy Clubs"}, {"alias": "cocktailbars", "title": "Cocktail Bars"}]}]}
{"total": 227, "businesses": [{"rating": 5.0, "review_count": 96, "name": "Jet City Device Repair", "url": "https://www.yelp.com/biz/jet-city-device-repair-chicago-7?adjust_creative=_xGZBQTFH5RSnMk3I7VtQQ&utm_campaign=yelp_api_v3&utm_medium=api_v3_business_search&utm_source=_xGZBQTFH5RSnMk3I7VtQQ", "coordinates": {"latitude": 41.8862532, "longitude": -87.6339617}, "phone": "+17737704760", "image_url": "https://s3-media4.fl.yelpcdn.com/bphoto/cCVHqUFZqoB-2SPcb-ZCXg/o.jpg", "location": {"city": "Chicago", "country": "US", "address2": "", "address3": "", "state": "IL", "address1": "216 N Wells St", "zip_code": "60606"}, "id": "jet-city-device-repair-chicago-7", "categories": [{"alias": "mobilephonerepair", "title": "Mobile Phone Repair"}]}]}
{"total": 227, "businesses": [{"rating": 3.5, "review_count": 45, "name": "Chicago Air and Water Show", "url": "https://www.yelp.com/biz/chicago-air-and-water-show-chicago-4?adjust_creative=_xGZBQTFH5RSnMk3I7VtQQ&utm_campaign=yelp_api_v3&utm_medium=api_v3_business_search&utm_source=_xGZBQTFH5RSnMk3I7VtQQ", "coordinates": {"latitude": 41.910603, "longitude": -87.6263895}, "phone": "", "image_url": "https://s3-media4.fl.yelpcdn.com/bphoto/1Venv_1eqZmDTkS7wm52BQ/o.jpg", "location": {"city": "Chicago", "country": "US", "address2": "North Avenue Beach", "address3": "", "state": "IL", "address1": "1600 N Lake Shore Dr", "zip_code": "60610"}, "id": "chicago-air-and-water-show-chicago-4", "categories": [{"alias": "venues", "title": "Venues & Event Spaces"}]}]}
{"total": 227, "businesses": [{"rating": 3.5, "review_count": 4, "name": "Chicago Historical Society", "url": "https://www.yelp.com/biz/chicago-historical-society-chicago?adjust_creative=_xGZBQTFH5RSnMk3I7VtQQ&utm_campaign=yelp_api_v3&utm_medium=api_v3_business_search&utm_source=_xGZBQTFH5RSnMk3I7VtQQ", "coordinates": {"latitude": 41.9113772, "longitude": -87.6315416}, "phone": "+13126424600", "image_url": "https://s3-media2.fl.yelpcdn.com/bphoto/yq20170ojWNvw7bBLq6x6g/o.jpg", "location": {"city": "Chicago", "country": "US", "address2": "", "address3": "", "state": "IL", "address1": "1601 N Clark St", "zip_code": "60614"}, "id": "chicago-historical-society-chicago", "categories": [{"alias": "landmarks", "title": "Landmarks & Historical Buildings"}, {"alias": "museums", "title": "Museums"}]}]}
{"total": 230, "businesses": [{"rating": 4.0, "review_count": 11, "name": "1350 Commissary & Market", "url": "https://www.yelp.com/biz/1350-commissary-and-market-chicago?adjust_creative=_xGZBQTFH5RSnMk3I7VtQQ&utm_campaign=yelp_api_v3&utm_medium=api_v3_business_search&utm_source=_xGZBQTFH5RSnMk3I7VtQQ", "price": "$$", "coordinates": {"latitude": 41.90735, "longitude": -87.62638}, "phone": "+13127872887", "image_url": "https://s3-media4.fl.yelpcdn.com/bphoto/S_zwXadK_VxBQ71w0XTHEQ/o.jpg", "location": {"city": "Chicago", "address1": "1350 N Lake Shore Dr", "address2": "", "address3": "", "state": "IL", "country": "US", "zip_code": "60610"}, "id": "1350-commissary-and-market-chicago", "categories": [{"alias": "grocery", "title": "Grocery"}]}]}
{"total": 227, "businesses": [{"rating": 3.0, "review_count": 36, "name": "Potash Bros Supermart", "url": "https://www.yelp.com/biz/potash-bros-supermart-chicago?adjust_creative=_xGZBQTFH5RSnMk3I7VtQQ&utm_campaign=yelp_api_v3&utm_medium=api_v3_business_search&utm_source=_xGZBQTFH5RSnMk3I7VtQQ", "price": "$$", "coordinates": {"latitude": 41.9099071, "longitude": -87.6314485}, "phone": "+13123377537", "image_url": "https://s3-media3.fl.yelpcdn.com/bphoto/Q3w_H3aS9-D81f9Rr-LflQ/o.jpg", "location": {"city": "Chicago", "address1": "1525 N Clark St", "address2": "", "address3": "", "state": "IL", "country": "US", "zip_code": "60610"}, "id": "potash-bros-supermart-chicago", "categories": [{"alias": "grocery", "title": "Grocery"}, {"alias": "beer_and_wine", "title": "Beer, Wine & Spirits"}]}]}
{"total": 227, "businesses": [{"rating": 4.5, "review_count": 6, "name": "Chipotle Cultivate Festival", "url": "https://www.yelp.com/biz/chipotle-cultivate-festival-chicago?adjust_creative=_xGZBQTFH5RSnMk3I7VtQQ&utm_campaign=yelp_api_v3&utm_medium=api_v3_business_search&utm_source=_xGZBQTFH5RSnMk3I7VtQQ", "coordinates": {"latitude": 41.9154696911573, "longitude": -87.6329190284014}, "image_url": "https://s3-media4.fl.yelpcdn.com/bphoto/Ch7nw14xxtahvBfcz_b0fA/o.jpg", "location": {"city": "Chicago", "country": "US", "address2": "", "address3": "", "state": "IL", "address1": "1746 N Stockton Dr", "zip_code": "60614"}, "id": "chipotle-cultivate-festival-chicago", "categories": [{"alias": "festivals", "title": "Festivals"}]}]}
{"total": 227, "businesses": [{"rating": 4.5, "review_count": 14, "name": "Imperial Cleaners", "url": "https://www.yelp.com/biz/imperial-cleaners-chicago?adjust_creative=_xGZBQTFH5RSnMk3I7VtQQ&utm_campaign=yelp_api_v3&utm_medium=api_v3_business_search&utm_source=_xGZBQTFH5RSnMk3I7VtQQ", "price": "$$", "coordinates": {"latitude": 41.9046516418457, "longitude": -87.6296157836914}, "phone": "+13124828109", "image_url": "https://s3-media2.fl.yelpcdn.com/bphoto/2dupa3Lo1bxe4SRR0m3iGQ/o.jpg", "location": {"city": "Chicago", "country": "US", "address2": "", "address3": "", "state": "IL", "address1": "1221 N Dearborn St", "zip_code": "60610"}, "id": "imperial-cleaners-chicago", "categories": [{"alias": "drycleaninglaundry", "title": "Dry Cleaning & Laundry"}, {"alias": "sewingalterations", "title": "Sewing & Alterations"}]}]}
{"total": 227, "businesses": [{"rating": 5.0, "review_count": 6, "name": "Chicago Bootcamp", "url": "https://www.yelp.com/biz/chicago-bootcamp-chicago?adjust_creative=_xGZBQTFH5RSnMk3I7VtQQ&utm_campaign=yelp_api_v3&utm_medium=api_v3_business_search&utm_source=_xGZBQTFH5RSnMk3I7VtQQ", "coordinates": {"latitude": 41.9160118, "longitude": -87.6288528}, "phone": "+13125158838", "image_url": "https://s3-media3.fl.yelpcdn.com/bphoto/-4FFwFH8KLJtzYt1eJwRKQ/o.jpg", "location": {"city": "Chicago", "address1": "North Ave Beach", "address2": "1770 N Cannon Dr", "address3": "", "state": "IL", "country": "US", "zip_code": "60614"}, "id": "chicago-bootcamp-chicago", "categories": [{"alias": "amateursportsteams", "title": "Amateur Sports Teams"}, {"alias": "bootcamps", "title": "Boot Camps"}]}]}
{"total": 227, "businesses": [{"rating": 4.0, "review_count": 9, "name": "Prime Time Limo Chicago, LLC.", "url": "https://www.yelp.com/biz/prime-time-limo-chicago-llc-chicago?adjust_creative=_xGZBQTFH5RSnMk3I7VtQQ&utm_campaign=yelp_api_v3&utm_medium=api_v3_business_search&utm_source=_xGZBQTFH5RSnMk3I7VtQQ", "coordinates": {"latitude": 41.904551, "longitude": -87.62832}, "phone": "+16303591668", "image_url": "https://s3-media1.fl.yelpcdn.com/bphoto/8FssGXPg0nCxnMJZfROviA/o.jpg", "location": {"city": "Chicago", "country": "US", "address2": "", "address3": "", "state": "IL", "address1": "1 E Scott St", "zip_code": "60610"}, "id": "prime-time-limo-chicago-llc-chicago", "categories": [{"alias": "limos", "title": "Limos"}, {"alias": "partybusrentals", "title": "Party Bus Rentals"}]}]}
{"total": 227, "businesses": [{"rating": 5.0, "review_count": 5, "name": "Jordan Design", "url": "https://www.yelp.com/biz/jordan-design-chicago?adjust_creative=_xGZBQTFH5RSnMk3I7VtQQ&utm_campaign=yelp_api_v3&utm_medium=api_v3_business_search&utm_source=_xGZBQTFH5RSnMk3I7VtQQ", "coordinates": {"latitude": 41.9090043, "longitude": -87.6265518}, "phone": "+13123971140", "image_url": "https://s3-media2.fl.yelpcdn.com/bphoto/XC6FYJSUjaAKCe8mw5UpDg/o.jpg", "location": {"city": "Chicago", "country": "US", "address2": "", "address3": "", "state": "IL", "address1": "1440 N Lake Shore Dr", "zip_code": "60610"}, "id": "jordan-design-chicago", "categories": [{"alias": "homestaging", "title": "Home Staging"}, {"alias": "interiordesign", "title": "Interior Design"}]}]}
{"total": 230, "businesses": [{"rating": 5.0, "review_count": 3, "name": "ThatChicago Photo Lessons", "url": "https://www.yelp.com/biz/thatchicago-photo-lessons-chicago?adjust_creative=_xGZBQTFH5RSnMk3I7VtQQ&utm_campaign=yelp_api_v3&utm_medium=api_v3_business_search&utm_source=_xGZBQTFH5RSnMk3I7VtQQ", "coordinates": {"latitude": 41.9095611572266, "longitude": -87.6305770874023}, "phone": "+14343220488", "image_url": "https://s3-media3.fl.yelpcdn.com/bphoto/S-ErvvABuabwn70aEtVSmA/o.jpg", "location": {"city": "Chicago", "country": "US", "address2": null, "address3": "", "state": "IL", "address1": "1500 N Dearborn Pkwy", "zip_code": "60610"}, "id": "thatchicago-photo-lessons-chicago", "categories": [{"alias": "videographers", "title": "Videographers"}, {"alias": "eventphotography", "title": "Event Photography"}, {"alias": "specialtyschools", "title": "Specialty Schools"}]}]}
{"total": 227, "businesses": [{"rating": 4.0, "review_count": 6, "name": "Graham Foundation For Advanced Studies In the Fine Arts", "url": "https://www.yelp.com/biz/graham-foundation-for-advanced-studies-in-the-fine-arts-chicago?adjust_creative=_xGZBQTFH5RSnMk3I7VtQQ&utm_campaign=yelp_api_v3&utm_medium=api_v3_business_search&utm_source=_xGZBQTFH5RSnMk3I7VtQQ", "coordinates": {"latitude": 41.9096488952637, "longitude": -87.6292190551758}, "phone": "+13127874071", "image_url": "https://s3-media3.fl.yelpcdn.com/bphoto/Bg7pqV_xGXrFfqZkm78Xow/o.jpg", "location": {"city": "Chicago", "address1": "4 W Burton Pl", "address2": "", "address3": "", "state": "IL", "country": "US", "zip_code": "60610"}, "id": "graham-foundation-for-advanced-studies-in-the-fine-arts-chicago", "categories": [{"alias": "museums", "title": "Museums"}]}]}
{"total": 227, "businesses": [{"rating": 3.5, "review_count": 4, "name": "Charnley-Persky House", "url": "https://www.yelp.com/biz/charnley-persky-house-chicago?adjust_creative=_xGZBQTFH5RSnMk3I7VtQQ&utm_campaign=yelp_api_v3&utm_medium=api_v3_business_search&utm_source=_xGZBQTFH5RSnMk3I7VtQQ", "coordinates": {"latitude": 41.9076608, "longitude": -87.6276039}, "phone": "+13125731365", "image_url": "https://s3-media1.fl.yelpcdn.com/bphoto/Syk343PinWD5UuoJGmTROQ/o.jpg", "location": {"city": "Chicago", "country": "US", "address2": "", "address3": "", "state": "IL", "address1": "1365 N Astor St", "zip_code": "60610"}, "id": "charnley-persky-house-chicago", "categories": [{"alias": "tours", "title": "Tours"}, {"alias": "museums", "title": "Museums"}, {"alias": "landmarks", "title": "Landmarks & Historical Buildings"}]}]}
{"total": 227, "businesses": [{"rating": 5.0, "review_count": 3, "name": "Visage Joli", "url": "https://www.yelp.com/biz/visage-joli-chicago?adjust_creative=_xGZBQTFH5RSnMk3I7VtQQ&utm_campaign=yelp_api_v3&utm_medium=api_v3_business_search&utm_source=_xGZBQTFH5RSnMk3I7VtQQ", "price": "$$", "coordinates": {"latitude": 41.90564006567, "longitude": -87.6320493221283}, "phone": "+13123204714", "image_url": "https://s3-media1.fl.yelpcdn.com/bphoto/NEhnIUsW02HWRgHU45cjlw/o.jpg", "location": {"city": "Chicago", "address1": "1255 N Sandburg Ter", "address2": "Ste 2704", "address3": "", "state": "IL", "country": "US", "zip_code": "60610"}, "id": "visage-joli-chicago", "categories": [{"alias": "makeupartists", "title": "Makeup Artists"}]}]}
{"total": 227, "businesses": [{"rating": 3.0, "review_count": 107, "name": "CTA - Clark/Division", "url": "https://www.yelp.com/biz/cta-clark-division-chicago?adjust_creative=_xGZBQTFH5RSnMk3I7VtQQ&utm_campaign=yelp_api_v3&utm_medium=api_v3_business_search&utm_source=_xGZBQTFH5RSnMk3I7VtQQ", "coordinates": {"latitude": 41.9040562212467, "longitude": -87.6315336674452}, "image_url": "https://s3-media4.fl.yelpcdn.com/bphoto/vrQlOC084AHJIa8Y5K8hPw/o.jpg", "location": {"city": "Chicago", "country": "US", "address2": null, "address3": "", "state": "IL", "address1": "1200 N Clark St", "zip_code": "60610"}, "id": "cta-clark-division-chicago", "categories": [{"alias": "publictransport", "title": "Public Transportation"}]}]}
{"total": 227, "businesses": [{"rating": 3.5, "review_count": 20, "name": "Walgreens", "url": "https://www.yelp.com/biz/walgreens-chicago-146?adjust_creative=_xGZBQTFH5RSnMk3I7VtQQ&utm_campaign=yelp_api_v3&utm_medium=api_v3_business_search&utm_source=_xGZBQTFH5RSnMk3I7VtQQ", "price": "$$", "coordinates": {"latitude": 41.9040669387173, "longitude": -87.6301923862971}, "phone": "+13129430973", "image_url": "https://s3-media4.fl.yelpcdn.com/bphoto/3RQ55hVqqh4IxyNUPudyhA/o.jpg", "location": {"city": "Chicago", "country": "US", "address2": "", "address3": "", "state": "IL", "address1": "1200 N Dearborn St", "zip_code": "60610"}, "id": "walgreens-chicago-146", "categories": [{"alias": "drugstores", "title": "Drugstores"}, {"alias": "cosmetics", "title": "Cosmetics & Beauty Supply"}, {"alias": "convenience", "title": "Convenience Stores"}]}]}
{"total": 227, "businesses": [{"rating": 2.5, "review_count": 37, "name": "Gordon J Siegel, MD, FACS - Midwest ENT", "url": "https://www.yelp.com/biz/gordon-j-siegel-md-facs-midwest-ent-chicago?adjust_creative=_xGZBQTFH5RSnMk3I7VtQQ&utm_campaign=yelp_api_v3&utm_medium=api_v3_business_search&utm_source=_xGZBQTFH5RSnMk3I7VtQQ", "price": "$$", "coordinates": {"latitude": 41.907898, "longitude": -87.623634}, "phone": "+13129887777", "image_url": "https://s3-media2.fl.yelpcdn.com/bphoto/cGpJsFTJmnrSfdMdXChL0Q/o.jpg", "location": {"city": "Chicago", "country": "US", "address2": "Fl 1", "address3": "", "state": "IL", "address1": "3 E Huron St", "zip_code": "60611"}, "id": "gordon-j-siegel-md-facs-midwest-ent-chicago", "categories": [{"alias": "earnosethroat", "title": "Ear Nose & Throat"}]}]}
{"total": 227, "businesses": [{"rating": 4.5, "review_count": 6, "name": "Frank Polancic", "url": "https://www.yelp.com/biz/frank-polancic-chicago?adjust_creative=_xGZBQTFH5RSnMk3I7VtQQ&utm_campaign=yelp_api_v3&utm_medium=api_v3_business_search&utm_source=_xGZBQTFH5RSnMk3I7VtQQ", "coordinates": {"latitude": 41.904213, "longitude": -87.6298141}, "phone": "+13124751717", "image_url": "https://s3-media4.fl.yelpcdn.com/bphoto/U6aIUrEMk54JyMMpAdK7UQ/o.jpg", "location": {"city": "Chicago", "country": "US", "address2": "", "address3": "", "state": "IL", "address1": "1205 N  Dearborn", "zip_code": "60610"}, "id": "frank-polancic-chicago", "categories": [{"alias": "realestateagents", "title": "Real Estate Agents"}]}]}
{"total": 227, "businesses": [{"rating": 4.5, "review_count": 9, "name": "Crave Cuisine", "url": "https://www.yelp.com/biz/crave-cuisine-chicago?adjust_creative=_xGZBQTFH5RSnMk3I7VtQQ&utm_campaign=yelp_api_v3&utm_medium=api_v3_business_search&utm_source=_xGZBQTFH5RSnMk3I7VtQQ", "price": "$$", "coordinates": {"latitude": 41.9071481160195, "longitude": -87.6301087379456}, "phone": "+13129252395", "image_url": "https://s3-media2.fl.yelpcdn.com/bphoto/Fj27qCbZyeDWGZv96cVDRg/o.jpg", "location": {"city": "Chicago", "country": "US", "address2": "3109 N Broadway St", "address3": "", "state": "IL", "address1": "Lakeview Kitchen Market", "zip_code": "60657"}, "id": "crave-cuisine-chicago", "categories": [{"alias": "personalchefs", "title": "Personal Chefs"}, {"alias": "catering", "title": "Caterers"}, {"alias": "cookingclasses", "title": "Cooking Classes"}]}]}
{"total": 227, "businesses": [{"rating": 5.0, "review_count": 14, "name": "Get Pet", "url": "https://www.yelp.com/biz/get-pet-chicago-2?adjust_creative=_xGZBQTFH5RSnMk3I7VtQQ&utm_campaign=yelp_api_v3&utm_medium=api_v3_business_search&utm_source=_xGZBQTFH5RSnMk3I7VtQQ", "coordinates": {"latitude": 41.8944091796875, "longitude": -87.6181716918945}, "phone": "+13125464185", "image_url": "https://s3-media4.fl.yelpcdn.com/bphoto/mhd9DN1irlPQbcXe-jEnlw/o.jpg", "location": {"city": "Chicago", "country": "US", "address2": "", "address3": "", "state": "IL", "address1": "", "zip_code": "60611"}, "id": "get-pet-chicago-2", "categories": [{"alias": "dogwalkers", "title": "Dog Walkers"}, {"alias": "pet_sitting", "title": "Pet Boarding/Pet Sitting"}]}]}
{"total": 227, "businesses": [{"rating": 5.0, "review_count": 6, "name": "Pets of Chicago", "url": "https://www.yelp.com/biz/pets-of-chicago-chicago?adjust_creative=_xGZBQTFH5RSnMk3I7VtQQ&utm_campaign=yelp_api_v3&utm_medium=api_v3_business_search&utm_source=_xGZBQTFH5RSnMk3I7VtQQ", "coordinates": {"latitude": 41.9023302197456, "longitude": -87.6329404860735}, "phone": "+14802026966", "image_url": "https://s3-media1.fl.yelpcdn.com/bphoto/5lF6nQGAuMfdmzYfTtQMlQ/o.jpg", "location": {"city": "Chicago", "country": "US", "address2": null, "address3": "", "state": "IL", "address1": "1120 N  La Salle", "zip_code": "60610"}, "id": "pets-of-chicago-chicago", "categories": [{"alias": "dogwalkers", "title": "Dog Walkers"}, {"alias": "pet_sitting", "title": "Pet Boarding/Pet Sitting"}]}]}
{"total": 227, "businesses": [{"rating": 3.0, "review_count": 11, "name": "Jet Ski Chicago", "url": "https://www.yelp.com/biz/jet-ski-chicago-chicago-2?adjust_creative=_xGZBQTFH5RSnMk3I7VtQQ&utm_campaign=yelp_api_v3&utm_medium=api_v3_business_search&utm_source=_xGZBQTFH5RSnMk3I7VtQQ", "coordinates": {"latitude": 41.910603, "longitude": -87.6263895}, "phone": "+13126008679", "image_url": "https://s3-media4.fl.yelpcdn.com/bphoto/HpbN7cre6BPXe5gwvBihWg/o.jpg", "location": {"city": "Chicago", "country": "US", "address2": "", "address3": "", "state": "IL", "address1": "1600 N Lake Shore Dr", "zip_code": "60613"}, "id": "jet-ski-chicago-chicago-2", "categories": [{"alias": "jetskis", "title": "Jet Skis"}]}]}
{"total": 227, "businesses": [{"rating": 5.0, "review_count": 1, "name": "Lincoln Park South Lagoon", "url": "https://www.yelp.com/biz/lincoln-park-south-lagoon-chicago?adjust_creative=_xGZBQTFH5RSnMk3I7VtQQ&utm_campaign=yelp_api_v3&utm_medium=api_v3_business_search&utm_source=_xGZBQTFH5RSnMk3I7VtQQ", "coordinates": {"latitude": 41.922772046001, "longitude": -87.6315343379974}, "image_url": "https://s3-media1.fl.yelpcdn.com/bphoto/tMiMafFsoJ2UdCvJS5NZhw/o.jpg", "location": {"city": "Chicago", "country": "US", "address2": "", "address3": "", "state": "IL", "address1": "2204 N Cannon Dr", "zip_code": "60614"}, "id": "lincoln-park-south-lagoon-chicago", "categories": [{"alias": "parks", "title": "Parks"}]}]}
{"total": 227, "businesses": [{"rating": 4.0, "review_count": 5, "name": "CorePower Yoga", "url": "https://www.yelp.com/biz/corepower-yoga-chicago-18?adjust_creative=_xGZBQTFH5RSnMk3I7VtQQ&utm_campaign=yelp_api_v3&utm_medium=api_v3_business_search&utm_source=_xGZBQTFH5RSnMk3I7VtQQ", "coordinates": {"latitude": 41.9105712107116, "longitude": -87.6322233990322}, "phone": "+13124706606", "image_url": "https://s3-media2.fl.yelpcdn.com/bphoto/QPG5g8vv1djtlpUvnjXfEQ/o.jpg", "location": {"city": "Chicago", "country": "US", "address2": "", "address3": "", "state": "IL", "address1": "108 W Germania Pl", "zip_code": "60610"}, "id": "corepower-yoga-chicago-18", "categories": [{"alias": "yoga", "title": "Yoga"}]}]}
{"total": 227, "businesses": [{"rating": 3.0, "review_count": 47, "name": "FedEx Office Print & Ship Center", "url": "https://www.yelp.com/biz/fedex-office-print-and-ship-center-chicago-21?adjust_creative=_xGZBQTFH5RSnMk3I7VtQQ&utm_campaign=yelp_api_v3&utm_medium=api_v3_business_search&utm_source=_xGZBQTFH5RSnMk3I7VtQQ", "coordinates": {"latitude": 41.90407, "longitude": -87.629766}, "phone": "+13126406100", "image_url": "https://s3-media4.fl.yelpcdn.com/bphoto/4OmkESODsL3jAmvet9GHnw/o.jpg", "location": {"city": "Chicago", "country": "US", "address2": "", "address3": "", "state": "IL", "address1": "1201 N Dearborn St", "zip_code": "60610"}, "id": "fedex-office-print-and-ship-center-chicago-21", "categories": [{"alias": "shipping_centers", "title": "Shipping Centers"}, {"alias": "copyshops", "title": "Printing Services"}, {"alias": "signmaking", "title": "Signmaking"}]}]}
{"total": 227, "businesses": [{"rating": 3.0, "review_count": 21, "name": "1400 N Lake Shore Drive Condos", "url": "https://www.yelp.com/biz/1400-n-lake-shore-drive-condos-chicago?adjust_creative=_xGZBQTFH5RSnMk3I7VtQQ&utm_campaign=yelp_api_v3&utm_medium=api_v3_business_search&utm_source=_xGZBQTFH5RSnMk3I7VtQQ", "coordinates": {"latitude": 41.908234, "longitude": -87.62588}, "phone": "+13122551400", "image_url": "https://s3-media1.fl.yelpcdn.com/bphoto/4_RnG2F1E9slyzXtbF2iVA/o.jpg", "location": {"city": "Chicago", "country": "US", "address2": null, "address3": "", "state": "IL", "address1": "1400 N Lake Shore Dr", "zip_code": "60610"}, "id": "1400-n-lake-shore-drive-condos-chicago", "categories": [{"alias": "apartments", "title": "Apartments"}]}]}
{"total": 227, "businesses": [{"rating": 3.0, "review_count": 8, "name": "Dunkin' Donuts", "url": "https://www.yelp.com/biz/dunkin-donuts-chicago-218?adjust_creative=_xGZBQTFH5RSnMk3I7VtQQ&utm_campaign=yelp_api_v3&utm_medium=api_v3_business_search&utm_source=_xGZBQTFH5RSnMk3I7VtQQ", "price": "$", "coordinates": {"latitude": 41.904129, "longitude": -87.63105}, "phone": "+13122919270", "image_url": "https://s3-media4.fl.yelpcdn.com/bphoto/o8KCuZ_TUEA1_cLEYINZKA/o.jpg", "location": {"city": "Chicago", "country": "US", "address2": "", "address3": "", "state": "IL", "address1": "1201 North Clark St", "zip_code": "60610"}, "id": "dunkin-donuts-chicago-218", "categories": [{"alias": "coffee", "title": "Coffee & Tea"}, {"alias": "donuts", "title": "Donuts"}]}]}
{"total": 227, "businesses": [{"rating": 5.0, "review_count": 14, "name": "Xecutive Limo", "url": "https://www.yelp.com/biz/xecutive-limo-chicago?adjust_creative=_xGZBQTFH5RSnMk3I7VtQQ&utm_campaign=yelp_api_v3&utm_medium=api_v3_business_search&utm_source=_xGZBQTFH5RSnMk3I7VtQQ", "coordinates": {"latitude": 41.8926086425781, "longitude": -87.6377716064453}, "phone": "+13124515860", "image_url": "https://s3-media2.fl.yelpcdn.com/bphoto/MQJhQRQlUbWEAxwHtcSLzw/o.jpg", "location": {"city": "Chicago", "country": "US", "address2": "", "address3": "", "state": "IL", "address1": "", "zip_code": "60654"}, "id": "xecutive-limo-chicago", "categories": [{"alias": "limos", "title": "Limos"}, {"alias": "airport_shuttles", "title": "Airport Shuttles"}]}]}
{"total": 227, "businesses": [{"rating": 5.0, "review_count": 4, "name": "Mind + Body Centered", "url": "https://www.yelp.com/biz/mind-body-centered-chicago?adjust_creative=_xGZBQTFH5RSnMk3I7VtQQ&utm_campaign=yelp_api_v3&utm_medium=api_v3_business_search&utm_source=_xGZBQTFH5RSnMk3I7VtQQ", "coordinates": {"latitude": 41.9117125868797, "longitude": -87.6318810135126}, "phone": "+17732703778", "image_url": "https://s3-media3.fl.yelpcdn.com/bphoto/cBzUqEn8PC9z8gSsxrGzLA/o.jpg", "location": {"city": "Chicago", "address1": "1165 N Clark St", "address2": "Ste 202", "address3": "", "state": "IL", "country": "US", "zip_code": "60614"}, "id": "mind-body-centered-chicago", "categories": [{"alias": "c_and_mh", "title": "Counseling & Mental Health"}]}]}
{"total": 227, "businesses": [{"rating": 2.5, "review_count": 148, "name": "The Original Mother's", "url": "https://www.yelp.com/biz/the-original-mothers-chicago-2?adjust_creative=_xGZBQTFH5RSnMk3I7VtQQ&utm_campaign=yelp_api_v3&utm_medium=api_v3_business_search&utm_source=_xGZBQTFH5RSnMk3I7VtQQ", "price": "$$", "coordinates": {"latitude": 41.9040752, "longitude": -87.6292366}, "phone": "+13126427251", "image_url": "https://s3-media3.fl.yelpcdn.com/bphoto/suv2yi2nZ2Ci1THfzctq7Q/o.jpg", "location": {"city": "Chicago", "country": "US", "address2": "", "address3": "", "state": "IL", "address1": "26 W Division St", "zip_code": "60610"}, "id": "the-original-mothers-chicago-2", "categories": [{"alias": "danceclubs", "title": "Dance Clubs"}, {"alias": "musicvenues", "title": "Music Venues"}, {"alias": "karaoke", "title": "Karaoke"}]}]}
{"total": 227, "businesses": [{"rating": 5.0, "review_count": 2, "name": "Lincoln Park Preschool & Kindergarten", "url": "https://www.yelp.com/biz/lincoln-park-preschool-and-kindergarten-chicago-4?adjust_creative=_xGZBQTFH5RSnMk3I7VtQQ&utm_campaign=yelp_api_v3&utm_medium=api_v3_business_search&utm_source=_xGZBQTFH5RSnMk3I7VtQQ", "coordinates": {"latitude": 41.9106102, "longitude": -87.6320572}, "phone": "+13124829009", "image_url": "https://s3-media4.fl.yelpcdn.com/bphoto/GnbKXY0bdvb-QQgOmm5T6Q/o.jpg", "location": {"city": "Chicago", "country": "US", "address2": "", "address3": "", "state": "IL", "address1": "108 W Germania Pl", "zip_code": "60610"}, "id": "lincoln-park-preschool-and-kindergarten-chicago-4", "categories": [{"alias": "preschools", "title": "Preschools"}]}]}
{"total": 230, "businesses": [{"rating": 5.0, "review_count": 2, "name": "Lincoln Park Preschool & Kindergarten", "url": "https://www.yelp.com/biz/lincoln-park-preschool-and-kindergarten-chicago-4?adjust_creative=_xGZBQTFH5RSnMk3I7VtQQ&utm_campaign=yelp_api_v3&utm_medium=api_v3_business_search&utm_source=_xGZBQTFH5RSnMk3I7VtQQ", "coordinates": {"latitude": 41.9106102, "longitude": -87.6320572}, "phone": "+13124829009", "image_url": "https://s3-media4.fl.yelpcdn.com/bphoto/GnbKXY0bdvb-QQgOmm5T6Q/o.jpg", "location": {"city": "Chicago", "country": "US", "address2": "", "address3": "", "state": "IL", "address1": "108 W Germania Pl", "zip_code": "60610"}, "id": "lincoln-park-preschool-and-kindergarten-chicago-4", "categories": [{"alias": "preschools", "title": "Preschools"}]}]}
{"total": 227, "businesses": [{"rating": 4.0, "review_count": 9, "name": "CVS Pharmacy", "url": "https://www.yelp.com/biz/cvs-pharmacy-chicago-65?adjust_creative=_xGZBQTFH5RSnMk3I7VtQQ&utm_campaign=yelp_api_v3&utm_medium=api_v3_business_search&utm_source=_xGZBQTFH5RSnMk3I7VtQQ", "price": "$$", "coordinates": {"latitude": 41.904081077357, "longitude": -87.6285129188576}, "phone": "+13126402842", "image_url": "https://s3-media2.fl.yelpcdn.com/bphoto/lsm18NfGcnfo8o7-rdKLsQ/o.jpg", "location": {"city": "Chicago", "country": "US", "address2": "", "address3": "", "state": "IL", "address1": "1201 N State St", "zip_code": "60611"}, "id": "cvs-pharmacy-chicago-65", "categories": [{"alias": "drugstores", "title": "Drugstores"}]}]}
{"total": 230, "businesses": [{"rating": 4.0, "review_count": 9, "name": "CVS Pharmacy", "url": "https://www.yelp.com/biz/cvs-pharmacy-chicago-65?adjust_creative=_xGZBQTFH5RSnMk3I7VtQQ&utm_campaign=yelp_api_v3&utm_medium=api_v3_business_search&utm_source=_xGZBQTFH5RSnMk3I7VtQQ", "price": "$$", "coordinates": {"latitude": 41.904081077357, "longitude": -87.6285129188576}, "phone": "+13126402842", "image_url": "https://s3-media2.fl.yelpcdn.com/bphoto/lsm18NfGcnfo8o7-rdKLsQ/o.jpg", "location": {"city": "Chicago", "country": "US", "address2": "", "address3": "", "state": "IL", "address1": "1201 N State St", "zip_code": "60611"}, "id": "cvs-pharmacy-chicago-65", "categories": [{"alias": "drugstores", "title": "Drugstores"}]}]}
{"total": 227, "businesses": [{"rating": 3.0, "review_count": 20, "name": "United Run for the Zoo", "url": "https://www.yelp.com/biz/united-run-for-the-zoo-chicago?adjust_creative=_xGZBQTFH5RSnMk3I7VtQQ&utm_campaign=yelp_api_v3&utm_medium=api_v3_business_search&utm_source=_xGZBQTFH5RSnMk3I7VtQQ", "coordinates": {"latitude": 41.9199080765247, "longitude": -87.6313110440969}, "phone": "", "image_url": "https://s3-media4.fl.yelpcdn.com/bphoto/0zCSPNyElITY4WQqv7uxjA/o.jpg", "location": {"city": "Chicago", "country": "US", "address2": "2200 N Cannon Dr", "address3": "", "state": "IL", "address1": "Lincoln Park Zoo", "zip_code": "60614"}, "id": "united-run-for-the-zoo-chicago", "categories": [{"alias": "races", "title": "Races & Competitions"}]}]}
{"total": 227, "businesses": [{"rating": 3.0, "review_count": 18, "name": "1350 Lake Shore Drive", "url": "https://www.yelp.com/biz/1350-60-north-lake-shore-drive-chicago-4?adjust_creative=_xGZBQTFH5RSnMk3I7VtQQ&utm_campaign=yelp_api_v3&utm_medium=api_v3_business_search&utm_source=_xGZBQTFH5RSnMk3I7VtQQ", "coordinates": {"latitude": 41.9071021, "longitude": -87.6262625}, "phone": "+13123370932", "image_url": "https://s3-media2.fl.yelpcdn.com/bphoto/sS0xRH6Ty968xXQATKKVow/o.jpg", "location": {"city": "Chicago", "country": "US", "address2": "", "address3": "", "state": "IL", "address1": "1350 North Lake Shore Dr", "zip_code": "60610"}, "id": "1350-60-north-lake-shore-drive-chicago-4", "categories": [{"alias": "apartments", "title": "Apartments"}]}]}
{"total": 230, "businesses": [{"rating": 3.0, "review_count": 18, "name": "1350 Lake Shore Drive", "url": "https://www.yelp.com/biz/1350-60-north-lake-shore-drive-chicago-4?adjust_creative=_xGZBQTFH5RSnMk3I7VtQQ&utm_campaign=yelp_api_v3&utm_medium=api_v3_business_search&utm_source=_xGZBQTFH5RSnMk3I7VtQQ", "coordinates": {"latitude": 41.9071021, "longitude": -87.6262625}, "phone": "+13123370932", "image_url": "https://s3-media2.fl.yelpcdn.com/bphoto/sS0xRH6Ty968xXQATKKVow/o.jpg", "location": {"city": "Chicago", "country": "US", "address2": "", "address3": "", "state": "IL", "address1": "1350 North Lake Shore Dr", "zip_code": "60610"}, "id": "1350-60-north-lake-shore-drive-chicago-4", "categories": [{"alias": "apartments", "title": "Apartments"}]}]}
{"total": 227, "businesses": [{"rating": 5.0, "review_count": 2, "name": "Polar Plunge", "url": "https://www.yelp.com/biz/polar-plunge-chicago?adjust_creative=_xGZBQTFH5RSnMk3I7VtQQ&utm_campaign=yelp_api_v3&utm_medium=api_v3_business_search&utm_source=_xGZBQTFH5RSnMk3I7VtQQ", "coordinates": {"latitude": 41.9219779968262, "longitude": -87.6493225097656}, "image_url": "https://s3-media2.fl.yelpcdn.com/bphoto/5mKZLM2fU1uDH_mSR7453g/o.jpg", "location": {"city": "Chicago", "country": "US", "address2": "", "address3": "", "state": "IL", "address1": "North Avenue Beach", "zip_code": "60614"}, "id": "polar-plunge-chicago", "categories": [{"alias": "festivals", "title": "Festivals"}]}]}
{"total": 227, "businesses": [{"rating": 5.0, "review_count": 2, "name": "Tiger Lily Events", "url": "https://www.yelp.com/biz/tiger-lily-events-chicago?adjust_creative=_xGZBQTFH5RSnMk3I7VtQQ&utm_campaign=yelp_api_v3&utm_medium=api_v3_business_search&utm_source=_xGZBQTFH5RSnMk3I7VtQQ", "coordinates": {"latitude": 41.9227658, "longitude": -87.6323476}, "phone": "+13127420050", "image_url": "", "location": {"city": "Chicago", "address1": "Lincoln Park Zoo", "address2": "2230 N Cannon Dr", "address3": "", "state": "IL", "country": "US", "zip_code": "60614"}, "id": "tiger-lily-events-chicago", "categories": [{"alias": "catering", "title": "Caterers"}, {"alias": "venues", "title": "Venues & Event Spaces"}]}]}
{"total": 227, "businesses": [{"rating": 4.5, "review_count": 3, "name": "65 E Scott Bldg", "url": "https://www.yelp.com/biz/65-e-scott-bldg-chicago?adjust_creative=_xGZBQTFH5RSnMk3I7VtQQ&utm_campaign=yelp_api_v3&utm_medium=api_v3_business_search&utm_source=_xGZBQTFH5RSnMk3I7VtQQ", "coordinates": {"latitude": 41.9047651, "longitude": -87.6263287}, "phone": "+13126641500", "image_url": "https://s3-media3.fl.yelpcdn.com/bphoto/ehNBHRCqZwxdYgJwufFWyA/o.jpg", "location": {"city": "Chicago", "address1": "65 E Scott St", "address2": "", "address3": "", "state": "IL", "country": "US", "zip_code": "60610"}, "id": "65-e-scott-bldg-chicago", "categories": [{"alias": "propertymgmt", "title": "Property Management"}, {"alias": "apartments", "title": "Apartments"}]}]}
{"total": 227, "businesses": [{"rating": 4.0, "review_count": 6, "name": "Hi-Bee Cleaners", "url": "https://www.yelp.com/biz/hi-bee-cleaners-chicago?adjust_creative=_xGZBQTFH5RSnMk3I7VtQQ&utm_campaign=yelp_api_v3&utm_medium=api_v3_business_search&utm_source=_xGZBQTFH5RSnMk3I7VtQQ", "price": "$$$", "coordinates": {"latitude": 41.90872, "longitude": -87.63199}, "phone": "+13129517450", "image_url": "https://s3-media3.fl.yelpcdn.com/bphoto/YkcsvCu8bjvaulJBAeBQ-Q/o.jpg", "location": {"city": "Chicago", "country": "US", "address2": "Ste 1", "address3": "", "state": "IL", "address1": "1455 N Sandburg Ter", "zip_code": "60610"}, "id": "hi-bee-cleaners-chicago", "categories": [{"alias": "drycleaninglaundry", "title": "Dry Cleaning & Laundry"}]}]}
{"total": 227, "businesses": [{"rating": 4.0, "review_count": 4, "name": "Astor House", "url": "https://www.yelp.com/biz/astor-house-chicago?adjust_creative=_xGZBQTFH5RSnMk3I7VtQQ&utm_campaign=yelp_api_v3&utm_medium=api_v3_business_search&utm_source=_xGZBQTFH5RSnMk3I7VtQQ", "coordinates": {"latitude": 41.90705, "longitude": -87.62793}, "phone": "+13123370300", "image_url": "https://s3-media3.fl.yelpcdn.com/bphoto/hn38yyAZCI2RxtY3xp0txA/o.jpg", "location": {"city": "Chicago", "country": "US", "address2": "", "address3": "", "state": "IL", "address1": "1340 N Astor St", "zip_code": "60610"}, "id": "astor-house-chicago", "categories": [{"alias": "apartments", "title": "Apartments"}]}]}
{"total": 227, "businesses": [{"rating": 3.5, "review_count": 14, "name": "Canterbury Court Apartments", "url": "https://www.yelp.com/biz/canterbury-court-apartments-chicago?adjust_creative=_xGZBQTFH5RSnMk3I7VtQQ&utm_campaign=yelp_api_v3&utm_medium=api_v3_business_search&utm_source=_xGZBQTFH5RSnMk3I7VtQQ", "coordinates": {"latitude": 41.904528, "longitude": -87.629085}, "phone": "+13129444900", "image_url": "https://s3-media3.fl.yelpcdn.com/bphoto/BHe6FEpz9m1iDSvulpzrpg/o.jpg", "location": {"city": "Chicago", "country": "US", "address2": "", "address3": "", "state": "IL", "address1": "1220 N State Pkwy", "zip_code": "60610"}, "id": "canterbury-court-apartments-chicago", "categories": [{"alias": "apartments", "title": "Apartments"}]}]}
{"total": 230, "businesses": [{"rating": 3.5, "review_count": 14, "name": "Canterbury Court Apartments", "url": "https://www.yelp.com/biz/canterbury-court-apartments-chicago?adjust_creative=_xGZBQTFH5RSnMk3I7VtQQ&utm_campaign=yelp_api_v3&utm_medium=api_v3_business_search&utm_source=_xGZBQTFH5RSnMk3I7VtQQ", "coordinates": {"latitude": 41.904528, "longitude": -87.629085}, "phone": "+13129444900", "image_url": "https://s3-media3.fl.yelpcdn.com/bphoto/BHe6FEpz9m1iDSvulpzrpg/o.jpg", "location": {"city": "Chicago", "address1": "1220 N State Pkwy", "address2": "", "address3": "", "state": "IL", "country": "US", "zip_code": "60610"}, "id": "canterbury-court-apartments-chicago", "categories": [{"alias": "apartments", "title": "Apartments"}]}]}
{"total": 230, "businesses": [{"rating": 4.5, "review_count": 2, "name": "Chicago History Museum Store", "url": "https://www.yelp.com/biz/chicago-history-museum-store-chicago?adjust_creative=_xGZBQTFH5RSnMk3I7VtQQ&utm_campaign=yelp_api_v3&utm_medium=api_v3_business_search&utm_source=_xGZBQTFH5RSnMk3I7VtQQ", "coordinates": {"latitude": 41.911377, "longitude": -87.6315384}, "phone": "+13127992262", "image_url": "", "location": {"city": "Chicago", "country": "US", "address2": "", "address3": "", "state": "IL", "address1": "1601 N Clark St", "zip_code": "60614"}, "id": "chicago-history-museum-store-chicago", "categories": [{"alias": "museums", "title": "Museums"}]}]}
{"total": 227, "businesses": [{"rating": 3.0, "review_count": 7, "name": "Sun & Moon Beach Yoga", "url": "https://www.yelp.com/biz/sun-and-moon-beach-yoga-chicago?adjust_creative=_xGZBQTFH5RSnMk3I7VtQQ&utm_campaign=yelp_api_v3&utm_medium=api_v3_business_search&utm_source=_xGZBQTFH5RSnMk3I7VtQQ", "coordinates": {"latitude": 41.9129507, "longitude": -87.6247281}, "phone": "+17736696422", "image_url": "https://s3-media1.fl.yelpcdn.com/bphoto/XNRxgbh61PDDNhUqN5wCQw/o.jpg", "location": {"city": "Chicago", "address1": "1600 N Lake Shore Dr", "address2": "", "address3": "", "state": "IL", "country": "US", "zip_code": "60622"}, "id": "sun-and-moon-beach-yoga-chicago", "categories": [{"alias": "yoga", "title": "Yoga"}, {"alias": "pilates", "title": "Pilates"}]}]}
{"total": 227, "businesses": [{"rating": 4.5, "review_count": 2, "name": "Ambassador", "url": "https://www.yelp.com/biz/ambassador-chicago-2?adjust_creative=_xGZBQTFH5RSnMk3I7VtQQ&utm_campaign=yelp_api_v3&utm_medium=api_v3_business_search&utm_source=_xGZBQTFH5RSnMk3I7VtQQ", "price": "$$$", "coordinates": {"latitude": 41.90599, "longitude": -87.6289199}, "phone": "+13128933500", "image_url": "https://s3-media2.fl.yelpcdn.com/bphoto/ROsk2ClVgLyX4T0M4CE5ow/o.jpg", "location": {"city": "Chicago", "country": "US", "address2": "", "address3": "", "state": "IL", "address1": "1300 N. State Parkway", "zip_code": "60616"}, "id": "ambassador-chicago-2", "categories": [{"alias": "hotels", "title": "Hotels"}]}]}
{"total": 227, "businesses": [{"rating": 3.0, "review_count": 4, "name": "Bus 2 Notre Dame", "url": "https://www.yelp.com/biz/bus-2-notre-dame-chicago?adjust_creative=_xGZBQTFH5RSnMk3I7VtQQ&utm_campaign=yelp_api_v3&utm_medium=api_v3_business_search&utm_source=_xGZBQTFH5RSnMk3I7VtQQ", "coordinates": {"latitude": 41.904551, "longitude": -87.62832}, "phone": "+13123717142", "image_url": "https://s3-media1.fl.yelpcdn.com/bphoto/UfSCorVr8TOmxSx8wm5plg/o.jpg", "location": {"city": "Chicago", "country": "US", "address2": "Ste 2310", "address3": "", "state": "IL", "address1": "1 E Scott St", "zip_code": "60610"}, "id": "bus-2-notre-dame-chicago", "categories": [{"alias": "partybusrentals", "title": "Party Bus Rentals"}]}]}
{"total": 227, "businesses": [{"rating": 4.0, "review_count": 4, "name": "Ward's Hydro-Vac & Plumbing", "url": "https://www.yelp.com/biz/wards-hydro-vac-and-plumbing-chicago?adjust_creative=_xGZBQTFH5RSnMk3I7VtQQ&utm_campaign=yelp_api_v3&utm_medium=api_v3_business_search&utm_source=_xGZBQTFH5RSnMk3I7VtQQ", "coordinates": {"latitude": 41.90564006567, "longitude": -87.6320493221283}, "phone": "+13129442828", "image_url": "", "location": {"city": "Chicago", "country": "US", "address2": "", "address3": "", "state": "IL", "address1": "1255 N Sandburg Ter Apt 1602", "zip_code": "60610"}, "id": "wards-hydro-vac-and-plumbing-chicago", "categories": [{"alias": "plumbing", "title": "Plumbing"}]}]}
{"total": 227, "businesses": [{"rating": 2.5, "review_count": 3, "name": "Cafe At Wild Things", "url": "https://www.yelp.com/biz/cafe-at-wild-things-chicago?adjust_creative=_xGZBQTFH5RSnMk3I7VtQQ&utm_campaign=yelp_api_v3&utm_medium=api_v3_business_search&utm_source=_xGZBQTFH5RSnMk3I7VtQQ", "price": "$$", "coordinates": {"latitude": 41.9199080765247, "longitude": -87.6313110440969}, "phone": "+13127422000", "image_url": "https://s3-media1.fl.yelpcdn.com/bphoto/t8D_lScAQ40c9DDrwR3ADw/o.jpg", "location": {"city": "Chicago", "country": "US", "address2": "", "address3": "", "state": "IL", "address1": "2200 N Cannon Dr", "zip_code": "60614"}, "id": "cafe-at-wild-things-chicago", "categories": [{"alias": "sandwiches", "title": "Sandwiches"}, {"alias": "markets", "title": "Fruits & Veggies"}]}]}
{"total": 227, "businesses": [{"rating": 4.5, "review_count": 11, "name": "Value Garage Builders", "url": "https://www.yelp.com/biz/value-garage-builders-chicago?adjust_creative=_xGZBQTFH5RSnMk3I7VtQQ&utm_campaign=yelp_api_v3&utm_medium=api_v3_business_search&utm_source=_xGZBQTFH5RSnMk3I7VtQQ", "coordinates": {"latitude": 41.9088744, "longitude": -87.6320367}, "phone": "+17739910283", "image_url": "https://s3-media2.fl.yelpcdn.com/bphoto/B1rm_B_3aBDzZm03N2wl2Q/o.jpg", "location": {"city": "Chicago", "country": "US", "address2": null, "address3": "", "state": "IL", "address1": "1455 N Sandburg Ter", "zip_code": "60610"}, "id": "value-garage-builders-chicago", "categories": [{"alias": "garage_door_services", "title": "Garage Door Services"}]}]}
{"total": 227, "businesses": [{"rating": 3.0, "review_count": 1, "name": "Beachside Burgers", "url": "https://www.yelp.com/biz/beachside-burgers-chicago?adjust_creative=_xGZBQTFH5RSnMk3I7VtQQ&utm_campaign=yelp_api_v3&utm_medium=api_v3_business_search&utm_source=_xGZBQTFH5RSnMk3I7VtQQ", "coordinates": {"latitude": 41.9084942, "longitude": -87.6253367}, "image_url": "", "location": {"city": "Chicago", "country": "US", "address2": "1603 N Lake Shore Dr", "address3": "", "state": "IL", "address1": "North Avenue Beach", "zip_code": "60610"}, "id": "beachside-burgers-chicago", "categories": [{"alias": "burgers", "title": "Burgers"}]}]}
{"total": 227, "businesses": [{"rating": 3.5, "review_count": 3, "name": "Diamond Bank", "url": "https://www.yelp.com/biz/diamond-bank-chicago?adjust_creative=_xGZBQTFH5RSnMk3I7VtQQ&utm_campaign=yelp_api_v3&utm_medium=api_v3_business_search&utm_source=_xGZBQTFH5RSnMk3I7VtQQ", "coordinates": {"latitude": 41.9113807678223, "longitude": -87.6322479248047}, "phone": "+13126644320", "image_url": "", "location": {"city": "Chicago", "country": "US", "address2": "", "address3": "", "state": "IL", "address1": "100 W North Avenue", "zip_code": "60610"}, "id": "diamond-bank-chicago", "categories": [{"alias": "banks", "title": "Banks & Credit Unions"}]}]}
{"total": 230, "businesses": [{"rating": 3.0, "review_count": 1, "name": "Beachside Burgers", "url": "https://www.yelp.com/biz/beachside-burgers-chicago?adjust_creative=_xGZBQTFH5RSnMk3I7VtQQ&utm_campaign=yelp_api_v3&utm_medium=api_v3_business_search&utm_source=_xGZBQTFH5RSnMk3I7VtQQ", "coordinates": {"latitude": 41.9084942, "longitude": -87.6253367}, "image_url": "", "location": {"city": "Chicago", "country": "US", "address2": "1603 N Lake Shore Dr", "address3": "", "state": "IL", "address1": "North Avenue Beach", "zip_code": "60610"}, "id": "beachside-burgers-chicago", "categories": [{"alias": "burgers", "title": "Burgers"}]}]}
{"total": 227, "businesses": [{"rating": 5.0, "review_count": 1, "name": "New Year's Day 2012 Idiot Swim", "url": "https://www.yelp.com/biz/new-years-day-2012-idiot-swim-chicago?adjust_creative=_xGZBQTFH5RSnMk3I7VtQQ&utm_campaign=yelp_api_v3&utm_medium=api_v3_business_search&utm_source=_xGZBQTFH5RSnMk3I7VtQQ", "coordinates": {"latitude": 41.9106026, "longitude": -87.6263885}, "phone": "+13129119111", "image_url": "https://s3-media2.fl.yelpcdn.com/bphoto/9IoW5W8ILuOlsUjh2YT6Ww/o.jpg", "location": {"city": "Chicago", "address1": "1600 N Lake Shore Dr", "address2": "", "address3": "", "state": "IL", "country": "US", "zip_code": "60614"}, "id": "new-years-day-2012-idiot-swim-chicago", "categories": [{"alias": "beaches", "title": "Beaches"}]}]}
{"total": 227, "businesses": [{"rating": 5.0, "review_count": 1, "name": "Redeye's Battle of the Burger", "url": "https://www.yelp.com/biz/redeyes-battle-of-the-burger-chicago?adjust_creative=_xGZBQTFH5RSnMk3I7VtQQ&utm_campaign=yelp_api_v3&utm_medium=api_v3_business_search&utm_source=_xGZBQTFH5RSnMk3I7VtQQ", "coordinates": {"latitude": 41.9113772, "longitude": -87.6315416}, "image_url": "https://s3-media3.fl.yelpcdn.com/bphoto/J-Kqm0ntA7DddFQ3YSW4GA/o.jpg", "location": {"city": "Chicago", "country": "US", "address2": "", "address3": "", "state": "IL", "address1": "1601 N Clark", "zip_code": "60614"}, "id": "redeyes-battle-of-the-burger-chicago", "categories": [{"alias": "festivals", "title": "Festivals"}]}]}
{"total": 227, "businesses": [{"rating": 4.0, "review_count": 2, "name": "Potash Ace Hardware", "url": "https://www.yelp.com/biz/potash-ace-hardware-chicago-2?adjust_creative=_xGZBQTFH5RSnMk3I7VtQQ&utm_campaign=yelp_api_v3&utm_medium=api_v3_business_search&utm_source=_xGZBQTFH5RSnMk3I7VtQQ", "price": "$$", "coordinates": {"latitude": 41.9099083, "longitude": -87.6314468}, "image_url": "", "location": {"city": "Chicago", "country": "US", "address2": "Lower Level", "address3": "", "state": "IL", "address1": "1525 N Clark St", "zip_code": "60610"}, "id": "potash-ace-hardware-chicago-2", "categories": [{"alias": "hardware", "title": "Hardware Stores"}]}]}
{"total": 230, "businesses": [{"rating": 5.0, "review_count": 1, "name": "Redeye's Battle of the Burger", "url": "https://www.yelp.com/biz/redeyes-battle-of-the-burger-chicago?adjust_creative=_xGZBQTFH5RSnMk3I7VtQQ&utm_campaign=yelp_api_v3&utm_medium=api_v3_business_search&utm_source=_xGZBQTFH5RSnMk3I7VtQQ", "coordinates": {"latitude": 41.9113772, "longitude": -87.6315416}, "image_url": "https://s3-media3.fl.yelpcdn.com/bphoto/J-Kqm0ntA7DddFQ3YSW4GA/o.jpg", "location": {"city": "Chicago", "country": "US", "address2": "", "address3": "", "state": "IL", "address1": "1601 N Clark", "zip_code": "60614"}, "id": "redeyes-battle-of-the-burger-chicago", "categories": [{"alias": "festivals", "title": "Festivals"}]}]}
{"total": 227, "businesses": [{"rating": 3.5, "review_count": 5, "name": "Chris Aumiller Chimney Services", "url": "https://www.yelp.com/biz/chris-aumiller-chimney-services-chicago?adjust_creative=_xGZBQTFH5RSnMk3I7VtQQ&utm_campaign=yelp_api_v3&utm_medium=api_v3_business_search&utm_source=_xGZBQTFH5RSnMk3I7VtQQ", "coordinates": {"latitude": 41.9080924987793, "longitude": -87.6263961791992}, "phone": "+13129811409", "image_url": "https://s3-media2.fl.yelpcdn.com/bphoto/fmf7GpK6-XVCRtf-fr4YyA/o.jpg", "location": {"city": "Chicago", "country": "US", "address2": "#5T", "address3": "", "state": "IL", "address1": "1400 Lake Shore Dr", "zip_code": "60610"}, "id": "chris-aumiller-chimney-services-chicago", "categories": [{"alias": "contractors", "title": "Contractors"}]}]}
{"total": 227, "businesses": [{"rating": 5.0, "review_count": 4, "name": "Early Learning Foundations Preschool", "url": "https://www.yelp.com/biz/early-learning-foundations-preschool-chicago?adjust_creative=_xGZBQTFH5RSnMk3I7VtQQ&utm_campaign=yelp_api_v3&utm_medium=api_v3_business_search&utm_source=_xGZBQTFH5RSnMk3I7VtQQ", "coordinates": {"latitude": 41.9087654, "longitude": -87.6317588}, "phone": "+13122489454", "image_url": "https://s3-media3.fl.yelpcdn.com/bphoto/bH1slShuklwQE9HStkB8gA/o.jpg", "location": {"city": "Chicago", "country": "US", "address2": "", "address3": "", "state": "IL", "address1": "1455 N Clark St", "zip_code": "60610"}, "id": "early-learning-foundations-preschool-chicago", "categories": [{"alias": "preschools", "title": "Preschools"}, {"alias": "childcare", "title": "Child Care & Day Care"}]}]}
{"total": 227, "businesses": [{"rating": 5.0, "review_count": 2, "name": "Masterpiece Kitchens", "url": "https://www.yelp.com/biz/masterpiece-kitchens-chicago?adjust_creative=_xGZBQTFH5RSnMk3I7VtQQ&utm_campaign=yelp_api_v3&utm_medium=api_v3_business_search&utm_source=_xGZBQTFH5RSnMk3I7VtQQ", "coordinates": {"latitude": 41.908501, "longitude": -87.631882}, "phone": "+13126080179", "image_url": "https://s3-media4.fl.yelpcdn.com/bphoto/UDRm699wgqUm2Zyh9uZihA/o.jpg", "location": {"city": "Chicago", "country": "US", "address2": null, "address3": "", "state": "IL", "address1": "1419 N Sandburg Ter", "zip_code": "60610"}, "id": "masterpiece-kitchens-chicago", "categories": [{"alias": "contractors", "title": "Contractors"}, {"alias": "handyman", "title": "Handyman"}]}]}
{"total": 227, "businesses": [{"rating": 5.0, "review_count": 1, "name": "Butchko & Company", "url": "https://www.yelp.com/biz/butchko-and-company-chicago?adjust_creative=_xGZBQTFH5RSnMk3I7VtQQ&utm_campaign=yelp_api_v3&utm_medium=api_v3_business_search&utm_source=_xGZBQTFH5RSnMk3I7VtQQ", "coordinates": {"latitude": 41.9085083, "longitude": -87.6297379}, "phone": "+13123997109", "image_url": "https://s3-media2.fl.yelpcdn.com/bphoto/RkOOOTJ0wQL1oijyKapB-g/o.jpg", "location": {"city": "Chicago", "country": "US", "address2": "", "address3": "", "state": "IL", "address1": "1425 N Dearborn", "zip_code": "60610"}, "id": "butchko-and-company-chicago", "categories": [{"alias": "localservices", "title": "Local Services"}, {"alias": "contractors", "title": "Contractors"}, {"alias": "interiordesign", "title": "Interior Design"}]}]}
{"total": 230, "businesses": [{"rating": 5.0, "review_count": 2, "name": "Masterpiece Kitchens", "url": "https://www.yelp.com/biz/masterpiece-kitchens-chicago?adjust_creative=_xGZBQTFH5RSnMk3I7VtQQ&utm_campaign=yelp_api_v3&utm_medium=api_v3_business_search&utm_source=_xGZBQTFH5RSnMk3I7VtQQ", "coordinates": {"latitude": 41.908501, "longitude": -87.631882}, "phone": "+13126080179", "image_url": "https://s3-media4.fl.yelpcdn.com/bphoto/UDRm699wgqUm2Zyh9uZihA/o.jpg", "location": {"city": "Chicago", "address1": "1419 N Sandburg Ter", "address2": null, "address3": "", "state": "IL", "country": "US", "zip_code": "60610"}, "id": "masterpiece-kitchens-chicago", "categories": [{"alias": "contractors", "title": "Contractors"}, {"alias": "handyman", "title": "Handyman"}]}]}
{"total": 227, "businesses": [{"rating": 5.0, "review_count": 1, "name": "Kim Korber", "url": "https://www.yelp.com/biz/kim-korber-chicago?adjust_creative=_xGZBQTFH5RSnMk3I7VtQQ&utm_campaign=yelp_api_v3&utm_medium=api_v3_business_search&utm_source=_xGZBQTFH5RSnMk3I7VtQQ", "coordinates": {"latitude": 41.909988, "longitude": -87.629234}, "phone": "+13128672042", "image_url": "https://s3-media4.fl.yelpcdn.com/bphoto/F3I9xuTlxFGpr03Qq4PcNw/o.jpg", "location": {"city": "Chicago", "country": "US", "address2": "", "address3": "", "state": "IL", "address1": "1516 N State Pkwy", "zip_code": "60610"}, "id": "kim-korber-chicago", "categories": [{"alias": "realestatesvcs", "title": "Real Estate Services"}, {"alias": "realestateagents", "title": "Real Estate Agents"}]}]}
{"total": 227, "businesses": [{"rating": 5.0, "review_count": 1, "name": "Live & Learn the Latin School", "url": "https://www.yelp.com/biz/live-and-learn-the-latin-school-chicago?adjust_creative=_xGZBQTFH5RSnMk3I7VtQQ&utm_campaign=yelp_api_v3&utm_medium=api_v3_business_search&utm_source=_xGZBQTFH5RSnMk3I7VtQQ", "coordinates": {"latitude": 41.9102897644043, "longitude": -87.6297836303711}, "phone": "+13125734698", "image_url": "", "location": {"city": "Chicago", "country": "US", "address2": "", "address3": "", "state": "IL", "address1": "1527 N Dearborn Pkwy", "zip_code": "60610"}, "id": "live-and-learn-the-latin-school-chicago", "categories": [{"alias": "specialtyschools", "title": "Specialty Schools"}]}]}
{"total": 227, "businesses": [{"rating": 4.0, "review_count": 5, "name": "Village Barber Shop", "url": "https://www.yelp.com/biz/village-barber-shop-chicago-2?adjust_creative=_xGZBQTFH5RSnMk3I7VtQQ&utm_campaign=yelp_api_v3&utm_medium=api_v3_business_search&utm_source=_xGZBQTFH5RSnMk3I7VtQQ", "price": "$$", "coordinates": {"latitude": 41.90705, "longitude": -87.6320151}, "phone": "+18478048443", "image_url": "", "location": {"city": "Chicago", "country": "US", "address2": "Ste 1", "address3": "", "state": "IL", "address1": "1355 N Sandburg Ter", "zip_code": "60610"}, "id": "village-barber-shop-chicago-2", "categories": [{"alias": "barbers", "title": "Barbers"}]}]}
{"total": 227, "businesses": [{"rating": 3.5, "review_count": 5, "name": "Chase Bank", "url": "https://www.yelp.com/biz/chase-bank-chicago-64?adjust_creative=_xGZBQTFH5RSnMk3I7VtQQ&utm_campaign=yelp_api_v3&utm_medium=api_v3_business_search&utm_source=_xGZBQTFH5RSnMk3I7VtQQ", "coordinates": {"latitude": 41.9040731295891, "longitude": -87.6291509546903}, "phone": "+13126540196", "image_url": "https://s3-media1.fl.yelpcdn.com/bphoto/LMdxBD-Y_J4WNnqzNbRaww/o.jpg", "location": {"city": "Chicago", "country": "US", "address2": null, "address3": null, "state": "IL", "address1": "1200 N State Pkwy", "zip_code": "60610"}, "id": "chase-bank-chicago-64", "categories": [{"alias": "banks", "title": "Banks & Credit Unions"}]}]}
{"total": 227, "businesses": [{"rating": 5.0, "review_count": 1, "name": "Rawdesignr", "url": "https://www.yelp.com/biz/rawdesignr-chicago?adjust_creative=_xGZBQTFH5RSnMk3I7VtQQ&utm_campaign=yelp_api_v3&utm_medium=api_v3_business_search&utm_source=_xGZBQTFH5RSnMk3I7VtQQ", "coordinates": {"latitude": 41.9070472717285, "longitude": -87.6296463012695}, "phone": "+17089277751", "image_url": "https://s3-media3.fl.yelpcdn.com/bphoto/SbG_yu7ZlqeMfd-3bqxmoQ/o.jpg", "location": {"city": "Chicago", "country": "US", "address2": "Ste 8H", "address3": "", "state": "IL", "address1": "1339 N Dearborn Pkwy", "zip_code": "60610"}, "id": "rawdesignr-chicago", "categories": [{"alias": "web_design", "title": "Web Design"}, {"alias": "graphicdesign", "title": "Graphic Design"}]}]}
{"total": 227, "businesses": [{"rating": 5.0, "review_count": 1, "name": "Silvio Handyman Chicago", "url": "https://www.yelp.com/biz/silvio-handyman-chicago-chicago?adjust_creative=_xGZBQTFH5RSnMk3I7VtQQ&utm_campaign=yelp_api_v3&utm_medium=api_v3_business_search&utm_source=_xGZBQTFH5RSnMk3I7VtQQ", "coordinates": {"latitude": 41.9174728393555, "longitude": -87.632438659668}, "phone": "+16304498701", "image_url": "https://s3-media3.fl.yelpcdn.com/bphoto/2gCqhl9XZjOuQqb_ikgygw/o.jpg", "location": {"city": "Chicago", "address1": "2001 N Clark", "address2": "", "address3": "", "state": "IL", "country": "US", "zip_code": "60614"}, "id": "silvio-handyman-chicago-chicago", "categories": [{"alias": "handyman", "title": "Handyman"}]}]}
{"total": 227, "businesses": [{"rating": 5.0, "review_count": 1, "name": "Lice Treatment Center", "url": "https://www.yelp.com/biz/lice-treatment-center-chicago?adjust_creative=_xGZBQTFH5RSnMk3I7VtQQ&utm_campaign=yelp_api_v3&utm_medium=api_v3_business_search&utm_source=_xGZBQTFH5RSnMk3I7VtQQ", "coordinates": {"latitude": 41.910389, "longitude": -87.630608}, "phone": "+18885423292", "image_url": "https://s3-media1.fl.yelpcdn.com/bphoto/BitkDLW8sv2Yglnh9ItvrA/o.jpg", "location": {"city": "Chicago", "address1": "1530 N Dearborn Pkwy", "address2": "", "address3": "", "state": "IL", "country": "US", "zip_code": "60610"}, "id": "lice-treatment-center-chicago", "categories": [{"alias": "liceservices", "title": "Lice Services"}]}]}
{"total": 227, "businesses": [{"rating": 4.5, "review_count": 3, "name": "Quality Cleaners", "url": "https://www.yelp.com/biz/quality-cleaners-chicago?adjust_creative=_xGZBQTFH5RSnMk3I7VtQQ&utm_campaign=yelp_api_v3&utm_medium=api_v3_business_search&utm_source=_xGZBQTFH5RSnMk3I7VtQQ", "coordinates": {"latitude": 41.9110351, "longitude": -87.6325433}, "phone": "+13122666699", "image_url": "https://s3-media2.fl.yelpcdn.com/bphoto/Rs5GGixhGUCPLfFu6k-Ysw/o.jpg", "location": {"city": "Chicago", "country": "US", "address2": "", "address3": "", "state": "IL", "address1": "121 W North Ave", "zip_code": "60610"}, "id": "quality-cleaners-chicago", "categories": [{"alias": "drycleaninglaundry", "title": "Dry Cleaning & Laundry"}, {"alias": "sewingalterations", "title": "Sewing & Alterations"}]}]}
{"total": 230, "businesses": [{"rating": 5.0, "review_count": 1, "name": "Lice Treatment Center", "url": "https://www.yelp.com/biz/lice-treatment-center-chicago?adjust_creative=_xGZBQTFH5RSnMk3I7VtQQ&utm_campaign=yelp_api_v3&utm_medium=api_v3_business_search&utm_source=_xGZBQTFH5RSnMk3I7VtQQ", "coordinates": {"latitude": 41.910389, "longitude": -87.630608}, "phone": "+18885423292", "image_url": "https://s3-media1.fl.yelpcdn.com/bphoto/BitkDLW8sv2Yglnh9ItvrA/o.jpg", "location": {"city": "Chicago", "country": "US", "address2": "", "address3": "", "state": "IL", "address1": "1530 N Dearborn Pkwy", "zip_code": "60610"}, "id": "lice-treatment-center-chicago", "categories": [{"alias": "liceservices", "title": "Lice Services"}]}]}
{"total": 227, "businesses": [{"rating": 3.5, "review_count": 3, "name": "Burton Clark Salon", "url": "https://www.yelp.com/biz/burton-clark-salon-chicago?adjust_creative=_xGZBQTFH5RSnMk3I7VtQQ&utm_campaign=yelp_api_v3&utm_medium=api_v3_business_search&utm_source=_xGZBQTFH5RSnMk3I7VtQQ", "price": "$$", "coordinates": {"latitude": 41.90933, "longitude": -87.63228}, "phone": "+13129442282", "image_url": "", "location": {"city": "Chicago", "country": "US", "address2": "", "address3": "", "state": "IL", "address1": "1460 N Sandburg Ter Ste 1", "zip_code": "60610"}, "id": "burton-clark-salon-chicago", "categories": [{"alias": "hair", "title": "Hair Salons"}]}]}
{"total": 227, "businesses": [{"rating": 5.0, "review_count": 1, "name": "Community Christian Church", "url": "https://www.yelp.com/biz/community-christian-church-chicago-4?adjust_creative=_xGZBQTFH5RSnMk3I7VtQQ&utm_campaign=yelp_api_v3&utm_medium=api_v3_business_search&utm_source=_xGZBQTFH5RSnMk3I7VtQQ", "coordinates": {"latitude": 41.9106102, "longitude": -87.6320572}, "image_url": "https://s3-media3.fl.yelpcdn.com/bphoto/iPm-9yAmEuIUdI9z24F4Iw/o.jpg", "location": {"city": "Chicago", "address1": "108 W Germania Pl", "address2": "", "address3": "", "state": "IL", "country": "US", "zip_code": "60610"}, "id": "community-christian-church-chicago-4", "categories": [{"alias": "churches", "title": "Churches"}]}]}
{"total": 227, "businesses": [{"rating": 2.0, "review_count": 31, "name": "The Building Group", "url": "https://www.yelp.com/biz/the-building-group-chicago-5?adjust_creative=_xGZBQTFH5RSnMk3I7VtQQ&utm_campaign=yelp_api_v3&utm_medium=api_v3_business_search&utm_source=_xGZBQTFH5RSnMk3I7VtQQ", "coordinates": {"latitude": 41.9043784, "longitude": -87.6328502}, "phone": "+13124668100", "image_url": "https://s3-media1.fl.yelpcdn.com/bphoto/ssJtGPriI3oIHxEHmVfZvA/o.jpg", "location": {"city": "Chicago", "country": "US", "address2": null, "address3": "", "state": "IL", "address1": "1221 N Lasalle St", "zip_code": "60610"}, "id": "the-building-group-chicago-5", "categories": [{"alias": "propertymgmt", "title": "Property Management"}]}]}
{"total": 227, "businesses": [{"rating": 5.0, "review_count": 1, "name": "Goudy Square Playlot", "url": "https://www.yelp.com/biz/goudy-square-playlot-chicago?adjust_creative=_xGZBQTFH5RSnMk3I7VtQQ&utm_campaign=yelp_api_v3&utm_medium=api_v3_business_search&utm_source=_xGZBQTFH5RSnMk3I7VtQQ", "coordinates": {"latitude": 41.9054276678156, "longitude": -87.6271556317806}, "image_url": "https://s3-media1.fl.yelpcdn.com/bphoto/HtimVFvD0E8qdcKD8SPbaw/o.jpg", "location": {"city": "Chicago", "country": "US", "address2": "", "address3": "", "state": "IL", "address1": "51 E Goethe St", "zip_code": "60610"}, "id": "goudy-square-playlot-chicago", "categories": [{"alias": "playgrounds", "title": "Playgrounds"}]}]}
{"total": 230, "businesses": [{"rating": 2.0, "review_count": 31, "name": "The Building Group", "url": "https://www.yelp.com/biz/the-building-group-chicago-5?adjust_creative=_xGZBQTFH5RSnMk3I7VtQQ&utm_campaign=yelp_api_v3&utm_medium=api_v3_business_search&utm_source=_xGZBQTFH5RSnMk3I7VtQQ", "coordinates": {"latitude": 41.9043784, "longitude": -87.6328502}, "phone": "+13124668100", "image_url": "https://s3-media1.fl.yelpcdn.com/bphoto/ssJtGPriI3oIHxEHmVfZvA/o.jpg", "location": {"city": "Chicago", "country": "US", "address2": null, "address3": "", "state": "IL", "address1": "1221 N Lasalle St", "zip_code": "60610"}, "id": "the-building-group-chicago-5", "categories": [{"alias": "propertymgmt", "title": "Property Management"}]}]}
{"total": 227, "businesses": [{"rating": 5.0, "review_count": 1, "name": "Cummings House", "url": "https://www.yelp.com/biz/cummings-house-chicago?adjust_creative=_xGZBQTFH5RSnMk3I7VtQQ&utm_campaign=yelp_api_v3&utm_medium=api_v3_business_search&utm_source=_xGZBQTFH5RSnMk3I7VtQQ", "coordinates": {"latitude": 41.9070408, "longitude": -87.6322849}, "phone": "", "image_url": "", "location": {"city": "Chicago", "country": "US", "address2": "", "address3": "", "state": "IL", "address1": "1360 N Sandburg Ter", "zip_code": "60610"}, "id": "cummings-house-chicago", "categories": [{"alias": "apartments", "title": "Apartments"}]}]}
{"total": 227, "businesses": [{"rating": 5.0, "review_count": 1, "name": "Crowley Accounting & Consulting Services", "url": "https://www.yelp.com/biz/crowley-accounting-and-consulting-services-chicago?adjust_creative=_xGZBQTFH5RSnMk3I7VtQQ&utm_campaign=yelp_api_v3&utm_medium=api_v3_business_search&utm_source=_xGZBQTFH5RSnMk3I7VtQQ", "coordinates": {"latitude": 41.9045524597168, "longitude": -87.6254959106445}, "phone": "+17733682020", "image_url": "https://s3-media2.fl.yelpcdn.com/bphoto/rzDUbUDc7YhnxF4rMM2Auw/o.jpg", "location": {"city": "Chicago", "country": "US", "address2": null, "address3": "", "state": "IL", "address1": "1212 N Lake Shore Dr", "zip_code": "60610"}, "id": "crowley-accounting-and-consulting-services-chicago", "categories": [{"alias": "taxservices", "title": "Tax Services"}, {"alias": "accountants", "title": "Accountants"}]}]}
{"total": 227, "businesses": [{"rating": 5.0, "review_count": 1, "name": "Terme Mortgage", "url": "https://www.yelp.com/biz/terme-mortgage-chicago?adjust_creative=_xGZBQTFH5RSnMk3I7VtQQ&utm_campaign=yelp_api_v3&utm_medium=api_v3_business_search&utm_source=_xGZBQTFH5RSnMk3I7VtQQ", "coordinates": {"latitude": 41.905532, "longitude": -87.628387}, "phone": "+13122810335", "image_url": "", "location": {"city": "Chicago", "country": "US", "address2": "", "address3": "", "state": "IL", "address1": "1255 N State Pkwy #1 S", "zip_code": "60610"}, "id": "terme-mortgage-chicago", "categories": [{"alias": "mortgagebrokers", "title": "Mortgage Brokers"}]}]}
{"total": 227, "businesses": [{"rating": 5.0, "review_count": 2, "name": "Liz Sidorowicz - Chicago Real Estate", "url": "https://www.yelp.com/biz/liz-sidorowicz-chicago-real-estate-chicago?adjust_creative=_xGZBQTFH5RSnMk3I7VtQQ&utm_campaign=yelp_api_v3&utm_medium=api_v3_business_search&utm_source=_xGZBQTFH5RSnMk3I7VtQQ", "coordinates": {"latitude": 41.9042579, "longitude": -87.6296803}, "phone": "+17734303000", "image_url": "https://s3-media3.fl.yelpcdn.com/bphoto/0Zthd80wRLXVpoI5hGSp4w/o.jpg", "location": {"city": "Chicago", "country": "US", "address2": "", "address3": "", "state": "IL", "address1": "1205 N Dearborn", "zip_code": "60610"}, "id": "liz-sidorowicz-chicago-real-estate-chicago", "categories": [{"alias": "realestateagents", "title": "Real Estate Agents"}]}]}
{"total": 227, "businesses": [{"rating": 5.0, "review_count": 1, "name": "Joseph M Thomas Photography", "url": "https://www.yelp.com/biz/joseph-m-thomas-photography-chicago?adjust_creative=_xGZBQTFH5RSnMk3I7VtQQ&utm_campaign=yelp_api_v3&utm_medium=api_v3_business_search&utm_source=_xGZBQTFH5RSnMk3I7VtQQ", "coordinates": {"latitude": 41.9043961, "longitude": -87.6327362}, "phone": "+16128345151", "image_url": "https://s3-media2.fl.yelpcdn.com/bphoto/BtZNsTg3qp92BBP-aODfoA/o.jpg", "location": {"city": "Chicago", "address1": "1211 N Lasalle Dr", "address2": null, "address3": "", "state": "IL", "country": "US", "zip_code": "60610"}, "id": "joseph-m-thomas-photography-chicago", "categories": [{"alias": "eventphotography", "title": "Event Photography"}]}]}
{"total": 230, "businesses": [{"rating": 5.0, "review_count": 2, "name": "Liz Sidorowicz - Chicago Real Estate", "url": "https://www.yelp.com/biz/liz-sidorowicz-chicago-real-estate-chicago?adjust_creative=_xGZBQTFH5RSnMk3I7VtQQ&utm_campaign=yelp_api_v3&utm_medium=api_v3_business_search&utm_source=_xGZBQTFH5RSnMk3I7VtQQ", "coordinates": {"latitude": 41.9042579, "longitude": -87.6296803}, "phone": "+17734303000", "image_url": "https://s3-media3.fl.yelpcdn.com/bphoto/0Zthd80wRLXVpoI5hGSp4w/o.jpg", "location": {"city": "Chicago", "country": "US", "address2": "", "address3": "", "state": "IL", "address1": "1205 N Dearborn", "zip_code": "60610"}, "id": "liz-sidorowicz-chicago-real-estate-chicago", "categories": [{"alias": "realestateagents", "title": "Real Estate Agents"}]}]}
{"total": 227, "businesses": [{"rating": 3.5, "review_count": 2, "name": "Lill Studio", "url": "https://www.yelp.com/biz/lill-studio-chicago?adjust_creative=_xGZBQTFH5RSnMk3I7VtQQ&utm_campaign=yelp_api_v3&utm_medium=api_v3_business_search&utm_source=_xGZBQTFH5RSnMk3I7VtQQ", "price": "$$$", "coordinates": {"latitude": 41.9161383469627, "longitude": -87.6208330317383}, "phone": "+13123441825", "image_url": "", "location": {"city": "Chicago", "country": "US", "address2": "Level 5", "address3": "", "state": "IL", "address1": "900 N Michigan Ave", "zip_code": "60611"}, "id": "lill-studio-chicago", "categories": [{"alias": "accessories", "title": "Accessories"}]}]}
{"total": 230, "businesses": [{"rating": 5.0, "review_count": 1, "name": "Joseph M Thomas Photography", "url": "https://www.yelp.com/biz/joseph-m-thomas-photography-chicago?adjust_creative=_xGZBQTFH5RSnMk3I7VtQQ&utm_campaign=yelp_api_v3&utm_medium=api_v3_business_search&utm_source=_xGZBQTFH5RSnMk3I7VtQQ", "coordinates": {"latitude": 41.9043961, "longitude": -87.6327362}, "phone": "+16128345151", "image_url": "https://s3-media2.fl.yelpcdn.com/bphoto/BtZNsTg3qp92BBP-aODfoA/o.jpg", "location": {"city": "Chicago", "country": "US", "address2": null, "address3": "", "state": "IL", "address1": "1211 N Lasalle Dr", "zip_code": "60610"}, "id": "joseph-m-thomas-photography-chicago", "categories": [{"alias": "eventphotography", "title": "Event Photography"}]}]}
{"total": 227, "businesses": [{"rating": 4.5, "review_count": 46, "name": "Millennium Dog Walkers & Pet Care", "url": "https://www.yelp.com/biz/millennium-dog-walkers-and-pet-care-chicago?adjust_creative=_xGZBQTFH5RSnMk3I7VtQQ&utm_campaign=yelp_api_v3&utm_medium=api_v3_business_search&utm_source=_xGZBQTFH5RSnMk3I7VtQQ", "coordinates": {"latitude": 41.9396781921387, "longitude": -87.656982421875}, "phone": "+13125327275", "image_url": "https://s3-media1.fl.yelpcdn.com/bphoto/BfNrzUrlnHxkukpu-qgHfw/o.jpg", "location": {"city": "Chicago", "country": "US", "address2": "", "address3": "", "state": "IL", "address1": "", "zip_code": "60657"}, "id": "millennium-dog-walkers-and-pet-care-chicago", "categories": [{"alias": "dogwalkers", "title": "Dog Walkers"}, {"alias": "pet_sitting", "title": "Pet Boarding/Pet Sitting"}]}]}
{"total": 227, "businesses": [{"rating": 3.0, "review_count": 2, "name": "Polish Consulate General", "url": "https://www.yelp.com/biz/polish-consulate-general-chicago?adjust_creative=_xGZBQTFH5RSnMk3I7VtQQ&utm_campaign=yelp_api_v3&utm_medium=api_v3_business_search&utm_source=_xGZBQTFH5RSnMk3I7VtQQ", "coordinates": {"latitude": 41.9099123, "longitude": -87.626334}, "phone": "+13123378166", "image_url": "https://s3-media1.fl.yelpcdn.com/bphoto/LIcxOUf1kuCGC5lC1lpn9A/o.jpg", "location": {"city": "Chicago", "address1": "1530 N Lake Shore Dr", "address2": "", "address3": "", "state": "IL", "country": "US", "zip_code": "60610"}, "id": "polish-consulate-general-chicago", "categories": [{"alias": "embassy", "title": "Embassy"}]}]}
{"total": 227, "businesses": [{"rating": 4.5, "review_count": 2, "name": "Moody Church", "url": "https://www.yelp.com/biz/moody-church-chicago?adjust_creative=_xGZBQTFH5RSnMk3I7VtQQ&utm_campaign=yelp_api_v3&utm_medium=api_v3_business_search&utm_source=_xGZBQTFH5RSnMk3I7VtQQ", "coordinates": {"latitude": 41.911804, "longitude": -87.63256}, "phone": "+13129430466", "image_url": "", "location": {"city": "Chicago", "country": "US", "address2": "", "address3": "", "state": "IL", "address1": "1609 N La Salle Dr", "zip_code": "60614"}, "id": "moody-church-chicago", "categories": [{"alias": "churches", "title": "Churches"}]}]}
{"total": 227, "businesses": [{"rating": 2.5, "review_count": 5, "name": "Archway Oil", "url": "https://www.yelp.com/biz/archway-oil-chicago?adjust_creative=_xGZBQTFH5RSnMk3I7VtQQ&utm_campaign=yelp_api_v3&utm_medium=api_v3_business_search&utm_source=_xGZBQTFH5RSnMk3I7VtQQ", "coordinates": {"latitude": 41.9124542176723, "longitude": -87.6331041008234}, "phone": "+13129449654", "image_url": "https://s3-media4.fl.yelpcdn.com/bphoto/VfBng6t0ZkA7ZGivmH3fYw/o.jpg", "location": {"city": "Chicago", "country": "US", "address2": "", "address3": "", "state": "IL", "address1": "1647 N La Salle Dr", "zip_code": "60614"}, "id": "archway-oil-chicago", "categories": [{"alias": "servicestations", "title": "Gas & Service Stations"}]}]}
{"total": 227, "businesses": [{"rating": 5.0, "review_count": 17, "name": "Stacy Karel - CONDOChicago", "url": "https://www.yelp.com/biz/stacy-karel-condochicago-chicago?adjust_creative=_xGZBQTFH5RSnMk3I7VtQQ&utm_campaign=yelp_api_v3&utm_medium=api_v3_business_search&utm_source=_xGZBQTFH5RSnMk3I7VtQQ", "coordinates": {"latitude": 41.916069, "longitude": -87.6774445}, "phone": "+13129335819", "image_url": "https://s3-media4.fl.yelpcdn.com/bphoto/GPp4A3efC5aBGez8RgujhA/o.jpg", "location": {"city": "Chicago", "country": "US", "address2": "", "address3": "", "state": "IL", "address1": "1875 N Damen Ave", "zip_code": "60647"}, "id": "stacy-karel-condochicago-chicago", "categories": [{"alias": "realestateagents", "title": "Real Estate Agents"}, {"alias": "realestatesvcs", "title": "Real Estate Services"}]}]}
{"total": 227, "businesses": [{"rating": 4.0, "review_count": 1, "name": "1440 Lake Shore Dr Bldg", "url": "https://www.yelp.com/biz/1440-lake-shore-dr-bldg-chicago?adjust_creative=_xGZBQTFH5RSnMk3I7VtQQ&utm_campaign=yelp_api_v3&utm_medium=api_v3_business_search&utm_source=_xGZBQTFH5RSnMk3I7VtQQ", "coordinates": {"latitude": 41.9090042114258, "longitude": -87.626579284668}, "phone": "+13126642428", "image_url": "", "location": {"city": "Chicago", "country": "US", "address2": "", "address3": "", "state": "IL", "address1": "1440 N Lake Shore Dr", "zip_code": "60610"}, "id": "1440-lake-shore-dr-bldg-chicago", "categories": [{"alias": "apartments", "title": "Apartments"}]}]}
{"total": 227, "businesses": [{"rating": 4.0, "review_count": 5, "name": "Global Shoe & Leather Repair", "url": "https://www.yelp.com/biz/global-shoe-and-leather-repair-chicago?adjust_creative=_xGZBQTFH5RSnMk3I7VtQQ&utm_campaign=yelp_api_v3&utm_medium=api_v3_business_search&utm_source=_xGZBQTFH5RSnMk3I7VtQQ", "coordinates": {"latitude": 41.9110336, "longitude": -87.6321869}, "phone": "+13126645555", "image_url": "https://s3-media3.fl.yelpcdn.com/bphoto/4qX_bw8BjIrSUBXNSDK57Q/o.jpg", "location": {"city": "Chicago", "country": "US", "address2": "", "address3": "", "state": "IL", "address1": "115 W North Ave", "zip_code": "60610"}, "id": "global-shoe-and-leather-repair-chicago", "categories": [{"alias": "shoerepair", "title": "Shoe Repair"}]}]}
{"total": 227, "businesses": [{"rating": 2.5, "review_count": 2, "name": "Towers Condominium Association", "url": "https://www.yelp.com/biz/towers-condominium-association-chicago?adjust_creative=_xGZBQTFH5RSnMk3I7VtQQ&utm_campaign=yelp_api_v3&utm_medium=api_v3_business_search&utm_source=_xGZBQTFH5RSnMk3I7VtQQ", "coordinates": {"latitude": 41.9046516418457, "longitude": -87.6296157836914}, "phone": "+13129511221", "image_url": "", "location": {"city": "Chicago", "address1": "1221 N Dearborn St", "address2": "", "address3": "", "state": "IL", "country": "US", "zip_code": "60610"}, "id": "towers-condominium-association-chicago", "categories": [{"alias": "apartments", "title": "Apartments"}]}]}
{"total": 227, "businesses": [{"rating": 2.5, "review_count": 3, "name": "CVS Pharmacy", "url": "https://www.yelp.com/biz/cvs-pharmacy-chicago-31?adjust_creative=_xGZBQTFH5RSnMk3I7VtQQ&utm_campaign=yelp_api_v3&utm_medium=api_v3_business_search&utm_source=_xGZBQTFH5RSnMk3I7VtQQ", "price": "$$", "coordinates": {"latitude": 41.904081077357, "longitude": -87.6285129188576}, "phone": "+13126402842", "image_url": "https://s3-media1.fl.yelpcdn.com/bphoto/lK2cYiCYl3irfyQHnvD93Q/o.jpg", "location": {"city": "Chicago", "country": "US", "address2": "", "address3": "", "state": "IL", "address1": "1201 N State Pkwy", "zip_code": "60610"}, "id": "cvs-pharmacy-chicago-31", "categories": [{"alias": "drugstores", "title": "Drugstores"}]}]}
{"total": 227, "businesses": [{"rating": 2.0, "review_count": 5, "name": "North & Lasalle Shell", "url": "https://www.yelp.com/biz/north-and-lasalle-shell-chicago?adjust_creative=_xGZBQTFH5RSnMk3I7VtQQ&utm_campaign=yelp_api_v3&utm_medium=api_v3_business_search&utm_source=_xGZBQTFH5RSnMk3I7VtQQ", "coordinates": {"latitude": 41.911349955307, "longitude": -87.6327747221885}, "phone": "+13126429111", "image_url": "https://s3-media4.fl.yelpcdn.com/bphoto/0gV7CZ-JApci3EGSWjFWJA/o.jpg", "location": {"city": "Chicago", "address1": "130 W North Avenue", "address2": "", "address3": "", "state": "IL", "country": "US", "zip_code": "60610"}, "id": "north-and-lasalle-shell-chicago", "categories": [{"alias": "servicestations", "title": "Gas & Service Stations"}]}]}
{"total": 227, "businesses": [{"rating": 2.5, "review_count": 2, "name": "Eliot House Condominium Assn", "url": "https://www.yelp.com/biz/eliot-house-condominium-assn-chicago?adjust_creative=_xGZBQTFH5RSnMk3I7VtQQ&utm_campaign=yelp_api_v3&utm_medium=api_v3_business_search&utm_source=_xGZBQTFH5RSnMk3I7VtQQ", "coordinates": {"latitude": 41.90564006567, "longitude": -87.6320493221283}, "phone": "+13124403654", "image_url": "", "location": {"city": "Chicago", "country": "US", "address2": "", "address3": "", "state": "IL", "address1": "1255 N Sandburg Ter", "zip_code": "60610"}, "id": "eliot-house-condominium-assn-chicago", "categories": [{"alias": "localservices", "title": "Local Services"}]}]}
{"total": 227, "businesses": [{"rating": 4.0, "review_count": 1, "name": "LaSalle Towers Apartments", "url": "https://www.yelp.com/biz/lasalle-towers-apartments-chicago?adjust_creative=_xGZBQTFH5RSnMk3I7VtQQ&utm_campaign=yelp_api_v3&utm_medium=api_v3_business_search&utm_source=_xGZBQTFH5RSnMk3I7VtQQ", "coordinates": {"latitude": 41.90439, "longitude": -87.63274}, "phone": "+13126429203", "image_url": "https://s3-media2.fl.yelpcdn.com/bphoto/H55uzYlrQGrAn0zm128u_w/o.jpg", "location": {"city": "Chicago", "country": "US", "address2": null, "address3": "", "state": "IL", "address1": "1211 N LaSalle Dr", "zip_code": "60610"}, "id": "lasalle-towers-apartments-chicago", "categories": [{"alias": "apartments", "title": "Apartments"}]}]}
{"total": 227, "businesses": [{"rating": 4.0, "review_count": 1, "name": "Mother's Shenannigans Corporate Ofcs", "url": "https://www.yelp.com/biz/mothers-shenannigans-corporate-ofcs-chicago?adjust_creative=_xGZBQTFH5RSnMk3I7VtQQ&utm_campaign=yelp_api_v3&utm_medium=api_v3_business_search&utm_source=_xGZBQTFH5RSnMk3I7VtQQ", "coordinates": {"latitude": 41.9039905071259, "longitude": -87.6295106112957}, "phone": "+13126426800", "image_url": "", "location": {"city": "Chicago", "country": "US", "address2": "", "address3": "", "state": "IL", "address1": "22 W Division St", "zip_code": "60610"}, "id": "mothers-shenannigans-corporate-ofcs-chicago", "categories": [{"alias": "danceclubs", "title": "Dance Clubs"}]}]}
{"total": 227, "businesses": [{"rating": 2.0, "review_count": 4, "name": "Weyermuller Properties", "url": "https://www.yelp.com/biz/weyermuller-properties-chicago?adjust_creative=_xGZBQTFH5RSnMk3I7VtQQ&utm_campaign=yelp_api_v3&utm_medium=api_v3_business_search&utm_source=_xGZBQTFH5RSnMk3I7VtQQ", "coordinates": {"latitude": 41.9051322937012, "longitude": -87.6296539306641}, "phone": "+13129447368", "image_url": "", "location": {"city": "Chicago", "address1": "1239 N Dearborn", "address2": "", "address3": "", "state": "IL", "country": "US", "zip_code": "60610"}, "id": "weyermuller-properties-chicago", "categories": [{"alias": "propertymgmt", "title": "Property Management"}]}]}
{"total": 227, "businesses": [{"rating": 3.0, "review_count": 2, "name": "Fashionista Nail Spa & Image Consulting", "url": "https://www.yelp.com/biz/fashionista-nail-spa-and-image-consulting-chicago-2?adjust_creative=_xGZBQTFH5RSnMk3I7VtQQ&utm_campaign=yelp_api_v3&utm_medium=api_v3_business_search&utm_source=_xGZBQTFH5RSnMk3I7VtQQ", "coordinates": {"latitude": 41.9042167663574, "longitude": -87.6273574829102}, "phone": "+13122029004", "image_url": "", "location": {"city": "Chicago", "country": "US", "address2": null, "address3": "", "state": "IL", "address1": "30 E Division", "zip_code": "60610"}, "id": "fashionista-nail-spa-and-image-consulting-chicago-2", "categories": [{"alias": "spas", "title": "Day Spas"}]}]}
{"total": 230, "businesses": [{"rating": 4.0, "review_count": 1, "name": "Mother's Shenannigans Corporate Ofcs", "url": "https://www.yelp.com/biz/mothers-shenannigans-corporate-ofcs-chicago?adjust_creative=_xGZBQTFH5RSnMk3I7VtQQ&utm_campaign=yelp_api_v3&utm_medium=api_v3_business_search&utm_source=_xGZBQTFH5RSnMk3I7VtQQ", "coordinates": {"latitude": 41.9039905071259, "longitude": -87.6295106112957}, "phone": "+13126426800", "image_url": "", "location": {"city": "Chicago", "address1": "22 W Division St", "address2": "", "address3": "", "state": "IL", "country": "US", "zip_code": "60610"}, "id": "mothers-shenannigans-corporate-ofcs-chicago", "categories": [{"alias": "danceclubs", "title": "Dance Clubs"}]}]}
{"total": 227, "businesses": [{"rating": 1.5, "review_count": 8, "name": "University Dental Associates - Gold Coast Office", "url": "https://www.yelp.com/biz/university-dental-associates-gold-coast-office-chicago?adjust_creative=_xGZBQTFH5RSnMk3I7VtQQ&utm_campaign=yelp_api_v3&utm_medium=api_v3_business_search&utm_source=_xGZBQTFH5RSnMk3I7VtQQ", "coordinates": {"latitude": 41.9045524597168, "longitude": -87.628303527832}, "phone": "+13123370004", "image_url": "", "location": {"city": "Chicago", "country": "US", "address2": "", "address3": "", "state": "IL", "address1": "1 E Scott St", "zip_code": "60610"}, "id": "university-dental-associates-gold-coast-office-chicago", "categories": [{"alias": "generaldentistry", "title": "General Dentistry"}]}]}
{"total": 227, "businesses": [{"rating": 2.5, "review_count": 2, "name": "State Parking Garage", "url": "https://www.yelp.com/biz/state-parking-garage-chicago?adjust_creative=_xGZBQTFH5RSnMk3I7VtQQ&utm_campaign=yelp_api_v3&utm_medium=api_v3_business_search&utm_source=_xGZBQTFH5RSnMk3I7VtQQ", "coordinates": {"latitude": 41.9044084, "longitude": -87.6285441}, "phone": "+13129446926", "image_url": "", "location": {"city": "Chicago", "country": "US", "address2": "", "address3": "", "state": "IL", "address1": "1221 N State Pkwy", "zip_code": "60610"}, "id": "state-parking-garage-chicago", "categories": [{"alias": "autorepair", "title": "Auto Repair"}]}]}
{"total": 227, "businesses": [{"rating": 3.0, "review_count": 1, "name": "James Patrick", "url": "https://www.yelp.com/biz/james-patrick-chicago?adjust_creative=_xGZBQTFH5RSnMk3I7VtQQ&utm_campaign=yelp_api_v3&utm_medium=api_v3_business_search&utm_source=_xGZBQTFH5RSnMk3I7VtQQ", "coordinates": {"latitude": 41.9042167663574, "longitude": -87.6273574829102}, "phone": "+13129440410", "image_url": "", "location": {"city": "Chicago", "country": "US", "address2": "", "address3": "", "state": "IL", "address1": "30 E Division Street", "zip_code": "60610"}, "id": "james-patrick-chicago", "categories": [{"alias": "hair", "title": "Hair Salons"}]}]}
{"total": 227, "businesses": [{"rating": 2.0, "review_count": 4, "name": "Lakeside Cleaners", "url": "https://www.yelp.com/biz/lakeside-cleaners-chicago?adjust_creative=_xGZBQTFH5RSnMk3I7VtQQ&utm_campaign=yelp_api_v3&utm_medium=api_v3_business_search&utm_source=_xGZBQTFH5RSnMk3I7VtQQ", "price": "$$", "coordinates": {"latitude": 41.9042821, "longitude": -87.6298141}, "phone": "+13126549560", "image_url": "", "location": {"city": "Chicago", "country": "US", "address2": "", "address3": "", "state": "IL", "address1": "1207 N Dearborn St", "zip_code": "60610"}, "id": "lakeside-cleaners-chicago", "categories": [{"alias": "drycleaninglaundry", "title": "Dry Cleaning & Laundry"}]}]}
{"total": 227, "businesses": [{"rating": 2.5, "review_count": 2, "name": "LifeSource - Chicagoland's Blood Center", "url": "https://www.yelp.com/biz/lifesource-chicagolands-blood-center-chicago?adjust_creative=_xGZBQTFH5RSnMk3I7VtQQ&utm_campaign=yelp_api_v3&utm_medium=api_v3_business_search&utm_source=_xGZBQTFH5RSnMk3I7VtQQ", "coordinates": {"latitude": 41.9045376777649, "longitude": -87.6328687369823}, "phone": "+18775433768", "image_url": "", "location": {"city": "Chicago", "country": "US", "address2": "1221 N LaSalle Dr", "address3": "", "state": "IL", "address1": "LaSalle Donor Center", "zip_code": "60610"}, "id": "lifesource-chicagolands-blood-center-chicago", "categories": [{"alias": "blooddonation", "title": "Blood & Plasma Donation Centers"}]}]}
{"total": 227, "businesses": [{"rating": 2.0, "review_count": 1, "name": "WTTW Kids Fun and Run", "url": "https://www.yelp.com/biz/wttw-kids-fun-and-run-chicago?adjust_creative=_xGZBQTFH5RSnMk3I7VtQQ&utm_campaign=yelp_api_v3&utm_medium=api_v3_business_search&utm_source=_xGZBQTFH5RSnMk3I7VtQQ", "coordinates": {"latitude": 41.9146843, "longitude": -87.6325607}, "phone": "+17735095333", "image_url": "", "location": {"city": "Chicago", "country": "US", "address2": "1700 N. Stockton", "address3": "", "state": "IL", "address1": "Lincoln Park", "zip_code": "60614"}, "id": "wttw-kids-fun-and-run-chicago", "categories": [{"alias": "active", "title": "Active Life"}]}]}
{"total": 227, "businesses": [{"rating": 3.0, "review_count": 6, "name": "Sheen Cleaners", "url": "https://www.yelp.com/biz/sheen-cleaners-chicago?adjust_creative=_xGZBQTFH5RSnMk3I7VtQQ&utm_campaign=yelp_api_v3&utm_medium=api_v3_business_search&utm_source=_xGZBQTFH5RSnMk3I7VtQQ", "price": "$", "coordinates": {"latitude": 41.9105751, "longitude": -87.6318338}, "phone": "+13126648020", "image_url": "https://s3-media3.fl.yelpcdn.com/bphoto/sXvjMdExpVeDuLMfgA6iMw/o.jpg", "location": {"city": "Chicago", "country": "US", "address2": "", "address3": "", "state": "IL", "address1": "1542 N Clark St", "zip_code": "60610"}, "id": "sheen-cleaners-chicago", "categories": [{"alias": "drycleaninglaundry", "title": "Dry Cleaning & Laundry"}, {"alias": "sewingalterations", "title": "Sewing & Alterations"}]}]}
{"total": 227, "businesses": [{"rating": 5.0, "review_count": 1, "name": "Lorenzo Tanbour", "url": "https://www.yelp.com/biz/lorenzo-tanbour-chicago?adjust_creative=_xGZBQTFH5RSnMk3I7VtQQ&utm_campaign=yelp_api_v3&utm_medium=api_v3_business_search&utm_source=_xGZBQTFH5RSnMk3I7VtQQ", "coordinates": {"latitude": 41.9080924987793, "longitude": -87.6263961791992}, "phone": "+17734144367", "image_url": "https://s3-media4.fl.yelpcdn.com/bphoto/ycEiBDQr17094kbgzU8bZQ/o.jpg", "location": {"city": "Chicago", "country": "US", "address2": "", "address3": "", "state": "IL", "address1": "1400 N Lakeshore Dr", "zip_code": "60610"}, "id": "lorenzo-tanbour-chicago", "categories": [{"alias": "hairstylists", "title": "Hair Stylists"}, {"alias": "hair_extensions", "title": "Hair Extensions"}, {"alias": "blowoutservices", "title": "Blow Dry/Out Services"}]}]}
{"total": 227, "businesses": [{"rating": 5.0, "review_count": 3, "name": "Contemporary Preschool", "url": "https://www.yelp.com/biz/contemporary-preschool-chicago?adjust_creative=_xGZBQTFH5RSnMk3I7VtQQ&utm_campaign=yelp_api_v3&utm_medium=api_v3_business_search&utm_source=_xGZBQTFH5RSnMk3I7VtQQ", "coordinates": {"latitude": 41.9080924987793, "longitude": -87.6263961791992}, "phone": "+13126313477", "image_url": "https://s3-media2.fl.yelpcdn.com/bphoto/Z1qiBK--up1cdfqfMOpVkw/o.jpg", "location": {"city": "Chicago", "country": "US", "address2": null, "address3": "", "state": "IL", "address1": "1400 N Lakeshore Dr", "zip_code": "60610"}, "id": "contemporary-preschool-chicago", "categories": [{"alias": "preschools", "title": "Preschools"}, {"alias": "childcare", "title": "Child Care & Day Care"}]}]}
{"total": 230, "businesses": [{"rating": 3.0, "review_count": 6, "name": "Sheen Cleaners", "url": "https://www.yelp.com/biz/sheen-cleaners-chicago?adjust_creative=_xGZBQTFH5RSnMk3I7VtQQ&utm_campaign=yelp_api_v3&utm_medium=api_v3_business_search&utm_source=_xGZBQTFH5RSnMk3I7VtQQ", "price": "$", "coordinates": {"latitude": 41.9105751, "longitude": -87.6318338}, "phone": "+13126648020", "image_url": "https://s3-media3.fl.yelpcdn.com/bphoto/sXvjMdExpVeDuLMfgA6iMw/o.jpg", "location": {"city": "Chicago", "country": "US", "address2": "", "address3": "", "state": "IL", "address1": "1542 N Clark St", "zip_code": "60610"}, "id": "sheen-cleaners-chicago", "categories": [{"alias": "drycleaninglaundry", "title": "Dry Cleaning & Laundry"}, {"alias": "sewingalterations", "title": "Sewing & Alterations"}]}]}
{"total": 227, "businesses": [{"rating": 2.0, "review_count": 1, "name": "Burdyke", "url": "https://www.yelp.com/biz/burdyke-chicago?adjust_creative=_xGZBQTFH5RSnMk3I7VtQQ&utm_campaign=yelp_api_v3&utm_medium=api_v3_business_search&utm_source=_xGZBQTFH5RSnMk3I7VtQQ", "coordinates": {"latitude": 41.9051361083984, "longitude": -87.6278915405273}, "phone": "+13129430289", "image_url": "", "location": {"city": "Chicago", "country": "US", "address2": "", "address3": "", "state": "IL", "address1": "20 E Scott St", "zip_code": "60610"}, "id": "burdyke-chicago", "categories": [{"alias": "propertymgmt", "title": "Property Management"}]}]}
{"total": 227, "businesses": [{"rating": 1.5, "review_count": 3, "name": "Walgreens", "url": "https://www.yelp.com/biz/walgreens-chicago-239?adjust_creative=_xGZBQTFH5RSnMk3I7VtQQ&utm_campaign=yelp_api_v3&utm_medium=api_v3_business_search&utm_source=_xGZBQTFH5RSnMk3I7VtQQ", "price": "$$", "coordinates": {"latitude": 41.9040669387173, "longitude": -87.6301923862971}, "phone": "+13129430973", "image_url": "", "location": {"city": "Chicago", "country": "US", "address2": "", "address3": "", "state": "IL", "address1": "1200 N Dearborn St", "zip_code": "60610"}, "id": "walgreens-chicago-239", "categories": [{"alias": "drugstores", "title": "Drugstores"}]}]}
{"total": 227, "businesses": [{"rating": 3.5, "review_count": 3, "name": "Flow Basketball Academy", "url": "https://www.yelp.com/biz/flow-basketball-academy-chicago?adjust_creative=_xGZBQTFH5RSnMk3I7VtQQ&utm_campaign=yelp_api_v3&utm_medium=api_v3_business_search&utm_source=_xGZBQTFH5RSnMk3I7VtQQ", "coordinates": {"latitude": 41.9112977748103, "longitude": -87.6318441362805}, "phone": "+13126362177", "image_url": "https://s3-media3.fl.yelpcdn.com/bphoto/8LAZieufNuv4Z6_1wiGRvw/o.jpg", "location": {"city": "Chicago", "country": "US", "address2": null, "address3": "", "state": "IL", "address1": "59 W North Ave", "zip_code": "60614"}, "id": "flow-basketball-academy-chicago", "categories": [{"alias": "sports_clubs", "title": "Sports Clubs"}]}]}
{"total": 230, "businesses": [{"rating": 2.0, "review_count": 1, "name": "Burdyke", "url": "https://www.yelp.com/biz/burdyke-chicago?adjust_creative=_xGZBQTFH5RSnMk3I7VtQQ&utm_campaign=yelp_api_v3&utm_medium=api_v3_business_search&utm_source=_xGZBQTFH5RSnMk3I7VtQQ", "coordinates": {"latitude": 41.9051361083984, "longitude": -87.6278915405273}, "phone": "+13129430289", "image_url": "", "location": {"city": "Chicago", "address1": "20 E Scott St", "address2": "", "address3": "", "state": "IL", "country": "US", "zip_code": "60610"}, "id": "burdyke-chicago", "categories": [{"alias": "propertymgmt", "title": "Property Management"}]}]}
{"total": 227, "businesses": [{"rating": 3.0, "review_count": 2, "name": "Eon Clinics - Chicago", "url": "https://www.yelp.com/biz/eon-clinics-chicago-chicago?adjust_creative=_xGZBQTFH5RSnMk3I7VtQQ&utm_campaign=yelp_api_v3&utm_medium=api_v3_business_search&utm_source=_xGZBQTFH5RSnMk3I7VtQQ", "coordinates": {"latitude": 41.9044225, "longitude": -87.6285183}, "phone": "+13123375868", "image_url": "https://s3-media1.fl.yelpcdn.com/bphoto/molVz0JNBkZl2_v6y2WB2g/o.jpg", "location": {"city": "Chicago", "country": "US", "address2": "", "address3": "", "state": "IL", "address1": "1221 N State Pkwy", "zip_code": "60610"}, "id": "eon-clinics-chicago-chicago", "categories": [{"alias": "oralsurgeons", "title": "Oral Surgeons"}, {"alias": "prosthodontists", "title": "Prosthodontists"}]}]}
{"total": 230, "businesses": [{"rating": 3.5, "review_count": 3, "name": "Flow Basketball Academy", "url": "https://www.yelp.com/biz/flow-basketball-academy-chicago?adjust_creative=_xGZBQTFH5RSnMk3I7VtQQ&utm_campaign=yelp_api_v3&utm_medium=api_v3_business_search&utm_source=_xGZBQTFH5RSnMk3I7VtQQ", "coordinates": {"latitude": 41.9112977748103, "longitude": -87.6318441362805}, "phone": "+13126362177", "image_url": "https://s3-media3.fl.yelpcdn.com/bphoto/8LAZieufNuv4Z6_1wiGRvw/o.jpg", "location": {"city": "Chicago", "address1": "59 W North Ave", "address2": null, "address3": "", "state": "IL", "country": "US", "zip_code": "60614"}, "id": "flow-basketball-academy-chicago", "categories": [{"alias": "sports_clubs", "title": "Sports Clubs"}]}]}
{"total": 227, "businesses": [{"rating": 1.0, "review_count": 2, "name": "City Locksmith", "url": "https://www.yelp.com/biz/city-locksmith-chicago?adjust_creative=_xGZBQTFH5RSnMk3I7VtQQ&utm_campaign=yelp_api_v3&utm_medium=api_v3_business_search&utm_source=_xGZBQTFH5RSnMk3I7VtQQ", "coordinates": {"latitude": 41.906189, "longitude": -87.626282}, "phone": "+13129243699", "image_url": "https://s3-media1.fl.yelpcdn.com/bphoto/WMmGKtRbOXWDHrdxdxJpWQ/o.jpg", "location": {"city": "Chicago", "country": "US", "address2": null, "address3": "", "state": "IL", "address1": "1313 N Ritchie Ct", "zip_code": "60610"}, "id": "city-locksmith-chicago", "categories": [{"alias": "locksmiths", "title": "Keys & Locksmiths"}]}]}
{"total": 230, "businesses": [{"rating": 3.0, "review_count": 2, "name": "Eon Clinics - Chicago", "url": "https://www.yelp.com/biz/eon-clinics-chicago-chicago?adjust_creative=_xGZBQTFH5RSnMk3I7VtQQ&utm_campaign=yelp_api_v3&utm_medium=api_v3_business_search&utm_source=_xGZBQTFH5RSnMk3I7VtQQ", "coordinates": {"latitude": 41.9044225, "longitude": -87.6285183}, "phone": "+13123375868", "image_url": "https://s3-media1.fl.yelpcdn.com/bphoto/molVz0JNBkZl2_v6y2WB2g/o.jpg", "location": {"city": "Chicago", "country": "US", "address2": "", "address3": "", "state": "IL", "address1": "1221 N State Pkwy", "zip_code": "60610"}, "id": "eon-clinics-chicago-chicago", "categories": [{"alias": "oralsurgeons", "title": "Oral Surgeons"}, {"alias": "prosthodontists", "title": "Prosthodontists"}]}]}
{"total": 227, "businesses": [{"rating": 1.0, "review_count": 7, "name": "TCF Bank", "url": "https://www.yelp.com/biz/tcf-bank-chicago-7?adjust_creative=_xGZBQTFH5RSnMk3I7VtQQ&utm_campaign=yelp_api_v3&utm_medium=api_v3_business_search&utm_source=_xGZBQTFH5RSnMk3I7VtQQ", "coordinates": {"latitude": 41.9042549133301, "longitude": -87.6317977905273}, "phone": "+13125733911", "image_url": "", "location": {"city": "Chicago", "country": "US", "address2": "", "address3": "", "state": "IL", "address1": "1210 N Clark", "zip_code": "60610"}, "id": "tcf-bank-chicago-7", "categories": [{"alias": "banks", "title": "Banks & Credit Unions"}]}]}
{"total": 227, "businesses": [{"rating": 4.0, "review_count": 1, "name": "Astor Towers Condo Assn", "url": "https://www.yelp.com/biz/astor-towers-condo-assn-chicago?adjust_creative=_xGZBQTFH5RSnMk3I7VtQQ&utm_campaign=yelp_api_v3&utm_medium=api_v3_business_search&utm_source=_xGZBQTFH5RSnMk3I7VtQQ", "coordinates": {"latitude": 41.9060211181641, "longitude": -87.6276626586914}, "phone": "+13126640166", "image_url": "https://s3-media4.fl.yelpcdn.com/bphoto/Qrv2eOcXN6Q1q7ABVkG93A/o.jpg", "location": {"city": "Chicago", "country": "US", "address2": "", "address3": "", "state": "IL", "address1": "1300 N Astor St", "zip_code": "60610"}, "id": "astor-towers-condo-assn-chicago", "categories": [{"alias": "apartments", "title": "Apartments"}]}]}
{"total": 227, "businesses": [{"rating": 5.0, "review_count": 1, "name": "Re/max Premier Properties", "url": "https://www.yelp.com/biz/re-max-premier-properties-chicago?adjust_creative=_xGZBQTFH5RSnMk3I7VtQQ&utm_campaign=yelp_api_v3&utm_medium=api_v3_business_search&utm_source=_xGZBQTFH5RSnMk3I7VtQQ", "coordinates": {"latitude": 41.904213, "longitude": -87.6298141}, "phone": "+13124751717", "image_url": "https://s3-media1.fl.yelpcdn.com/bphoto/Sg4MrKwvfoNkMjk8qg8f7w/o.jpg", "location": {"city": "Chicago", "country": "US", "address2": null, "address3": "", "state": "IL", "address1": "1205 N. Dearborn", "zip_code": "60610"}, "id": "re-max-premier-properties-chicago", "categories": [{"alias": "realestatesvcs", "title": "Real Estate Services"}]}]}
{"total": 227, "businesses": [{"rating": 1.0, "review_count": 1, "name": "Latsko Properties", "url": "https://www.yelp.com/biz/latsko-properties-chicago?adjust_creative=_xGZBQTFH5RSnMk3I7VtQQ&utm_campaign=yelp_api_v3&utm_medium=api_v3_business_search&utm_source=_xGZBQTFH5RSnMk3I7VtQQ", "coordinates": {"latitude": 41.9087, "longitude": -87.63055}, "phone": "+13123374002", "image_url": "", "location": {"city": "Chicago", "country": "US", "address2": "", "address3": "", "state": "IL", "address1": "1430 N Dearborn St", "zip_code": "60610"}, "id": "latsko-properties-chicago", "categories": []}]}
{"total": 230, "businesses": [{"rating": 4.0, "review_count": 1, "name": "Astor Towers Condo Assn", "url": "https://www.yelp.com/biz/astor-towers-condo-assn-chicago?adjust_creative=_xGZBQTFH5RSnMk3I7VtQQ&utm_campaign=yelp_api_v3&utm_medium=api_v3_business_search&utm_source=_xGZBQTFH5RSnMk3I7VtQQ", "coordinates": {"latitude": 41.9060211181641, "longitude": -87.6276626586914}, "phone": "+13126640166", "image_url": "https://s3-media4.fl.yelpcdn.com/bphoto/Qrv2eOcXN6Q1q7ABVkG93A/o.jpg", "location": {"city": "Chicago", "address1": "1300 N Astor St", "address2": "", "address3": "", "state": "IL", "country": "US", "zip_code": "60610"}, "id": "astor-towers-condo-assn-chicago", "categories": [{"alias": "apartments", "title": "Apartments"}]}]}
{"total": 227, "businesses": [{"rating": 1.0, "review_count": 12, "name": "Clear Internet Speed - Clearwire", "url": "https://www.yelp.com/biz/clear-internet-speed-clearwire-chicago?adjust_creative=_xGZBQTFH5RSnMk3I7VtQQ&utm_campaign=yelp_api_v3&utm_medium=api_v3_business_search&utm_source=_xGZBQTFH5RSnMk3I7VtQQ", "coordinates": {"latitude": 41.9039242, "longitude": -87.6314134}, "phone": "+17733538523", "image_url": "", "location": {"city": "Chicago", "country": "US", "address2": "", "address3": "", "state": "IL", "address1": "1201 N. Clark Street", "zip_code": "60610"}, "id": "clear-internet-speed-clearwire-chicago", "categories": [{"alias": "isps", "title": "Internet Service Providers"}]}]}
{"total": 230, "businesses": [{"rating": 1.0, "review_count": 1, "name": "Latsko Properties", "url": "https://www.yelp.com/biz/latsko-properties-chicago?adjust_creative=_xGZBQTFH5RSnMk3I7VtQQ&utm_campaign=yelp_api_v3&utm_medium=api_v3_business_search&utm_source=_xGZBQTFH5RSnMk3I7VtQQ", "coordinates": {"latitude": 41.9087, "longitude": -87.63055}, "phone": "+13123374002", "image_url": "", "location": {"city": "Chicago", "country": "US", "address2": "", "address3": "", "state": "IL", "address1": "1430 N Dearborn St", "zip_code": "60610"}, "id": "latsko-properties-chicago", "categories": []}]}
{"total": 227, "businesses": [{"rating": 1.0, "review_count": 1, "name": "Carl Sandburg Village Hoa", "url": "https://www.yelp.com/biz/carl-sandburg-village-hoa-chicago-2?adjust_creative=_xGZBQTFH5RSnMk3I7VtQQ&utm_campaign=yelp_api_v3&utm_medium=api_v3_business_search&utm_source=_xGZBQTFH5RSnMk3I7VtQQ", "coordinates": {"latitude": 41.90705, "longitude": -87.6320151}, "phone": "+13124403840", "image_url": "", "location": {"city": "Chicago", "country": "US", "address2": "", "address3": "", "state": "IL", "address1": "1355 N Sandburg Ter Ste 104", "zip_code": "60610"}, "id": "carl-sandburg-village-hoa-chicago-2", "categories": []}]}
{"total": 230, "businesses": [{"rating": 1.0, "review_count": 12, "name": "Clear Internet Speed - Clearwire", "url": "https://www.yelp.com/biz/clear-internet-speed-clearwire-chicago?adjust_creative=_xGZBQTFH5RSnMk3I7VtQQ&utm_campaign=yelp_api_v3&utm_medium=api_v3_business_search&utm_source=_xGZBQTFH5RSnMk3I7VtQQ", "coordinates": {"latitude": 41.9039242, "longitude": -87.6314134}, "phone": "+17733538523", "image_url": "", "location": {"city": "Chicago", "country": "US", "address2": "", "address3": "", "state": "IL", "address1": "1201 N. Clark Street", "zip_code": "60610"}, "id": "clear-internet-speed-clearwire-chicago", "categories": [{"alias": "isps", "title": "Internet Service Providers"}]}]}
{"total": 227, "businesses": [{"rating": 5.0, "review_count": 1, "name": "Pioneer Parking", "url": "https://www.yelp.com/biz/pioneer-parking-chicago?adjust_creative=_xGZBQTFH5RSnMk3I7VtQQ&utm_campaign=yelp_api_v3&utm_medium=api_v3_business_search&utm_source=_xGZBQTFH5RSnMk3I7VtQQ", "coordinates": {"latitude": 41.90705, "longitude": -87.62793}, "phone": "+13123374283", "image_url": "", "location": {"city": "Chicago", "country": "US", "address2": "", "address3": "", "state": "IL", "address1": "1340 N Astor St", "zip_code": "60610"}, "id": "pioneer-parking-chicago", "categories": [{"alias": "parking", "title": "Parking"}]}]}
{"total": 227, "businesses": [{"rating": 1.0, "review_count": 1, "name": "Spivy Dixon F MD", "url": "https://www.yelp.com/biz/spivy-dixon-f-md-chicago?adjust_creative=_xGZBQTFH5RSnMk3I7VtQQ&utm_campaign=yelp_api_v3&utm_medium=api_v3_business_search&utm_source=_xGZBQTFH5RSnMk3I7VtQQ", "coordinates": {"latitude": 41.9061622619629, "longitude": -87.6258239746094}, "phone": "+13129447050", "image_url": "", "location": {"city": "Chicago", "country": "US", "address2": "", "address3": "", "state": "IL", "address1": "1300 N Lake Shore Dr", "zip_code": "60610"}, "id": "spivy-dixon-f-md-chicago", "categories": [{"alias": "physicians", "title": "Doctors"}]}]}
{"total": 227, "businesses": [{"rating": 1.0, "review_count": 1, "name": "Shenanagan's", "url": "https://www.yelp.com/biz/shenanagans-chicago?adjust_creative=_xGZBQTFH5RSnMk3I7VtQQ&utm_campaign=yelp_api_v3&utm_medium=api_v3_business_search&utm_source=_xGZBQTFH5RSnMk3I7VtQQ", "coordinates": {"latitude": 41.9041862487793, "longitude": -87.6296005249023}, "phone": "+13122803281", "image_url": "https://s3-media3.fl.yelpcdn.com/bphoto/bvExrv8su8IwqyUYi1pBmQ/o.jpg", "location": {"city": "Chicago", "country": "US", "address2": "", "address3": "", "state": "IL", "address1": "16 W Division Street", "zip_code": "60610"}, "id": "shenanagans-chicago", "categories": []}]}
{"total": 227, "businesses": [{"rating": 1.0, "review_count": 1, "name": "Sandburg Realty", "url": "https://www.yelp.com/biz/sandburg-realty-chicago?adjust_creative=_xGZBQTFH5RSnMk3I7VtQQ&utm_campaign=yelp_api_v3&utm_medium=api_v3_business_search&utm_source=_xGZBQTFH5RSnMk3I7VtQQ", "coordinates": {"latitude": 41.9070396, "longitude": -87.6322861}, "phone": "+13124200779", "image_url": "", "location": {"city": "Chicago", "address1": "1360 N Sandburg Terrace", "address2": "", "address3": "", "state": "IL", "country": "US", "zip_code": "60610"}, "id": "sandburg-realty-chicago", "categories": [{"alias": "realestate", "title": "Real Estate"}]}]}
{"total": 230, "businesses": [{"rating": 1.0, "review_count": 1, "name": "Spivy Dixon F MD", "url": "https://www.yelp.com/biz/spivy-dixon-f-md-chicago?adjust_creative=_xGZBQTFH5RSnMk3I7VtQQ&utm_campaign=yelp_api_v3&utm_medium=api_v3_business_search&utm_source=_xGZBQTFH5RSnMk3I7VtQQ", "coordinates": {"latitude": 41.9061622619629, "longitude": -87.6258239746094}, "phone": "+13129447050", "image_url": "", "location": {"city": "Chicago", "country": "US", "address2": "", "address3": "", "state": "IL", "address1": "1300 N Lake Shore Dr", "zip_code": "60610"}, "id": "spivy-dixon-f-md-chicago", "categories": [{"alias": "physicians", "title": "Doctors"}]}]}
{"total": 227, "businesses": [{"rating": 5.0, "review_count": 1, "name": "Culhane Dorothy M PC", "url": "https://www.yelp.com/biz/culhane-dorothy-m-pc-chicago?adjust_creative=_xGZBQTFH5RSnMk3I7VtQQ&utm_campaign=yelp_api_v3&utm_medium=api_v3_business_search&utm_source=_xGZBQTFH5RSnMk3I7VtQQ", "coordinates": {"latitude": 41.90705, "longitude": -87.6320151}, "phone": "+13128673000", "image_url": "", "location": {"city": "Chicago", "country": "US", "address2": "", "address3": "", "state": "IL", "address1": "1355 N Sandburg Ter Apt 2405", "zip_code": "60610"}, "id": "culhane-dorothy-m-pc-chicago", "categories": [{"alias": "lawyers", "title": "Lawyers"}]}]}
{"total": 227, "businesses": [{"rating": 1.0, "review_count": 1, "name": "All Flat Roofs Chicago", "url": "https://www.yelp.com/biz/all-flat-roofs-chicago-chicago?adjust_creative=_xGZBQTFH5RSnMk3I7VtQQ&utm_campaign=yelp_api_v3&utm_medium=api_v3_business_search&utm_source=_xGZBQTFH5RSnMk3I7VtQQ", "coordinates": {"latitude": 41.9043982028961, "longitude": -87.6328640431166}, "phone": "+13128787780", "image_url": "https://s3-media3.fl.yelpcdn.com/bphoto/-qu4CGDIjpqqlxke5-8hFQ/o.jpg", "location": {"city": "Chicago", "country": "US", "address2": null, "address3": "", "state": "IL", "address1": "1211 N La Salle St", "zip_code": "60610"}, "id": "all-flat-roofs-chicago-chicago", "categories": [{"alias": "roofing", "title": "Roofing"}]}]}
{"total": 227, "businesses": [{"rating": 1.0, "review_count": 1, "name": "Lubavitch Chabad of Lincoln Park", "url": "https://www.yelp.com/biz/lubavitch-chabad-of-lincoln-park-chicago?adjust_creative=_xGZBQTFH5RSnMk3I7VtQQ&utm_campaign=yelp_api_v3&utm_medium=api_v3_business_search&utm_source=_xGZBQTFH5RSnMk3I7VtQQ", "coordinates": {"latitude": 41.9050299, "longitude": -87.63045}, "phone": "+13126647770", "image_url": "", "location": {"city": "Chicago", "address1": "1236 N Dearborn Street", "address2": "", "address3": "", "state": "IL", "country": "US", "zip_code": "60610"}, "id": "lubavitch-chabad-of-lincoln-park-chicago", "categories": [{"alias": "synagogues", "title": "Synagogues"}]}]}
{"total": 230, "businesses": [{"rating": 5.0, "review_count": 1, "name": "Culhane Dorothy M PC", "url": "https://www.yelp.com/biz/culhane-dorothy-m-pc-chicago?adjust_creative=_xGZBQTFH5RSnMk3I7VtQQ&utm_campaign=yelp_api_v3&utm_medium=api_v3_business_search&utm_source=_xGZBQTFH5RSnMk3I7VtQQ", "coordinates": {"latitude": 41.90705, "longitude": -87.6320151}, "phone": "+13128673000", "image_url": "", "location": {"city": "Chicago", "country": "US", "address2": "", "address3": "", "state": "IL", "address1": "1355 N Sandburg Ter Apt 2405", "zip_code": "60610"}, "id": "culhane-dorothy-m-pc-chicago", "categories": [{"alias": "lawyers", "title": "Lawyers"}]}]}
{"total": 227, "businesses": [{"rating": 1.0, "review_count": 1, "name": "Windy City Window Washing", "url": "https://www.yelp.com/biz/windy-city-window-washing-chicago?adjust_creative=_xGZBQTFH5RSnMk3I7VtQQ&utm_campaign=yelp_api_v3&utm_medium=api_v3_business_search&utm_source=_xGZBQTFH5RSnMk3I7VtQQ", "coordinates": {"latitude": 41.904129, "longitude": -87.63105}, "phone": "+13123351300", "image_url": "", "location": {"city": "Chicago", "country": "US", "address2": "Ste 202", "address3": "", "state": "IL", "address1": "1201 N Clark St", "zip_code": "60610"}, "id": "windy-city-window-washing-chicago", "categories": [{"alias": "windowwashing", "title": "Window Washing"}]}]}
{"total": 227, "businesses": [{"rating": 5.0, "review_count": 1, "name": "Millie Bursac", "url": "https://www.yelp.com/biz/millie-bursac-chicago?adjust_creative=_xGZBQTFH5RSnMk3I7VtQQ&utm_campaign=yelp_api_v3&utm_medium=api_v3_business_search&utm_source=_xGZBQTFH5RSnMk3I7VtQQ", "coordinates": {"latitude": 41.904213, "longitude": -87.6298141}, "phone": "+13128826635", "image_url": "", "location": {"city": "Chicago", "country": "US", "address2": "1205 N Dearborn St", "address3": "", "state": "IL", "address1": "Gold Coast Realty", "zip_code": "60610"}, "id": "millie-bursac-chicago", "categories": [{"alias": "realestateagents", "title": "Real Estate Agents"}]}]}
{"total": 227, "businesses": [{"rating": 4.0, "review_count": 2, "name": "Four Seasons Heating & Air Conditioning", "url": "https://www.yelp.com/biz/four-seasons-heating-and-air-conditioning-lake-bluff?adjust_creative=_xGZBQTFH5RSnMk3I7VtQQ&utm_campaign=yelp_api_v3&utm_medium=api_v3_business_search&utm_source=_xGZBQTFH5RSnMk3I7VtQQ", "coordinates": {"latitude": 42.2788696289062, "longitude": -87.8443908691406}, "phone": "+18475725507", "image_url": "", "location": {"city": "Lake Bluff", "country": "US", "address2": "", "address3": "", "state": "IL", "address1": "", "zip_code": "60614"}, "id": "four-seasons-heating-and-air-conditioning-lake-bluff", "categories": [{"alias": "hvac", "title": "Heating & Air Conditioning/HVAC"}]}]}
{"total": 227, "businesses": [{"rating": 4.5, "review_count": 6, "name": "CertaPro Painters of Chicago-Central", "url": "https://www.yelp.com/biz/certapro-painters-of-chicago-central-chicago?adjust_creative=_xGZBQTFH5RSnMk3I7VtQQ&utm_campaign=yelp_api_v3&utm_medium=api_v3_business_search&utm_source=_xGZBQTFH5RSnMk3I7VtQQ", "coordinates": {"latitude": 41.91163, "longitude": -87.67972}, "phone": "+18666707549", "image_url": "https://s3-media4.fl.yelpcdn.com/bphoto/oeEvkD5QlmBzECCdKKyKcw/o.jpg", "location": {"city": "Chicago", "country": "US", "address2": "Suite 107", "address3": null, "state": "IL", "address1": "1658 North Milwaukee Ave", "zip_code": "60647"}, "id": "certapro-painters-of-chicago-central-chicago", "categories": [{"alias": "painters", "title": "Painters"}]}]}
{"total": 227, "businesses": [{"rating": 5.0, "review_count": 21, "name": "SpeedPro Chicago", "url": "https://www.yelp.com/biz/speedpro-chicago-chicago-3?adjust_creative=_xGZBQTFH5RSnMk3I7VtQQ&utm_campaign=yelp_api_v3&utm_medium=api_v3_business_search&utm_source=_xGZBQTFH5RSnMk3I7VtQQ", "coordinates": {"latitude": 41.886983, "longitude": -87.680687}, "phone": "+13124927760", "image_url": "https://s3-media1.fl.yelpcdn.com/bphoto/3yJQFAnI2GjpjbBbgxd5LA/o.jpg", "location": {"city": "Chicago", "country": "US", "address2": "Ste E", "address3": "", "state": "IL", "address1": "2130 W Fulton St", "zip_code": "60612"}, "id": "speedpro-chicago-chicago-3", "categories": [{"alias": "copyshops", "title": "Printing Services"}, {"alias": "graphicdesign", "title": "Graphic Design"}, {"alias": "vehiclewraps", "title": "Vehicle Wraps"}]}]}
{"total": 227, "businesses": [{"rating": 4.5, "review_count": 62, "name": "Wiggley Walkers", "url": "https://www.yelp.com/biz/wiggley-walkers-chicago?adjust_creative=_xGZBQTFH5RSnMk3I7VtQQ&utm_campaign=yelp_api_v3&utm_medium=api_v3_business_search&utm_source=_xGZBQTFH5RSnMk3I7VtQQ", "coordinates": {"latitude": 41.944321, "longitude": -87.682991}, "phone": "+13129722326", "image_url": "https://s3-media3.fl.yelpcdn.com/bphoto/67KxASJQIe-BKwUY2hPjHg/o.jpg", "location": {"city": "Chicago", "address1": "3439 N Leavitt St", "address2": "", "address3": "", "state": "IL", "country": "US", "zip_code": "60618"}, "id": "wiggley-walkers-chicago", "categories": [{"alias": "dogwalkers", "title": "Dog Walkers"}, {"alias": "pet_sitting", "title": "Pet Boarding/Pet Sitting"}]}]}
{"total": 227, "businesses": [{"rating": 5.0, "review_count": 3, "name": "Chicago Chariot", "url": "https://www.yelp.com/biz/chicago-chariot-chicago?adjust_creative=_xGZBQTFH5RSnMk3I7VtQQ&utm_campaign=yelp_api_v3&utm_medium=api_v3_business_search&utm_source=_xGZBQTFH5RSnMk3I7VtQQ", "coordinates": {"latitude": 41.8768271058798, "longitude": -87.6240992546082}, "phone": "+13127210539", "image_url": "https://s3-media1.fl.yelpcdn.com/bphoto/u8eYgCOASnMpkDTecW0VWw/o.jpg", "location": {"city": "Chicago", "country": "US", "address2": "", "address3": "", "state": "IL", "address1": "411 S Michigan Ave", "zip_code": "60605"}, "id": "chicago-chariot-chicago", "categories": [{"alias": "architecturaltours", "title": "Architectural Tours"}, {"alias": "historicaltours", "title": "Historical Tours"}]}]}
{"total": 227, "businesses": [{"rating": 4.0, "review_count": 33, "name": "Chicago Custom Remodeling", "url": "https://www.yelp.com/biz/chicago-custom-remodeling-chicago?adjust_creative=_xGZBQTFH5RSnMk3I7VtQQ&utm_campaign=yelp_api_v3&utm_medium=api_v3_business_search&utm_source=_xGZBQTFH5RSnMk3I7VtQQ", "coordinates": {"latitude": 41.858309, "longitude": -87.647367}, "phone": "+17082999187", "image_url": "https://s3-media4.fl.yelpcdn.com/bphoto/sfgSnWKwILPs9sF-Wl4Ahw/o.jpg", "location": {"city": "Chicago", "country": "US", "address2": "", "address3": "", "state": "IL", "address1": "816 W 18th St", "zip_code": "60608"}, "id": "chicago-custom-remodeling-chicago", "categories": [{"alias": "contractors", "title": "Contractors"}]}]}
{"total": 227, "businesses": [{"rating": 5.0, "review_count": 1, "name": "Barbara Biederman", "url": "https://www.yelp.com/biz/barbara-biederman-chicago?adjust_creative=_xGZBQTFH5RSnMk3I7VtQQ&utm_campaign=yelp_api_v3&utm_medium=api_v3_business_search&utm_source=_xGZBQTFH5RSnMk3I7VtQQ", "coordinates": {"latitude": 41.8842506408691, "longitude": -87.6324462890625}, "phone": "+17739145309", "image_url": "https://s3-media3.fl.yelpcdn.com/bphoto/7g4iiUPweteG5FufCJI5XQ/o.jpg", "location": {"city": "Chicago", "country": "US", "address2": null, "address3": null, "state": "IL", "address1": "", "zip_code": ""}, "id": "barbara-biederman-chicago", "categories": [{"alias": "realestateagents", "title": "Real Estate Agents"}]}]}
{"total": 227, "businesses": [{"rating": 4.0, "review_count": 39, "name": "Andco Management, Ltd.", "url": "https://www.yelp.com/biz/andco-management-ltd-chicago?adjust_creative=_xGZBQTFH5RSnMk3I7VtQQ&utm_campaign=yelp_api_v3&utm_medium=api_v3_business_search&utm_source=_xGZBQTFH5RSnMk3I7VtQQ", "coordinates": {"latitude": 41.9574, "longitude": -87.68142}, "phone": "+17734773172", "image_url": "https://s3-media4.fl.yelpcdn.com/bphoto/4qUpZZDRPkp-bX3URa2AAg/o.jpg", "location": {"city": "Chicago", "country": "US", "address2": "", "address3": "", "state": "IL", "address1": "4156 N Lincoln Ave", "zip_code": "60618"}, "id": "andco-management-ltd-chicago", "categories": [{"alias": "propertymgmt", "title": "Property Management"}]}]}
{"total": 227, "businesses": [{"rating": 5.0, "review_count": 2, "name": "Earth Pets Chicago", "url": "https://www.yelp.com/biz/earth-pets-chicago-chicago?adjust_creative=_xGZBQTFH5RSnMk3I7VtQQ&utm_campaign=yelp_api_v3&utm_medium=api_v3_business_search&utm_source=_xGZBQTFH5RSnMk3I7VtQQ", "coordinates": {"latitude": 41.9210968017578, "longitude": -87.7022552490234}, "phone": "+17733446192", "image_url": "https://s3-media3.fl.yelpcdn.com/bphoto/kkoDzy-z6QxQ03z0oAJbbA/o.jpg", "location": {"city": "Chicago", "country": "US", "address2": "", "address3": "", "state": "IL", "address1": "", "zip_code": "60647"}, "id": "earth-pets-chicago-chicago", "categories": [{"alias": "dogwalkers", "title": "Dog Walkers"}]}]}
{"total": 230, "businesses": [{"rating": 5.0, "review_count": 1, "name": "Barbara Biederman", "url": "https://www.yelp.com/biz/barbara-biederman-chicago?adjust_creative=_xGZBQTFH5RSnMk3I7VtQQ&utm_campaign=yelp_api_v3&utm_medium=api_v3_business_search&utm_source=_xGZBQTFH5RSnMk3I7VtQQ", "coordinates": {"latitude": 41.8842506408691, "longitude": -87.6324462890625}, "phone": "+17739145309", "image_url": "https://s3-media3.fl.yelpcdn.com/bphoto/7g4iiUPweteG5FufCJI5XQ/o.jpg", "location": {"city": "Chicago", "country": "US", "address2": null, "address3": null, "state": "IL", "address1": "", "zip_code": ""}, "id": "barbara-biederman-chicago", "categories": [{"alias": "realestateagents", "title": "Real Estate Agents"}]}]}
{"total": 227, "businesses": [{"rating": 5.0, "review_count": 1, "name": "Jay and Burk", "url": "https://www.yelp.com/biz/jay-and-burk-chicago?adjust_creative=_xGZBQTFH5RSnMk3I7VtQQ&utm_campaign=yelp_api_v3&utm_medium=api_v3_business_search&utm_source=_xGZBQTFH5RSnMk3I7VtQQ", "coordinates": {"latitude": 41.9159385, "longitude": -87.7238813}, "phone": "+12245453693", "image_url": "https://s3-media1.fl.yelpcdn.com/bphoto/8laQJ_DqULx-smPt3TIFNw/o.jpg", "location": {"city": "Chicago", "country": "US", "address2": null, "address3": "", "state": "IL", "address1": "1919 N Springfield Ave", "zip_code": "60647"}, "id": "jay-and-burk-chicago", "categories": [{"alias": "cabinetry", "title": "Cabinetry"}, {"alias": "furniture", "title": "Furniture Stores"}]}]}
{"total": 227, "businesses": [{"rating": 5.0, "review_count": 18, "name": "Ancor Professional Upholstery", "url": "https://www.yelp.com/biz/ancor-professional-upholstery-chicago-5?adjust_creative=_xGZBQTFH5RSnMk3I7VtQQ&utm_campaign=yelp_api_v3&utm_medium=api_v3_business_search&utm_source=_xGZBQTFH5RSnMk3I7VtQQ", "price": "$$", "coordinates": {"latitude": 41.8116, "longitude": -87.6849}, "phone": "+17739272055", "image_url": "https://s3-media4.fl.yelpcdn.com/bphoto/TMGlc2w4MbfCf8rgasskpw/o.jpg", "location": {"city": "Chicago", "country": "US", "address2": null, "address3": "", "state": "IL", "address1": "4514 S Western Ave", "zip_code": "60609"}, "id": "ancor-professional-upholstery-chicago-5", "categories": [{"alias": "reupholstery", "title": "Furniture Reupholstery"}, {"alias": "interiordesign", "title": "Interior Design"}, {"alias": "furniturerepair", "title": "Furniture Repair"}]}]}
{"total": 227, "businesses": [{"rating": 5.0, "review_count": 10, "name": "Amanda's Massage & Spray Tans", "url": "https://www.yelp.com/biz/amandas-massage-and-spray-tans-oak-park-2?adjust_creative=_xGZBQTFH5RSnMk3I7VtQQ&utm_campaign=yelp_api_v3&utm_medium=api_v3_business_search&utm_source=_xGZBQTFH5RSnMk3I7VtQQ", "price": "$$", "coordinates": {"latitude": 41.8947334289551, "longitude": -87.7897109985352}, "phone": "+17739884013", "image_url": "https://s3-media2.fl.yelpcdn.com/bphoto/dEsc4ShaLQ8aKbwzkbP38w/o.jpg", "location": {"city": "Oak Park", "country": "US", "address2": null, "address3": "", "state": "IL", "address1": "", "zip_code": "60302"}, "id": "amandas-massage-and-spray-tans-oak-park-2", "categories": [{"alias": "massage_therapy", "title": "Massage Therapy"}, {"alias": "spraytanning", "title": "Spray Tanning"}, {"alias": "reflexology", "title": "Reflexology"}]}]}
{"total": 227, "businesses": [{"rating": 4.5, "review_count": 16, "name": "Chicago's White Glove Cleaning & Restoration", "url": "https://www.yelp.com/biz/chicagos-white-glove-cleaning-and-restoration-morton-grove?adjust_creative=_xGZBQTFH5RSnMk3I7VtQQ&utm_campaign=yelp_api_v3&utm_medium=api_v3_business_search&utm_source=_xGZBQTFH5RSnMk3I7VtQQ", "coordinates": {"latitude": 42.045879, "longitude": -87.81995}, "phone": "+17738779300", "image_url": "https://s3-media2.fl.yelpcdn.com/bphoto/fIUAi5VtyZqD6e3uH6YM3g/o.jpg", "location": {"city": "Morton Grove", "country": "US", "address2": "", "address3": "", "state": "IL", "address1": "7735 Davis St", "zip_code": "60053"}, "id": "chicagos-white-glove-cleaning-and-restoration-morton-grove", "categories": [{"alias": "carpet_cleaning", "title": "Carpet Cleaning"}, {"alias": "damagerestoration", "title": "Damage Restoration"}]}]}
{"total": 227, "businesses": [{"rating": 5.0, "review_count": 8, "name": "Air Blue Heating & Cooling", "url": "https://www.yelp.com/biz/air-blue-heating-and-cooling-wheeling-2?adjust_creative=_xGZBQTFH5RSnMk3I7VtQQ&utm_campaign=yelp_api_v3&utm_medium=api_v3_business_search&utm_source=_xGZBQTFH5RSnMk3I7VtQQ", "coordinates": {"latitude": 42.1294555664062, "longitude": -87.9248580932617}, "phone": "+18479478331", "image_url": "https://s3-media1.fl.yelpcdn.com/bphoto/mz6HQtpirANeBqu8xjzyVA/o.jpg", "location": {"city": "Wheeling", "country": "US", "address2": null, "address3": "", "state": "IL", "address1": "", "zip_code": "60090"}, "id": "air-blue-heating-and-cooling-wheeling-2", "categories": [{"alias": "hvac", "title": "Heating & Air Conditioning/HVAC"}]}]}
{"total": 227, "businesses": []}
{"total": 230, "businesses": [{"rating": 4.5, "review_count": 16, "name": "Chicago's White Glove Cleaning & Restoration", "url": "https://www.yelp.com/biz/chicagos-white-glove-cleaning-and-restoration-morton-grove?adjust_creative=_xGZBQTFH5RSnMk3I7VtQQ&utm_campaign=yelp_api_v3&utm_medium=api_v3_business_search&utm_source=_xGZBQTFH5RSnMk3I7VtQQ", "coordinates": {"latitude": 42.045879, "longitude": -87.81995}, "phone": "+17738779300", "image_url": "https://s3-media2.fl.yelpcdn.com/bphoto/fIUAi5VtyZqD6e3uH6YM3g/o.jpg", "location": {"city": "Morton Grove", "address1": "7735 Davis St", "address2": "", "address3": "", "state": "IL", "country": "US", "zip_code": "60053"}, "id": "chicagos-white-glove-cleaning-and-restoration-morton-grove", "categories": [{"alias": "carpet_cleaning", "title": "Carpet Cleaning"}, {"alias": "damagerestoration", "title": "Damage Restoration"}]}]}
{"total": 227, "businesses": [{"rating": 3.5, "review_count": 3, "name": "R.M. Concrete Specialist, Inc.", "url": "https://www.yelp.com/biz/r-m-concrete-specialist-inc-chicago?adjust_creative=_xGZBQTFH5RSnMk3I7VtQQ&utm_campaign=yelp_api_v3&utm_medium=api_v3_business_search&utm_source=_xGZBQTFH5RSnMk3I7VtQQ", "coordinates": {"latitude": 41.79731, "longitude": -87.76156}, "phone": "+17082679281", "image_url": "https://s3-media3.fl.yelpcdn.com/bphoto/pYDDIZGWqynoQ_fT4EKm0w/o.jpg", "location": {"city": "Chicago", "address1": "5230 S Luna Ave", "address2": "", "address3": "", "state": "IL", "country": "US", "zip_code": "60638"}, "id": "r-m-concrete-specialist-inc-chicago", "categories": [{"alias": "contractors", "title": "Contractors"}, {"alias": "masonry_concrete", "title": "Masonry/Concrete"}]}]}
{"total": 230, "businesses": []}
{"total": 227, "businesses": []}
