{"total": 243, "businesses": [{"rating": 4.0, "review_count": 204, "name": "Sol de Mexico", "url": "https://www.yelp.com/biz/sol-de-mexico-chicago?adjust_creative=4ANmej72Lq5uvu_h_d83AQ&utm_campaign=yelp_api_v3&utm_medium=api_v3_business_search&utm_source=4ANmej72Lq5uvu_h_d83AQ", "price": "$$", "coordinates": {"latitude": 41.93588, "longitude": -87.74717}, "phone": "+17732824119", "image_url": "https://s3-media1.fl.yelpcdn.com/bphoto/bIWWXy4M4yjb0Y44LoF08g/o.jpg", "location": {"city": "Chicago", "address1": "3018 N Cicero Ave", "address2": "", "address3": "", "state": "IL", "country": "US", "zip_code": "60641"}, "id": "sol-de-mexico-chicago", "categories": [{"alias": "mexican", "title": "Mexican"}]}]}
{"total": 243, "businesses": [{"rating": 4.5, "review_count": 23, "name": "Buenos Aires Deli", "url": "https://www.yelp.com/biz/buenos-aires-deli-chicago?adjust_creative=4ANmej72Lq5uvu_h_d83AQ&utm_campaign=yelp_api_v3&utm_medium=api_v3_business_search&utm_source=4ANmej72Lq5uvu_h_d83AQ", "price": "$$", "coordinates": {"latitude": 41.93717, "longitude": -87.74722}, "phone": "+17736854241", "image_url": "https://s3-media3.fl.yelpcdn.com/bphoto/Tw8orYzuk5IYO8gogtjmqQ/o.jpg", "location": {"city": "Chicago", "country": "US", "address2": "", "address3": "", "state": "IL", "address1": "3100 N Cicero Ave", "zip_code": "60641"}, "id": "buenos-aires-deli-chicago", "categories": [{"alias": "argentine", "title": "Argentine"}]}]}
{"total": 247, "businesses": [{"rating": 4.5, "review_count": 48, "name": "Nick's Hi-Ho Cafe", "url": "https://www.yelp.com/biz/nicks-hi-ho-cafe-chicago?adjust_creative=4ANmej72Lq5uvu_h_d83AQ&utm_campaign=yelp_api_v3&utm_medium=api_v3_business_search&utm_source=4ANmej72Lq5uvu_h_d83AQ", "price": "$", "coordinates": {"latitude": 41.93804, "longitude": -87.74726}, "phone": "+17735456015", "image_url": "https://s3-media1.fl.yelpcdn.com/bphoto/5hNL8vi2_eDAbuNM6HwgmQ/o.jpg", "location": {"city": "Chicago", "country": "US", "address2": "", "address3": "", "state": "IL", "address1": "3134 N Cicero Ave", "zip_code": "60686"}, "id": "nicks-hi-ho-cafe-chicago", "categories": [{"alias": "diners", "title": "Diners"}, {"alias": "breakfast_brunch", "title": "Breakfast & Brunch"}]}]}
{"total": 243, "businesses": [{"rating": 4.5, "review_count": 19, "name": "Bim Bom Lounge", "url": "https://www.yelp.com/biz/bim-bom-lounge-chicago?adjust_creative=4ANmej72Lq5uvu_h_d83AQ&utm_campaign=yelp_api_v3&utm_medium=api_v3_business_search&utm_source=4ANmej72Lq5uvu_h_d83AQ", "price": "$", "coordinates": {"latitude": 41.9389495849609, "longitude": -87.7577667236328}, "phone": "+17737772120", "image_url": "https://s3-media1.fl.yelpcdn.com/bphoto/_uXF8leTtM-iWZNIYqlrdg/o.jpg", "location": {"city": "Chicago", "country": "US", "address2": null, "address3": "", "state": "IL", "address1": "5226 W Belmont Ave", "zip_code": "60641"}, "id": "bim-bom-lounge-chicago", "categories": [{"alias": "bars", "title": "Bars"}]}]}
{"total": 243, "businesses": [{"rating": 4.5, "review_count": 93, "name": "Chicago Pet Clinic", "url": "https://www.yelp.com/biz/chicago-pet-clinic-chicago?adjust_creative=4ANmej72Lq5uvu_h_d83AQ&utm_campaign=yelp_api_v3&utm_medium=api_v3_business_search&utm_source=4ANmej72Lq5uvu_h_d83AQ", "coordinates": {"latitude": 41.9444883, "longitude": -87.7471549}, "phone": "+17732834627", "image_url": "https://s3-media4.fl.yelpcdn.com/bphoto/fQoRYa_NdV0Fj-UA5nstAA/o.jpg", "location": {"city": "Chicago", "address1": "3510 N Cicero Ave", "address2": "", "address3": "", "state": "IL", "country": "US", "zip_code": "60641"}, "id": "chicago-pet-clinic-chicago", "categories": [{"alias": "vet", "title": "Veterinarians"}]}]}
{"total": 243, "businesses": [{"rating": 4.0, "review_count": 29, "name": "Taqueria Poncitlan", "url": "https://www.yelp.com/biz/taqueria-poncitlan-chicago-3?adjust_creative=4ANmej72Lq5uvu_h_d83AQ&utm_campaign=yelp_api_v3&utm_medium=api_v3_business_search&utm_source=4ANmej72Lq5uvu_h_d83AQ", "price": "$", "coordinates": {"latitude": 41.94268, "longitude": -87.74731}, "phone": "+17736857409", "image_url": "https://s3-media1.fl.yelpcdn.com/bphoto/8bBzbvT2kpiEUMYkNlBZcA/o.jpg", "location": {"city": "Chicago", "country": "US", "address2": null, "address3": "", "state": "IL", "address1": "3400 N Cicero Ave", "zip_code": "60641"}, "id": "taqueria-poncitlan-chicago-3", "categories": [{"alias": "mexican", "title": "Mexican"}]}]}
{"total": 243, "businesses": [{"rating": 4.5, "review_count": 12, "name": "Restaurante Olocuilta", "url": "https://www.yelp.com/biz/restaurante-olocuilta-chicago-2?adjust_creative=4ANmej72Lq5uvu_h_d83AQ&utm_campaign=yelp_api_v3&utm_medium=api_v3_business_search&utm_source=4ANmej72Lq5uvu_h_d83AQ", "price": "$$", "coordinates": {"latitude": 41.9361350141524, "longitude": -87.7566292136908}, "phone": "+17736985462", "image_url": "https://s3-media3.fl.yelpcdn.com/bphoto/WHNL5UZPKaDWHx6yHSGGxg/o.jpg", "location": {"city": "Chicago", "country": "US", "address2": "", "address3": "", "state": "IL", "address1": "3040 N Laramie Ave", "zip_code": "60641"}, "id": "restaurante-olocuilta-chicago-2", "categories": [{"alias": "mexican", "title": "Mexican"}, {"alias": "salvadoran", "title": "Salvadoran"}]}]}
{"total": 243, "businesses": [{"rating": 4.5, "review_count": 104, "name": "Vanguard Plumbing and Sewer Inc", "url": "https://www.yelp.com/biz/vanguard-plumbing-and-sewer-inc-chicago-2?adjust_creative=4ANmej72Lq5uvu_h_d83AQ&utm_campaign=yelp_api_v3&utm_medium=api_v3_business_search&utm_source=4ANmej72Lq5uvu_h_d83AQ", "coordinates": {"latitude": 41.9461784362793, "longitude": -87.7470245361328}, "phone": "+17736336139", "image_url": "https://s3-media1.fl.yelpcdn.com/bphoto/o4wz-l14EivaKKqpol1UAA/o.jpg", "location": {"city": "Chicago", "country": "US", "address2": null, "address3": "", "state": "IL", "address1": "", "zip_code": "60641"}, "id": "vanguard-plumbing-and-sewer-inc-chicago-2", "categories": [{"alias": "plumbing", "title": "Plumbing"}]}]}
{"total": 243, "businesses": [{"rating": 3.0, "review_count": 88, "name": "Bread Basket", "url": "https://www.yelp.com/biz/bread-basket-chicago?adjust_creative=4ANmej72Lq5uvu_h_d83AQ&utm_campaign=yelp_api_v3&utm_medium=api_v3_business_search&utm_source=4ANmej72Lq5uvu_h_d83AQ", "price": "$", "coordinates": {"latitude": 41.9387051, "longitude": -87.7453885}, "phone": "+17734277600", "image_url": "https://s3-media1.fl.yelpcdn.com/bphoto/_2cVCaBmxAVBZBSbVSRVBw/o.jpg", "location": {"city": "Chicago", "country": "US", "address2": "", "address3": "", "state": "IL", "address1": "4725 W Belmont Ave", "zip_code": "60641"}, "id": "bread-basket-chicago", "categories": [{"alias": "newamerican", "title": "American (New)"}, {"alias": "mediterranean", "title": "Mediterranean"}, {"alias": "greek", "title": "Greek"}]}]}
{"total": 243, "businesses": [{"rating": 3.5, "review_count": 26, "name": "Coluta's Pizza", "url": "https://www.yelp.com/biz/colutas-pizza-chicago-3?adjust_creative=4ANmej72Lq5uvu_h_d83AQ&utm_campaign=yelp_api_v3&utm_medium=api_v3_business_search&utm_source=4ANmej72Lq5uvu_h_d83AQ", "price": "$$", "coordinates": {"latitude": 41.9317398071289, "longitude": -87.7509536743164}, "phone": "+17737250005", "image_url": "https://s3-media3.fl.yelpcdn.com/bphoto/8VGhKbErXRQM-QkfCCJ3ig/o.jpg", "location": {"city": "Chicago", "address1": "4946 W Diversey Ave", "address2": "", "address3": "", "state": "IL", "country": "US", "zip_code": "60639"}, "id": "colutas-pizza-chicago-3", "categories": [{"alias": "pizza", "title": "Pizza"}]}]}
{"total": 243, "businesses": [{"rating": 5.0, "review_count": 25, "name": "Anti Pest Chicagoland", "url": "https://www.yelp.com/biz/anti-pest-chicagoland-chicago-2?adjust_creative=4ANmej72Lq5uvu_h_d83AQ&utm_campaign=yelp_api_v3&utm_medium=api_v3_business_search&utm_source=4ANmej72Lq5uvu_h_d83AQ", "coordinates": {"latitude": 41.9416462, "longitude": -87.7553805}, "phone": "+13128047544", "image_url": "https://s3-media4.fl.yelpcdn.com/bphoto/PvXXRmlqfsAtdJGUVLv2Mw/o.jpg", "location": {"city": "Chicago", "country": "US", "address2": null, "address3": "", "state": "IL", "address1": "5124 W Henderson St", "zip_code": "60641"}, "id": "anti-pest-chicagoland-chicago-2", "categories": [{"alias": "pest_control", "title": "Pest Control"}]}]}
{"total": 243, "businesses": [{"rating": 5.0, "review_count": 29, "name": "Supreme Pet Care", "url": "https://www.yelp.com/biz/supreme-pet-care-chicago?adjust_creative=4ANmej72Lq5uvu_h_d83AQ&utm_campaign=yelp_api_v3&utm_medium=api_v3_business_search&utm_source=4ANmej72Lq5uvu_h_d83AQ", "coordinates": {"latitude": 41.9461784362793, "longitude": -87.7470245361328}, "phone": "+17733290343", "image_url": "https://s3-media4.fl.yelpcdn.com/bphoto/WauQJUxyaIsWm80StjqY5A/o.jpg", "location": {"city": "Chicago", "country": "US", "address2": "", "address3": "", "state": "IL", "address1": "", "zip_code": "60641"}, "id": "supreme-pet-care-chicago", "categories": [{"alias": "dogwalkers", "title": "Dog Walkers"}, {"alias": "pet_sitting", "title": "Pet Boarding/Pet Sitting"}]}]}
{"total": 243, "businesses": [{"rating": 4.5, "review_count": 49, "name": "MK Auto Tint", "url": "https://www.yelp.com/biz/mk-auto-tint-chicago-2?adjust_creative=4ANmej72Lq5uvu_h_d83AQ&utm_campaign=yelp_api_v3&utm_medium=api_v3_business_search&utm_source=4ANmej72Lq5uvu_h_d83AQ", "coordinates": {"latitude": 41.932933807373, "longitude": -87.7470626831055}, "phone": "+18474142965", "image_url": "https://s3-media1.fl.yelpcdn.com/bphoto/00z-X3n1eQhUEx0Rgr2uUA/o.jpg", "location": {"city": "Chicago", "address1": "2848 N Cicero Ave", "address2": "", "address3": "", "state": "IL", "country": "US", "zip_code": "60641"}, "id": "mk-auto-tint-chicago-2", "categories": [{"alias": "autoglass", "title": "Auto Glass Services"}, {"alias": "stereo_installation", "title": "Car Stereo Installation"}]}]}
{"total": 243, "businesses": [{"rating": 4.5, "review_count": 66, "name": "DMV - Secretary of State facility", "url": "https://www.yelp.com/biz/dmv-secretary-of-state-facility-chicago-2?adjust_creative=4ANmej72Lq5uvu_h_d83AQ&utm_campaign=yelp_api_v3&utm_medium=api_v3_business_search&utm_source=4ANmej72Lq5uvu_h_d83AQ", "coordinates": {"latitude": 41.9317133, "longitude": -87.7428583}, "phone": "+13127931010", "image_url": "https://s3-media4.fl.yelpcdn.com/bphoto/7eaG2t7vbNSokup_wHXGEA/o.jpg", "location": {"city": "Chicago", "country": "US", "address2": null, "address3": "", "state": "IL", "address1": "4642 W Diversey St", "zip_code": "60641"}, "id": "dmv-secretary-of-state-facility-chicago-2", "categories": [{"alias": "departmentsofmotorvehicles", "title": "Departments of Motor Vehicles"}]}]}
{"total": 243, "businesses": [{"rating": 4.5, "review_count": 43, "name": "Motorcycle Mania", "url": "https://www.yelp.com/biz/motorcycle-mania-chicago?adjust_creative=4ANmej72Lq5uvu_h_d83AQ&utm_campaign=yelp_api_v3&utm_medium=api_v3_business_search&utm_source=4ANmej72Lq5uvu_h_d83AQ", "coordinates": {"latitude": 41.948453, "longitude": -87.747497}, "phone": "+17735453120", "image_url": "https://s3-media1.fl.yelpcdn.com/bphoto/PtsIrHq6mTNC1U1jJxJThA/o.jpg", "location": {"city": "Chicago", "country": "US", "address2": "", "address3": "", "state": "IL", "address1": "3714 N Cicero Ave", "zip_code": "60641"}, "id": "motorcycle-mania-chicago", "categories": [{"alias": "motorcyclerepair", "title": "Motorcycle Repair"}, {"alias": "motorcycledealers", "title": "Motorcycle Dealers"}]}]}
{"total": 243, "businesses": [{"rating": 4.0, "review_count": 37, "name": "MK Electronics", "url": "https://www.yelp.com/biz/mk-electronics-chicago-2?adjust_creative=4ANmej72Lq5uvu_h_d83AQ&utm_campaign=yelp_api_v3&utm_medium=api_v3_business_search&utm_source=4ANmej72Lq5uvu_h_d83AQ", "price": "$$", "coordinates": {"latitude": 41.932933807373, "longitude": -87.7470626831055}, "phone": "+17732864683", "image_url": "https://s3-media2.fl.yelpcdn.com/bphoto/Vf0ODUaDgmVGT2lO6rKuLw/o.jpg", "location": {"city": "Chicago", "country": "US", "address2": "", "address3": "", "state": "IL", "address1": "2848 N Cicero Ave", "zip_code": "60641"}, "id": "mk-electronics-chicago-2", "categories": [{"alias": "stereo_installation", "title": "Car Stereo Installation"}, {"alias": "electronics", "title": "Electronics"}]}]}
{"total": 243, "businesses": [{"rating": 4.0, "review_count": 9, "name": "Se\u00f1or Pan Caf\u00e9", "url": "https://www.yelp.com/biz/se%C3%B1or-pan-caf%C3%A9-chicago-3?adjust_creative=4ANmej72Lq5uvu_h_d83AQ&utm_campaign=yelp_api_v3&utm_medium=api_v3_business_search&utm_source=4ANmej72Lq5uvu_h_d83AQ", "price": "$", "coordinates": {"latitude": 41.93118, "longitude": -87.75377}, "phone": "+17733453496", "image_url": "https://s3-media1.fl.yelpcdn.com/bphoto/50seo7qsN57X1QOwOz83WA/o.jpg", "location": {"city": "Chicago", "country": "US", "address2": "", "address3": "", "state": "IL", "address1": "5057 W Diversey Ave", "zip_code": "60639"}, "id": "se\u00f1or-pan-caf\u00e9-chicago-3", "categories": [{"alias": "cafes", "title": "Cafes"}]}]}
{"total": 243, "businesses": [{"rating": 3.5, "review_count": 16, "name": "Chop Suey King Chinese Restaurant", "url": "https://www.yelp.com/biz/chop-suey-king-chinese-restaurant-chicago?adjust_creative=4ANmej72Lq5uvu_h_d83AQ&utm_campaign=yelp_api_v3&utm_medium=api_v3_business_search&utm_source=4ANmej72Lq5uvu_h_d83AQ", "price": "$", "coordinates": {"latitude": 41.9380912780762, "longitude": -87.7464447021484}, "phone": "+17732835000", "image_url": "https://s3-media1.fl.yelpcdn.com/bphoto/FRrOWwTjZ5PTFfcWvENfgQ/o.jpg", "location": {"city": "Chicago", "address1": "3135 N Cicero Ave", "address2": "", "address3": "", "state": "IL", "country": "US", "zip_code": "60641"}, "id": "chop-suey-king-chinese-restaurant-chicago", "categories": [{"alias": "chinese", "title": "Chinese"}]}]}
{"total": 243, "businesses": [{"rating": 5.0, "review_count": 12, "name": "La Plaza Paleteria", "url": "https://www.yelp.com/biz/la-plaza-paleteria-chicago?adjust_creative=4ANmej72Lq5uvu_h_d83AQ&utm_campaign=yelp_api_v3&utm_medium=api_v3_business_search&utm_source=4ANmej72Lq5uvu_h_d83AQ", "price": "$", "coordinates": {"latitude": 41.93658, "longitude": -87.7472}, "image_url": "https://s3-media1.fl.yelpcdn.com/bphoto/h3i8RYBjc40bgqAdBjP4ug/o.jpg", "location": {"city": "Chicago", "country": "US", "address2": "", "address3": "", "state": "IL", "address1": "3046 N Cicero", "zip_code": "60641"}, "id": "la-plaza-paleteria-chicago", "categories": [{"alias": "icecream", "title": "Ice Cream & Frozen Yogurt"}, {"alias": "grocery", "title": "Grocery"}]}]}
{"total": 243, "businesses": [{"rating": 5.0, "review_count": 15, "name": "JPhotography TM", "url": "https://www.yelp.com/biz/jphotography-tm-chicago-2?adjust_creative=4ANmej72Lq5uvu_h_d83AQ&utm_campaign=yelp_api_v3&utm_medium=api_v3_business_search&utm_source=4ANmej72Lq5uvu_h_d83AQ", "coordinates": {"latitude": 41.9472058, "longitude": -87.7468071}, "phone": "+13128578680", "image_url": "https://s3-media1.fl.yelpcdn.com/bphoto/UjkJtzf0awmpxqTLN3xLcw/o.jpg", "location": {"city": "Chicago", "country": "US", "address2": null, "address3": "", "state": "IL", "address1": null, "zip_code": "60641"}, "id": "jphotography-tm-chicago-2", "categories": [{"alias": "eventphotography", "title": "Event Photography"}, {"alias": "sessionphotography", "title": "Session Photography"}]}]}
{"total": 243, "businesses": [{"rating": 5.0, "review_count": 14, "name": "Juli Billings Walter, IBCLC", "url": "https://www.yelp.com/biz/juli-billings-walter-ibclc-chicago?adjust_creative=4ANmej72Lq5uvu_h_d83AQ&utm_campaign=yelp_api_v3&utm_medium=api_v3_business_search&utm_source=4ANmej72Lq5uvu_h_d83AQ", "coordinates": {"latitude": 41.9472058, "longitude": -87.7468071}, "phone": "+17738767014", "image_url": "https://s3-media3.fl.yelpcdn.com/bphoto/nVWxAYIouaULnNehi-NUVg/o.jpg", "location": {"city": "Chicago", "country": "US", "address2": null, "address3": "", "state": "IL", "address1": null, "zip_code": "60641"}, "id": "juli-billings-walter-ibclc-chicago", "categories": [{"alias": "lactationservices", "title": "Lactation Services"}]}]}
{"total": 243, "businesses": [{"rating": 4.0, "review_count": 49, "name": "Chicago Sweatlodge", "url": "https://www.yelp.com/biz/chicago-sweatlodge-chicago?adjust_creative=4ANmej72Lq5uvu_h_d83AQ&utm_campaign=yelp_api_v3&utm_medium=api_v3_business_search&utm_source=4ANmej72Lq5uvu_h_d83AQ", "price": "$$", "coordinates": {"latitude": 41.9444541931152, "longitude": -87.747428894043}, "phone": "+17732021777", "image_url": "https://s3-media4.fl.yelpcdn.com/bphoto/O-xubJ4Mh0G34AiNT49koA/o.jpg", "location": {"city": "Chicago", "country": "US", "address2": "", "address3": "", "state": "IL", "address1": "3500 N Cicero Ave", "zip_code": "60641"}, "id": "chicago-sweatlodge-chicago", "categories": [{"alias": "massage", "title": "Massage"}]}]}
{"total": 243, "businesses": [{"rating": 4.0, "review_count": 13, "name": "Burrito King", "url": "https://www.yelp.com/biz/burrito-king-chicago-3?adjust_creative=4ANmej72Lq5uvu_h_d83AQ&utm_campaign=yelp_api_v3&utm_medium=api_v3_business_search&utm_source=4ANmej72Lq5uvu_h_d83AQ", "price": "$", "coordinates": {"latitude": 41.9388847053051, "longitude": -87.7457870543003}, "phone": "+17732863980", "image_url": "https://s3-media2.fl.yelpcdn.com/bphoto/RwG0op1aOtDGmijACD6pVw/o.jpg", "location": {"city": "Chicago", "country": "US", "address2": "", "address3": "", "state": "IL", "address1": "4754 W Belmont Ave", "zip_code": "60641"}, "id": "burrito-king-chicago-3", "categories": [{"alias": "mexican", "title": "Mexican"}]}]}
{"total": 243, "businesses": [{"rating": 4.0, "review_count": 8, "name": "El Jerezano", "url": "https://www.yelp.com/biz/el-jerezano-chicago?adjust_creative=4ANmej72Lq5uvu_h_d83AQ&utm_campaign=yelp_api_v3&utm_medium=api_v3_business_search&utm_source=4ANmej72Lq5uvu_h_d83AQ", "price": "$", "coordinates": {"latitude": 41.931198, "longitude": -87.752953}, "phone": "+17738041450", "image_url": "https://s3-media2.fl.yelpcdn.com/bphoto/PDPiACOKxU6H2chmhlhLow/o.jpg", "location": {"city": "Chicago", "address1": "5037-5039 W Diversey Ave", "address2": "", "address3": "", "state": "IL", "country": "US", "zip_code": "60639"}, "id": "el-jerezano-chicago", "categories": [{"alias": "mexican", "title": "Mexican"}]}]}
{"total": 247, "businesses": [{"rating": 4.5, "review_count": 7, "name": "Laramie Bakery & Deli", "url": "https://www.yelp.com/biz/laramie-bakery-and-deli-chicago-2?adjust_creative=4ANmej72Lq5uvu_h_d83AQ&utm_campaign=yelp_api_v3&utm_medium=api_v3_business_search&utm_source=4ANmej72Lq5uvu_h_d83AQ", "coordinates": {"latitude": 41.9355354309082, "longitude": -87.7569274902344}, "phone": "+17737254965", "image_url": "", "location": {"city": "Chicago", "country": "US", "address2": "", "address3": "", "state": "IL", "address1": "3012 N Laramie Ave", "zip_code": "60641"}, "id": "laramie-bakery-and-deli-chicago-2", "categories": [{"alias": "bakeries", "title": "Bakeries"}, {"alias": "meats", "title": "Meat Shops"}, {"alias": "grocery", "title": "Grocery"}, {"alias": "delis", "title": "Delis"}]}]}
{"total": 243, "businesses": [{"rating": 4.5, "review_count": 9, "name": "La Granja Restaurant", "url": "https://www.yelp.com/biz/la-granja-restaurant-chicago?adjust_creative=4ANmej72Lq5uvu_h_d83AQ&utm_campaign=yelp_api_v3&utm_medium=api_v3_business_search&utm_source=4ANmej72Lq5uvu_h_d83AQ", "price": "$", "coordinates": {"latitude": 41.9365546759644, "longitude": -87.7465790450061}, "phone": "+17736853323", "image_url": "https://s3-media2.fl.yelpcdn.com/bphoto/DsV31lbvt9XmuEFBDS1Tbg/o.jpg", "location": {"city": "Chicago", "country": "US", "address2": "", "address3": "", "state": "IL", "address1": "3047 N Cicero Ave", "zip_code": "60641"}, "id": "la-granja-restaurant-chicago", "categories": [{"alias": "mexican", "title": "Mexican"}]}]}
{"total": 243, "businesses": [{"rating": 5.0, "review_count": 5, "name": "Astro Auto Service", "url": "https://www.yelp.com/biz/astro-auto-service-chicago?adjust_creative=4ANmej72Lq5uvu_h_d83AQ&utm_campaign=yelp_api_v3&utm_medium=api_v3_business_search&utm_source=4ANmej72Lq5uvu_h_d83AQ", "coordinates": {"latitude": 41.93904, "longitude": -87.75166}, "phone": "+17732838336", "image_url": "https://s3-media1.fl.yelpcdn.com/bphoto/xIVGEPsbKhttSlNTFVe2Og/o.jpg", "location": {"city": "Chicago", "address1": "4956 W Belmont Ave", "address2": "", "address3": "", "state": "IL", "country": "US", "zip_code": "60641"}, "id": "astro-auto-service-chicago", "categories": [{"alias": "autorepair", "title": "Auto Repair"}, {"alias": "bodyshops", "title": "Body Shops"}, {"alias": "autocustomization", "title": "Auto Customization"}]}]}
{"total": 243, "businesses": [{"rating": 5.0, "review_count": 6, "name": "Drive-By Laundry", "url": "https://www.yelp.com/biz/drive-by-laundry-chicago?adjust_creative=4ANmej72Lq5uvu_h_d83AQ&utm_campaign=yelp_api_v3&utm_medium=api_v3_business_search&utm_source=4ANmej72Lq5uvu_h_d83AQ", "price": "$$", "coordinates": {"latitude": 41.9460414, "longitude": -87.7520703}, "phone": "+13123613653", "image_url": "https://s3-media3.fl.yelpcdn.com/bphoto/bC5vV5POhQim9w8NXxU6rg/o.jpg", "location": {"city": "Chicago", "country": "US", "address2": null, "address3": "", "state": "IL", "address1": "5003 W Addison St", "zip_code": "60641"}, "id": "drive-by-laundry-chicago", "categories": [{"alias": "drycleaninglaundry", "title": "Dry Cleaning & Laundry"}]}]}
{"total": 243, "businesses": [{"rating": 5.0, "review_count": 4, "name": "Platinum Fades X", "url": "https://www.yelp.com/biz/platinum-fades-x-chicago-2?adjust_creative=4ANmej72Lq5uvu_h_d83AQ&utm_campaign=yelp_api_v3&utm_medium=api_v3_business_search&utm_source=4ANmej72Lq5uvu_h_d83AQ", "price": "$", "coordinates": {"latitude": 41.9385767374889, "longitude": -87.7580187332795}, "phone": "+17739930813", "image_url": "https://s3-media4.fl.yelpcdn.com/bphoto/EZpmR07bCjnEwQz3FpXd7g/o.jpg", "location": {"city": "Chicago", "country": "US", "address2": null, "address3": "", "state": "IL", "address1": "5240 W Belmont", "zip_code": "60641"}, "id": "platinum-fades-x-chicago-2", "categories": [{"alias": "barbers", "title": "Barbers"}]}]}
{"total": 243, "businesses": [{"rating": 5.0, "review_count": 12, "name": "Mobile Room Escape", "url": "https://www.yelp.com/biz/mobile-room-escape-chicago-3?adjust_creative=4ANmej72Lq5uvu_h_d83AQ&utm_campaign=yelp_api_v3&utm_medium=api_v3_business_search&utm_source=4ANmej72Lq5uvu_h_d83AQ", "coordinates": {"latitude": 41.9472459, "longitude": -87.748677}, "phone": "+17732192922", "image_url": "https://s3-media4.fl.yelpcdn.com/bphoto/NWF2GyfEztcgD4nxPDUPvg/o.jpg", "location": {"city": "Chicago", "country": "US", "address2": "", "address3": "", "state": "IL", "address1": "4838 W Patterson Ave", "zip_code": "60641"}, "id": "mobile-room-escape-chicago-3", "categories": [{"alias": "escapegames", "title": "Escape Games"}]}]}
{"total": 243, "businesses": [{"rating": 4.5, "review_count": 11, "name": "Arts Wired Electronics", "url": "https://www.yelp.com/biz/arts-wired-electronics-chicago?adjust_creative=4ANmej72Lq5uvu_h_d83AQ&utm_campaign=yelp_api_v3&utm_medium=api_v3_business_search&utm_source=4ANmej72Lq5uvu_h_d83AQ", "coordinates": {"latitude": 41.9390522, "longitude": -87.7509311}, "phone": "+17735529772", "image_url": "https://s3-media3.fl.yelpcdn.com/bphoto/ZOIETT6cknOs8X5YAzXGOA/o.jpg", "location": {"city": "Chicago", "country": "US", "address2": null, "address3": "", "state": "IL", "address1": "4938 W Belmont Ave", "zip_code": "60641"}, "id": "arts-wired-electronics-chicago", "categories": [{"alias": "securitysystems", "title": "Security Systems"}, {"alias": "hometheatreinstallation", "title": "Home Theatre Installation"}, {"alias": "homeautomation", "title": "Home Automation"}]}]}
{"total": 243, "businesses": [{"rating": 3.5, "review_count": 22, "name": "Planet Fitness - Chicago - Belmont", "url": "https://www.yelp.com/biz/planet-fitness-chicago-belmont-chicago?adjust_creative=4ANmej72Lq5uvu_h_d83AQ&utm_campaign=yelp_api_v3&utm_medium=api_v3_business_search&utm_source=4ANmej72Lq5uvu_h_d83AQ", "coordinates": {"latitude": 41.9385834, "longitude": -87.7552948}, "phone": "+17734812101", "image_url": "https://s3-media3.fl.yelpcdn.com/bphoto/zExLAg63hnxBF-jmXKcqqQ/o.jpg", "location": {"city": "Chicago", "country": "US", "address2": "", "address3": "", "state": "IL", "address1": "5129 W  Belmont Ave", "zip_code": "60641"}, "id": "planet-fitness-chicago-belmont-chicago", "categories": [{"alias": "gyms", "title": "Gyms"}, {"alias": "healthtrainers", "title": "Trainers"}]}]}
{"total": 243, "businesses": [{"rating": 3.5, "review_count": 55, "name": "WXRT", "url": "https://www.yelp.com/biz/wxrt-chicago?adjust_creative=4ANmej72Lq5uvu_h_d83AQ&utm_campaign=yelp_api_v3&utm_medium=api_v3_business_search&utm_source=4ANmej72Lq5uvu_h_d83AQ", "coordinates": {"latitude": 41.93851, "longitude": -87.75122}, "phone": "", "image_url": "https://s3-media4.fl.yelpcdn.com/bphoto/VSTJO830mu3IGd27AGuMVA/o.jpg", "location": {"city": "Chicago", "country": "US", "address2": "", "address3": "", "state": "IL", "address1": "4949 W Belmont Street", "zip_code": "60641"}, "id": "wxrt-chicago", "categories": [{"alias": "radiostations", "title": "Radio Stations"}]}]}
{"total": 247, "businesses": [{"rating": 3.5, "review_count": 27, "name": "Jiffy Lube", "url": "https://www.yelp.com/biz/jiffy-lube-chicago-14?adjust_creative=4ANmej72Lq5uvu_h_d83AQ&utm_campaign=yelp_api_v3&utm_medium=api_v3_business_search&utm_source=4ANmej72Lq5uvu_h_d83AQ", "coordinates": {"latitude": 41.9345489, "longitude": -87.7468985}, "phone": "+17732861700", "image_url": "https://s3-media1.fl.yelpcdn.com/bphoto/VgirQzBOXadMWkdkrhZcnA/o.jpg", "location": {"city": "Chicago", "country": "US", "address2": "", "address3": "", "state": "IL", "address1": "2940 N Cicero Ave", "zip_code": "60641"}, "id": "jiffy-lube-chicago-14", "categories": [{"alias": "autorepair", "title": "Auto Repair"}, {"alias": "oilchange", "title": "Oil Change Stations"}]}]}
{"total": 243, "businesses": [{"rating": 3.5, "review_count": 11, "name": "Mr Pollo", "url": "https://www.yelp.com/biz/mr-pollo-chicago-5?adjust_creative=4ANmej72Lq5uvu_h_d83AQ&utm_campaign=yelp_api_v3&utm_medium=api_v3_business_search&utm_source=4ANmej72Lq5uvu_h_d83AQ", "price": "$", "coordinates": {"latitude": 41.93165, "longitude": -87.75737}, "phone": "+17732824743", "image_url": "https://s3-media4.fl.yelpcdn.com/bphoto/GQWvxzOV5A2z9F7GOBc5wQ/o.jpg", "location": {"city": "Chicago", "country": "US", "address2": "", "address3": "", "state": "IL", "address1": "5222 W Diversey", "zip_code": "60639"}, "id": "mr-pollo-chicago-5", "categories": [{"alias": "latin", "title": "Latin American"}]}]}
{"total": 243, "businesses": [{"rating": 3.5, "review_count": 100, "name": "John Baethke & Son Plumbing", "url": "https://www.yelp.com/biz/john-baethke-and-son-plumbing-chicago-3?adjust_creative=4ANmej72Lq5uvu_h_d83AQ&utm_campaign=yelp_api_v3&utm_medium=api_v3_business_search&utm_source=4ANmej72Lq5uvu_h_d83AQ", "coordinates": {"latitude": 41.944993043874, "longitude": -87.7465651957008}, "phone": "+17732765430", "image_url": "https://s3-media3.fl.yelpcdn.com/bphoto/5MQirw9pNzda-qkg4C4_cw/o.jpg", "location": {"city": "Chicago", "country": "US", "address2": "", "address3": "", "state": "IL", "address1": "3511 N Cicero Ave", "zip_code": "60641"}, "id": "john-baethke-and-son-plumbing-chicago-3", "categories": [{"alias": "plumbing", "title": "Plumbing"}, {"alias": "waterheaterinstallrepair", "title": "Water Heater Installation/Repair"}]}]}
{"total": 243, "businesses": [{"rating": 2.5, "review_count": 23, "name": "Chinese Kitchen", "url": "https://www.yelp.com/biz/chinese-kitchen-chicago-5?adjust_creative=4ANmej72Lq5uvu_h_d83AQ&utm_campaign=yelp_api_v3&utm_medium=api_v3_business_search&utm_source=4ANmej72Lq5uvu_h_d83AQ", "price": "$", "coordinates": {"latitude": 41.945785, "longitude": -87.7469351}, "phone": "+17732832121", "image_url": "https://s3-media4.fl.yelpcdn.com/bphoto/VfHFxYLTr6SE98pp74w01Q/o.jpg", "location": {"city": "Chicago", "country": "US", "address2": "", "address3": "", "state": "IL", "address1": "3539 N Cicero Ave", "zip_code": "60641"}, "id": "chinese-kitchen-chicago-5", "categories": [{"alias": "chinese", "title": "Chinese"}]}]}
{"total": 243, "businesses": [{"rating": 4.0, "review_count": 11, "name": "Kiddieland Educational Center of Excellence", "url": "https://www.yelp.com/biz/kiddieland-educational-center-of-excellence-chicago?adjust_creative=4ANmej72Lq5uvu_h_d83AQ&utm_campaign=yelp_api_v3&utm_medium=api_v3_business_search&utm_source=4ANmej72Lq5uvu_h_d83AQ", "coordinates": {"latitude": 41.950092, "longitude": -87.746857}, "phone": "+17732021199", "image_url": "https://s3-media4.fl.yelpcdn.com/bphoto/q36N3yaiUjdEJZviFwhhqQ/o.jpg", "location": {"city": "Chicago", "country": "US", "address2": "", "address3": "", "state": "IL", "address1": "3809 N Cicero Ave", "zip_code": "60641"}, "id": "kiddieland-educational-center-of-excellence-chicago", "categories": [{"alias": "preschools", "title": "Preschools"}]}]}
{"total": 243, "businesses": [{"rating": 5.0, "review_count": 9, "name": "312 Plumbing & Sewer", "url": "https://www.yelp.com/biz/312-plumbing-and-sewer-chicago?adjust_creative=4ANmej72Lq5uvu_h_d83AQ&utm_campaign=yelp_api_v3&utm_medium=api_v3_business_search&utm_source=4ANmej72Lq5uvu_h_d83AQ", "coordinates": {"latitude": 41.932216, "longitude": -87.7473634}, "phone": "+17733326129", "image_url": "https://s3-media4.fl.yelpcdn.com/bphoto/6hRcx1ohCZigJiQqhJKG6A/o.jpg", "location": {"city": "Chicago", "country": "US", "address2": null, "address3": "", "state": "IL", "address1": "4815 W Wolfram St", "zip_code": "60641"}, "id": "312-plumbing-and-sewer-chicago", "categories": [{"alias": "plumbing", "title": "Plumbing"}]}]}
{"total": 247, "businesses": [{"rating": 5.0, "review_count": 10, "name": "Erin Lindsay Designs", "url": "https://www.yelp.com/biz/erin-lindsay-designs-chicago-2?adjust_creative=4ANmej72Lq5uvu_h_d83AQ&utm_campaign=yelp_api_v3&utm_medium=api_v3_business_search&utm_source=4ANmej72Lq5uvu_h_d83AQ", "price": "$$", "coordinates": {"latitude": 41.9461784362793, "longitude": -87.7470245361328}, "phone": "+13127688345", "image_url": "https://s3-media1.fl.yelpcdn.com/bphoto/e9QJtk7-mR2zZ5Mbxuty_w/o.jpg", "location": {"city": "Chicago", "address1": null, "address2": null, "address3": "", "state": "IL", "country": "US", "zip_code": "60641"}, "id": "erin-lindsay-designs-chicago-2", "categories": [{"alias": "bridal", "title": "Bridal"}]}]}
{"total": 243, "businesses": [{"rating": 4.0, "review_count": 40, "name": "Medina Lawncare", "url": "https://www.yelp.com/biz/medina-lawncare-chicago?adjust_creative=4ANmej72Lq5uvu_h_d83AQ&utm_campaign=yelp_api_v3&utm_medium=api_v3_business_search&utm_source=4ANmej72Lq5uvu_h_d83AQ", "price": "$$", "coordinates": {"latitude": 41.9475402832031, "longitude": -87.7467803955078}, "phone": "+17737775296", "image_url": "https://s3-media3.fl.yelpcdn.com/bphoto/OvXuktX9rsfiMuBPFu2Cnw/o.jpg", "location": {"city": "Chicago", "country": "US", "address2": "(Between W Addison & N Cicero)", "address3": "", "state": "IL", "address1": "3647 North Cicero Ave", "zip_code": "60641"}, "id": "medina-lawncare-chicago", "categories": [{"alias": "landscaping", "title": "Landscaping"}, {"alias": "snowremoval", "title": "Snow Removal"}, {"alias": "fencesgates", "title": "Fences & Gates"}]}]}
{"total": 243, "businesses": [{"rating": 5.0, "review_count": 5, "name": "Photo Booth Time Machine", "url": "https://www.yelp.com/biz/photo-booth-time-machine-chicago-2?adjust_creative=4ANmej72Lq5uvu_h_d83AQ&utm_campaign=yelp_api_v3&utm_medium=api_v3_business_search&utm_source=4ANmej72Lq5uvu_h_d83AQ", "coordinates": {"latitude": 41.9461784362793, "longitude": -87.7470245361328}, "phone": "+17736066660", "image_url": "https://s3-media3.fl.yelpcdn.com/bphoto/ibNWl_xhYnSxaPiMTuNMvQ/o.jpg", "location": {"city": "Chicago", "address1": "", "address2": "", "address3": "", "state": "IL", "country": "US", "zip_code": "60641"}, "id": "photo-booth-time-machine-chicago-2", "categories": [{"alias": "photoboothrentals", "title": "Photo Booth Rentals"}]}]}
{"total": 247, "businesses": [{"rating": 5.0, "review_count": 8, "name": "Big hugs Photo Booth", "url": "https://www.yelp.com/biz/big-hugs-photo-booth-chicago?adjust_creative=4ANmej72Lq5uvu_h_d83AQ&utm_campaign=yelp_api_v3&utm_medium=api_v3_business_search&utm_source=4ANmej72Lq5uvu_h_d83AQ", "coordinates": {"latitude": 41.881485, "longitude": -87.625671}, "phone": "+18557554847", "image_url": "https://s3-media1.fl.yelpcdn.com/bphoto/cuWRK9om9acY_W6tZohx4A/o.jpg", "location": {"city": "Chicago", "country": "US", "address2": "Unit 1806", "address3": "", "state": "IL", "address1": "60 E Monroe St", "zip_code": "60603"}, "id": "big-hugs-photo-booth-chicago", "categories": [{"alias": "photoboothrentals", "title": "Photo Booth Rentals"}]}]}
{"total": 243, "businesses": [{"rating": 4.5, "review_count": 8, "name": "Enterprise Rent-A-Car", "url": "https://www.yelp.com/biz/enterprise-rent-a-car-chicago-29?adjust_creative=4ANmej72Lq5uvu_h_d83AQ&utm_campaign=yelp_api_v3&utm_medium=api_v3_business_search&utm_source=4ANmej72Lq5uvu_h_d83AQ", "coordinates": {"latitude": 41.9368171691895, "longitude": -87.7463912963867}, "phone": "+17732860005", "image_url": "https://s3-media4.fl.yelpcdn.com/bphoto/mZ-4FbXEBcAtGx5KpPOjfw/o.jpg", "location": {"city": "Chicago", "country": "US", "address2": "", "address3": "", "state": "IL", "address1": "3057 N Cicero", "zip_code": "60641"}, "id": "enterprise-rent-a-car-chicago-29", "categories": [{"alias": "carrental", "title": "Car Rental"}]}]}
{"total": 243, "businesses": [{"rating": 3.0, "review_count": 41, "name": "Chicago Canine Academy", "url": "https://www.yelp.com/biz/chicago-canine-academy-chicago?adjust_creative=4ANmej72Lq5uvu_h_d83AQ&utm_campaign=yelp_api_v3&utm_medium=api_v3_business_search&utm_source=4ANmej72Lq5uvu_h_d83AQ", "coordinates": {"latitude": 41.9389049, "longitude": -87.7507899}, "phone": "+17736550219", "image_url": "https://s3-media1.fl.yelpcdn.com/bphoto/KGhSw-sYVQY730EOTVrzqw/o.jpg", "location": {"city": "Chicago", "country": "US", "address2": "", "address3": "", "state": "IL", "address1": "4934 W Belmont Ave", "zip_code": "60641"}, "id": "chicago-canine-academy-chicago", "categories": [{"alias": "pet_sitting", "title": "Pet Boarding/Pet Sitting"}, {"alias": "pet_training", "title": "Pet Training"}]}]}
{"total": 243, "businesses": [{"rating": 3.0, "review_count": 12, "name": "Anastazja Restaurant", "url": "https://www.yelp.com/biz/anastazja-restaurant-chicago?adjust_creative=4ANmej72Lq5uvu_h_d83AQ&utm_campaign=yelp_api_v3&utm_medium=api_v3_business_search&utm_source=4ANmej72Lq5uvu_h_d83AQ", "price": "$", "coordinates": {"latitude": 41.93113, "longitude": -87.7574}, "phone": "+17738369636", "image_url": "", "location": {"city": "Chicago", "country": "US", "address2": "", "address3": "", "state": "IL", "address1": "5223 W Diversey Ave", "zip_code": "60639"}, "id": "anastazja-restaurant-chicago", "categories": [{"alias": "polish", "title": "Polish"}]}]}
{"total": 243, "businesses": [{"rating": 4.5, "review_count": 13, "name": "Joseph & Associates Real Estate & Construction, Inc", "url": "https://www.yelp.com/biz/joseph-and-associates-real-estate-and-construction-inc-chicago?adjust_creative=4ANmej72Lq5uvu_h_d83AQ&utm_campaign=yelp_api_v3&utm_medium=api_v3_business_search&utm_source=4ANmej72Lq5uvu_h_d83AQ", "coordinates": {"latitude": 41.9461784362793, "longitude": -87.7470245361328}, "phone": "+17739717031", "image_url": "https://s3-media4.fl.yelpcdn.com/bphoto/gT6f5fMtSW1JwxKNb8wM9A/o.jpg", "location": {"city": "Chicago", "address1": "", "address2": "", "address3": "", "state": "IL", "country": "US", "zip_code": "60641"}, "id": "joseph-and-associates-real-estate-and-construction-inc-chicago", "categories": [{"alias": "contractors", "title": "Contractors"}]}]}
{"total": 243, "businesses": [{"rating": 5.0, "review_count": 1, "name": "Bristol Deli", "url": "https://www.yelp.com/biz/bristol-deli-chicago?adjust_creative=4ANmej72Lq5uvu_h_d83AQ&utm_campaign=yelp_api_v3&utm_medium=api_v3_business_search&utm_source=4ANmej72Lq5uvu_h_d83AQ", "coordinates": {"latitude": 41.9386614114046, "longitude": -87.7569638192654}, "phone": "+17735456097", "image_url": "https://s3-media3.fl.yelpcdn.com/bphoto/vDfUI2PNAlCiDqg4AmFHqw/o.jpg", "location": {"city": "Chicago", "country": "US", "address2": "", "address3": "", "state": "IL", "address1": "5205 W. Belmont Ave.", "zip_code": "60641"}, "id": "bristol-deli-chicago", "categories": [{"alias": "delis", "title": "Delis"}]}]}
{"total": 243, "businesses": [{"rating": 5.0, "review_count": 1, "name": "Chico's Sports Bar & Grill", "url": "https://www.yelp.com/biz/chicos-sports-bar-and-grill-chicago?adjust_creative=4ANmej72Lq5uvu_h_d83AQ&utm_campaign=yelp_api_v3&utm_medium=api_v3_business_search&utm_source=4ANmej72Lq5uvu_h_d83AQ", "coordinates": {"latitude": 41.94658, "longitude": -87.74744}, "phone": "+17732027988", "image_url": "https://s3-media1.fl.yelpcdn.com/bphoto/bK5WMizSRih02sJij9edKg/o.jpg", "location": {"city": "Chicago", "country": "US", "address2": "", "address3": "", "state": "IL", "address1": "3612 N Cicero Avenue", "zip_code": "60641"}, "id": "chicos-sports-bar-and-grill-chicago", "categories": [{"alias": "restaurants", "title": "Restaurants"}]}]}
{"total": 243, "businesses": [{"rating": 4.0, "review_count": 10, "name": "Morelia Supermarket #2", "url": "https://www.yelp.com/biz/morelia-supermarket-2-chicago?adjust_creative=4ANmej72Lq5uvu_h_d83AQ&utm_campaign=yelp_api_v3&utm_medium=api_v3_business_search&utm_source=4ANmej72Lq5uvu_h_d83AQ", "price": "$$", "coordinates": {"latitude": 41.93126, "longitude": -87.74818}, "phone": "+17736220995", "image_url": "https://s3-media3.fl.yelpcdn.com/bphoto/craYxDb1IMfbrjM2-OLbmQ/o.jpg", "location": {"city": "Chicago", "country": "US", "address2": "", "address3": "", "state": "IL", "address1": "4833 W Diversey Ave", "zip_code": "60639"}, "id": "morelia-supermarket-2-chicago", "categories": [{"alias": "grocery", "title": "Grocery"}]}]}
{"total": 247, "businesses": [{"rating": 4.0, "review_count": 10, "name": "Morelia Supermarket #2", "url": "https://www.yelp.com/biz/morelia-supermarket-2-chicago?adjust_creative=4ANmej72Lq5uvu_h_d83AQ&utm_campaign=yelp_api_v3&utm_medium=api_v3_business_search&utm_source=4ANmej72Lq5uvu_h_d83AQ", "price": "$$", "coordinates": {"latitude": 41.93126, "longitude": -87.74818}, "phone": "+17736220995", "image_url": "https://s3-media3.fl.yelpcdn.com/bphoto/craYxDb1IMfbrjM2-OLbmQ/o.jpg", "location": {"city": "Chicago", "address1": "4833 W Diversey Ave", "address2": "", "address3": "", "state": "IL", "country": "US", "zip_code": "60639"}, "id": "morelia-supermarket-2-chicago", "categories": [{"alias": "grocery", "title": "Grocery"}]}]}
{"total": 243, "businesses": [{"rating": 5.0, "review_count": 5, "name": "Chicago Garage Doors & Gates", "url": "https://www.yelp.com/biz/chicago-garage-doors-and-gates-chicago-4?adjust_creative=4ANmej72Lq5uvu_h_d83AQ&utm_campaign=yelp_api_v3&utm_medium=api_v3_business_search&utm_source=4ANmej72Lq5uvu_h_d83AQ", "coordinates": {"latitude": 41.9461784362793, "longitude": -87.7470245361328}, "phone": "+17738885314", "image_url": "https://s3-media3.fl.yelpcdn.com/bphoto/EL5B6LoaD5Aw_i6QGG1vMw/o.jpg", "location": {"city": "Chicago", "country": "US", "address2": null, "address3": "", "state": "IL", "address1": "", "zip_code": "60641"}, "id": "chicago-garage-doors-and-gates-chicago-4", "categories": [{"alias": "garage_door_services", "title": "Garage Door Services"}, {"alias": "fencesgates", "title": "Fences & Gates"}]}]}
{"total": 243, "businesses": [{"rating": 5.0, "review_count": 3, "name": "Alina Auto Glass", "url": "https://www.yelp.com/biz/alina-auto-glass-chicago?adjust_creative=4ANmej72Lq5uvu_h_d83AQ&utm_campaign=yelp_api_v3&utm_medium=api_v3_business_search&utm_source=4ANmej72Lq5uvu_h_d83AQ", "coordinates": {"latitude": 41.93116, "longitude": -87.75518}, "phone": "+17732372546", "image_url": "https://s3-media3.fl.yelpcdn.com/bphoto/blx4V_iZY81i6hlMBRCpEw/o.jpg", "location": {"city": "Chicago", "country": "US", "address2": "", "address3": "", "state": "IL", "address1": "5129 W Diversey Ave", "zip_code": "60639"}, "id": "alina-auto-glass-chicago", "categories": [{"alias": "autoglass", "title": "Auto Glass Services"}]}]}
{"total": 243, "businesses": [{"rating": 5.0, "review_count": 8, "name": "Herrington Carpet Service", "url": "https://www.yelp.com/biz/herrington-carpet-service-chicago?adjust_creative=4ANmej72Lq5uvu_h_d83AQ&utm_campaign=yelp_api_v3&utm_medium=api_v3_business_search&utm_source=4ANmej72Lq5uvu_h_d83AQ", "coordinates": {"latitude": 41.9461784362793, "longitude": -87.7470245361328}, "phone": "+17732832562", "image_url": "", "location": {"city": "Chicago", "country": "US", "address2": "", "address3": "", "state": "IL", "address1": "", "zip_code": "60641"}, "id": "herrington-carpet-service-chicago", "categories": [{"alias": "carpet_cleaning", "title": "Carpet Cleaning"}]}]}
{"total": 243, "businesses": [{"rating": 5.0, "review_count": 3, "name": "Chicago Zumba Classes", "url": "https://www.yelp.com/biz/chicago-zumba-classes-chicago-3?adjust_creative=4ANmej72Lq5uvu_h_d83AQ&utm_campaign=yelp_api_v3&utm_medium=api_v3_business_search&utm_source=4ANmej72Lq5uvu_h_d83AQ", "coordinates": {"latitude": 41.9437332, "longitude": -87.7471786}, "phone": "+17735100172", "image_url": "https://s3-media4.fl.yelpcdn.com/bphoto/E88_qVS7vuwHruZCaJrIZQ/o.jpg", "location": {"city": "Chicago", "address1": "3456 N Cicero Ave", "address2": "", "address3": "", "state": "IL", "country": "US", "zip_code": "60641"}, "id": "chicago-zumba-classes-chicago-3", "categories": [{"alias": "dancestudio", "title": "Dance Studios"}, {"alias": "bootcamps", "title": "Boot Camps"}]}]}
{"total": 243, "businesses": [{"rating": 5.0, "review_count": 4, "name": "Habobo Fades", "url": "https://www.yelp.com/biz/habobo-fades-chicago?adjust_creative=4ANmej72Lq5uvu_h_d83AQ&utm_campaign=yelp_api_v3&utm_medium=api_v3_business_search&utm_source=4ANmej72Lq5uvu_h_d83AQ", "price": "$", "coordinates": {"latitude": 41.9389992, "longitude": -87.746994}, "phone": "+17736917777", "image_url": "https://s3-media4.fl.yelpcdn.com/bphoto/dpu545R8EXuIuWFpbfspBA/o.jpg", "location": {"city": "Chicago", "country": "US", "address2": null, "address3": "", "state": "IL", "address1": "3202 N Cicero Ave", "zip_code": "60641"}, "id": "habobo-fades-chicago", "categories": [{"alias": "barbers", "title": "Barbers"}]}]}
{"total": 243, "businesses": [{"rating": 5.0, "review_count": 4, "name": "Alameda Foot Centers", "url": "https://www.yelp.com/biz/alameda-foot-centers-chicago?adjust_creative=4ANmej72Lq5uvu_h_d83AQ&utm_campaign=yelp_api_v3&utm_medium=api_v3_business_search&utm_source=4ANmej72Lq5uvu_h_d83AQ", "coordinates": {"latitude": 41.93851, "longitude": -87.7516}, "phone": "+17732371122", "image_url": "https://s3-media4.fl.yelpcdn.com/bphoto/KT9JOpr56ylxvYsFt5uyAA/o.jpg", "location": {"city": "Chicago", "country": "US", "address2": "", "address3": null, "state": "IL", "address1": "4959 W Belmont Ave", "zip_code": "60641"}, "id": "alameda-foot-centers-chicago", "categories": [{"alias": "podiatrists", "title": "Podiatrists"}]}]}
{"total": 243, "businesses": [{"rating": 5.0, "review_count": 3, "name": "Chicago Tabernacle", "url": "https://www.yelp.com/biz/chicago-tabernacle-chicago-3?adjust_creative=4ANmej72Lq5uvu_h_d83AQ&utm_campaign=yelp_api_v3&utm_medium=api_v3_business_search&utm_source=4ANmej72Lq5uvu_h_d83AQ", "coordinates": {"latitude": 41.939578, "longitude": -87.746289}, "phone": "+17735837344", "image_url": "https://s3-media1.fl.yelpcdn.com/bphoto/cRd7T5_szPt7i0g6oB9yAg/o.jpg", "location": {"city": "Chicago", "country": "US", "address2": "", "address3": "", "state": "IL", "address1": "3231 N Cicero Ave", "zip_code": "60641"}, "id": "chicago-tabernacle-chicago-3", "categories": [{"alias": "churches", "title": "Churches"}]}]}
{"total": 247, "businesses": [{"rating": 5.0, "review_count": 3, "name": "Chicago Tabernacle", "url": "https://www.yelp.com/biz/chicago-tabernacle-chicago-3?adjust_creative=4ANmej72Lq5uvu_h_d83AQ&utm_campaign=yelp_api_v3&utm_medium=api_v3_business_search&utm_source=4ANmej72Lq5uvu_h_d83AQ", "coordinates": {"latitude": 41.939578, "longitude": -87.746289}, "phone": "+17735837344", "image_url": "https://s3-media1.fl.yelpcdn.com/bphoto/cRd7T5_szPt7i0g6oB9yAg/o.jpg", "location": {"city": "Chicago", "country": "US", "address2": "", "address3": "", "state": "IL", "address1": "3231 N Cicero Ave", "zip_code": "60641"}, "id": "chicago-tabernacle-chicago-3", "categories": [{"alias": "churches", "title": "Churches"}]}]}
{"total": 243, "businesses": [{"rating": 5.0, "review_count": 4, "name": "Girasoles Hair Salon", "url": "https://www.yelp.com/biz/girasoles-hair-salon-chicago?adjust_creative=4ANmej72Lq5uvu_h_d83AQ&utm_campaign=yelp_api_v3&utm_medium=api_v3_business_search&utm_source=4ANmej72Lq5uvu_h_d83AQ", "coordinates": {"latitude": 41.944714008707, "longitude": -87.7468833837749}, "phone": "+17732055411", "image_url": "https://s3-media1.fl.yelpcdn.com/bphoto/c0gn0NCNTXAkD4SB8PoovQ/o.jpg", "location": {"city": "Chicago", "country": "US", "address2": "", "address3": "", "state": "IL", "address1": "3501 N Cicero Ave", "zip_code": "60641"}, "id": "girasoles-hair-salon-chicago", "categories": [{"alias": "menshair", "title": "Men's Hair Salons"}, {"alias": "hairstylists", "title": "Hair Stylists"}]}]}
{"total": 243, "businesses": [{"rating": 4.0, "review_count": 8, "name": "La Autentica Michoacana", "url": "https://www.yelp.com/biz/la-autentica-michoacana-chicago?adjust_creative=4ANmej72Lq5uvu_h_d83AQ&utm_campaign=yelp_api_v3&utm_medium=api_v3_business_search&utm_source=4ANmej72Lq5uvu_h_d83AQ", "price": "$", "coordinates": {"latitude": 41.9315263, "longitude": -87.7470569}, "phone": "+17733536628", "image_url": "https://s3-media4.fl.yelpcdn.com/bphoto/oplKQIe7HkUfS0EnvIfI1Q/o.jpg", "location": {"city": "Chicago", "address1": "4819 W Diversey", "address2": "", "address3": "", "state": "IL", "country": "US", "zip_code": "60639"}, "id": "la-autentica-michoacana-chicago", "categories": [{"alias": "desserts", "title": "Desserts"}, {"alias": "icecream", "title": "Ice Cream & Frozen Yogurt"}]}]}
{"total": 243, "businesses": [{"rating": 3.0, "review_count": 16, "name": "The Auto Warehouse", "url": "https://www.yelp.com/biz/the-auto-warehouse-chicago?adjust_creative=4ANmej72Lq5uvu_h_d83AQ&utm_campaign=yelp_api_v3&utm_medium=api_v3_business_search&utm_source=4ANmej72Lq5uvu_h_d83AQ", "coordinates": {"latitude": 41.9471429, "longitude": -87.7472918}, "phone": "+17738879696", "image_url": "https://s3-media2.fl.yelpcdn.com/bphoto/nqYuU2ed9AgNy8Hl11R8bw/o.jpg", "location": {"city": "Chicago", "country": "US", "address2": "", "address3": "", "state": "IL", "address1": "3632 N Cicero Ave", "zip_code": "60641"}, "id": "the-auto-warehouse-chicago", "categories": [{"alias": "car_dealers", "title": "Car Dealers"}, {"alias": "autoloanproviders", "title": "Auto Loan Providers"}]}]}
{"total": 247, "businesses": [{"rating": 3.0, "review_count": 16, "name": "The Auto Warehouse", "url": "https://www.yelp.com/biz/the-auto-warehouse-chicago?adjust_creative=4ANmej72Lq5uvu_h_d83AQ&utm_campaign=yelp_api_v3&utm_medium=api_v3_business_search&utm_source=4ANmej72Lq5uvu_h_d83AQ", "coordinates": {"latitude": 41.9471429, "longitude": -87.7472918}, "phone": "+17738879696", "image_url": "https://s3-media2.fl.yelpcdn.com/bphoto/nqYuU2ed9AgNy8Hl11R8bw/o.jpg", "location": {"city": "Chicago", "country": "US", "address2": "", "address3": "", "state": "IL", "address1": "3632 N Cicero Ave", "zip_code": "60641"}, "id": "the-auto-warehouse-chicago", "categories": [{"alias": "car_dealers", "title": "Car Dealers"}, {"alias": "autoloanproviders", "title": "Auto Loan Providers"}]}]}
{"total": 243, "businesses": [{"rating": 3.0, "review_count": 8, "name": "Zacatecas Restaurant", "url": "https://www.yelp.com/biz/zacatecas-restaurant-chicago?adjust_creative=4ANmej72Lq5uvu_h_d83AQ&utm_campaign=yelp_api_v3&utm_medium=api_v3_business_search&utm_source=4ANmej72Lq5uvu_h_d83AQ", "price": "$", "coordinates": {"latitude": 41.93119, "longitude": -87.75295}, "phone": "+17738041450", "image_url": "https://s3-media3.fl.yelpcdn.com/bphoto/NYF5IIleV3L8cPYH05EQIQ/o.jpg", "location": {"city": "Chicago", "country": "US", "address2": "", "address3": "", "state": "IL", "address1": "5037 W Diversey Ave", "zip_code": "60639"}, "id": "zacatecas-restaurant-chicago", "categories": [{"alias": "mexican", "title": "Mexican"}]}]}
{"total": 243, "businesses": [{"rating": 5.0, "review_count": 2, "name": "Bannon Carpet Cleaning", "url": "https://www.yelp.com/biz/bannon-carpet-chicago-2?adjust_creative=4ANmej72Lq5uvu_h_d83AQ&utm_campaign=yelp_api_v3&utm_medium=api_v3_business_search&utm_source=4ANmej72Lq5uvu_h_d83AQ", "coordinates": {"latitude": 41.93844, "longitude": -87.757952}, "phone": "+17732837986", "image_url": "https://s3-media4.fl.yelpcdn.com/bphoto/_ln-hw_fyylmjsRiwXWQYg/o.jpg", "location": {"city": "Chicago", "country": "US", "address2": "", "address3": "", "state": "IL", "address1": "5231 W Belmont Av", "zip_code": "60641"}, "id": "bannon-carpet-chicago-2", "categories": [{"alias": "officecleaning", "title": "Office Cleaning"}]}]}
{"total": 243, "businesses": [{"rating": 3.5, "review_count": 4, "name": "American Independent Heating & Air Conditioning", "url": "https://www.yelp.com/biz/american-independent-heating-and-air-conditioning-chicago?adjust_creative=4ANmej72Lq5uvu_h_d83AQ&utm_campaign=yelp_api_v3&utm_medium=api_v3_business_search&utm_source=4ANmej72Lq5uvu_h_d83AQ", "coordinates": {"latitude": 41.9427759200335, "longitude": -87.7470342814922}, "phone": "+17733877272", "image_url": "", "location": {"city": "Chicago", "country": "US", "address2": "", "address3": "", "state": "IL", "address1": "3408 N Cicero Ave", "zip_code": "60641"}, "id": "american-independent-heating-and-air-conditioning-chicago", "categories": [{"alias": "hvac", "title": "Heating & Air Conditioning/HVAC"}]}]}
{"total": 243, "businesses": [{"rating": 5.0, "review_count": 2, "name": "Easy Cash", "url": "https://www.yelp.com/biz/easy-cash-chicago?adjust_creative=4ANmej72Lq5uvu_h_d83AQ&utm_campaign=yelp_api_v3&utm_medium=api_v3_business_search&utm_source=4ANmej72Lq5uvu_h_d83AQ", "coordinates": {"latitude": 41.9391025, "longitude": -87.7467251}, "phone": "+17736853988", "image_url": "", "location": {"city": "Chicago", "country": "US", "address2": "", "address3": "", "state": "IL", "address1": "3213 N Cicero Ave", "zip_code": "60641"}, "id": "easy-cash-chicago", "categories": [{"alias": "pawn", "title": "Pawn Shops"}]}]}
{"total": 243, "businesses": [{"rating": 5.0, "review_count": 2, "name": "Aldi", "url": "https://www.yelp.com/biz/aldi-chicago-27?adjust_creative=4ANmej72Lq5uvu_h_d83AQ&utm_campaign=yelp_api_v3&utm_medium=api_v3_business_search&utm_source=4ANmej72Lq5uvu_h_d83AQ", "price": "$", "coordinates": {"latitude": 41.9316665210936, "longitude": -87.7480639517064}, "image_url": "https://s3-media4.fl.yelpcdn.com/bphoto/ApRceKtert_qxG51IpNmIA/o.jpg", "location": {"city": "Chicago", "country": "US", "address2": "", "address3": "", "state": "IL", "address1": "4627 W Diversey Ave", "zip_code": "60641"}, "id": "aldi-chicago-27", "categories": [{"alias": "grocery", "title": "Grocery"}]}]}
{"total": 243, "businesses": [{"rating": 5.0, "review_count": 3, "name": "T & T Muffler & Brakes", "url": "https://www.yelp.com/biz/t-and-t-muffler-and-brakes-chicago?adjust_creative=4ANmej72Lq5uvu_h_d83AQ&utm_campaign=yelp_api_v3&utm_medium=api_v3_business_search&utm_source=4ANmej72Lq5uvu_h_d83AQ", "coordinates": {"latitude": 41.937053, "longitude": -87.756988}, "phone": "+17732051154", "image_url": "https://s3-media2.fl.yelpcdn.com/bphoto/7cNP3NPxpX49VNSikKEGaQ/o.jpg", "location": {"city": "Chicago", "country": "US", "address2": "", "address3": "", "state": "IL", "address1": "3100 N Laramie Ave", "zip_code": "60641"}, "id": "t-and-t-muffler-and-brakes-chicago", "categories": [{"alias": "autorepair", "title": "Auto Repair"}]}]}
{"total": 243, "businesses": [{"rating": 5.0, "review_count": 17, "name": "Best Friends Cleaning", "url": "https://www.yelp.com/biz/best-friends-cleaning-chicago?adjust_creative=4ANmej72Lq5uvu_h_d83AQ&utm_campaign=yelp_api_v3&utm_medium=api_v3_business_search&utm_source=4ANmej72Lq5uvu_h_d83AQ", "coordinates": {"latitude": 41.9511110833964, "longitude": -87.7768461380159}, "phone": "+17732826900", "image_url": "https://s3-media1.fl.yelpcdn.com/bphoto/mOHEq6t0uu-rPkKtK5bmhw/o.jpg", "location": {"city": "Chicago", "country": "US", "address2": null, "address3": "", "state": "IL", "address1": "6001 W Byron St", "zip_code": "60634"}, "id": "best-friends-cleaning-chicago", "categories": [{"alias": "officecleaning", "title": "Office Cleaning"}, {"alias": "homecleaning", "title": "Home Cleaning"}, {"alias": "windowwashing", "title": "Window Washing"}]}]}
{"total": 243, "businesses": [{"rating": 5.0, "review_count": 4, "name": "Belmont Chiropractic Center", "url": "https://www.yelp.com/biz/belmont-chiropractic-center-chicago?adjust_creative=4ANmej72Lq5uvu_h_d83AQ&utm_campaign=yelp_api_v3&utm_medium=api_v3_business_search&utm_source=4ANmej72Lq5uvu_h_d83AQ", "coordinates": {"latitude": 41.9384299, "longitude": -87.75813}, "phone": "+17732867118", "image_url": "", "location": {"city": "Chicago", "country": "US", "address2": "", "address3": "", "state": "IL", "address1": "5237 W Belmont Ave", "zip_code": "60641"}, "id": "belmont-chiropractic-center-chicago", "categories": [{"alias": "chiropractors", "title": "Chiropractors"}]}]}
{"total": 247, "businesses": [{"rating": 5.0, "review_count": 4, "name": "Belmont Chiropractic Center", "url": "https://www.yelp.com/biz/belmont-chiropractic-center-chicago?adjust_creative=4ANmej72Lq5uvu_h_d83AQ&utm_campaign=yelp_api_v3&utm_medium=api_v3_business_search&utm_source=4ANmej72Lq5uvu_h_d83AQ", "coordinates": {"latitude": 41.9384299, "longitude": -87.75813}, "phone": "+17732867118", "image_url": "", "location": {"city": "Chicago", "country": "US", "address2": "", "address3": "", "state": "IL", "address1": "5237 W Belmont Ave", "zip_code": "60641"}, "id": "belmont-chiropractic-center-chicago", "categories": [{"alias": "chiropractors", "title": "Chiropractors"}]}]}
{"total": 247, "businesses": [{"rating": 3.5, "review_count": 17, "name": "American Home Fence", "url": "https://www.yelp.com/biz/american-home-fence-chicago?adjust_creative=4ANmej72Lq5uvu_h_d83AQ&utm_campaign=yelp_api_v3&utm_medium=api_v3_business_search&utm_source=4ANmej72Lq5uvu_h_d83AQ", "coordinates": {"latitude": 41.9437761, "longitude": -87.7471801}, "phone": "+17737773700", "image_url": "https://s3-media1.fl.yelpcdn.com/bphoto/uPxr1C1nXDsQE_8xejDaxw/o.jpg", "location": {"city": "Chicago", "country": "US", "address2": "", "address3": "", "state": "IL", "address1": "3444 N Cicero Ave", "zip_code": "60641"}, "id": "american-home-fence-chicago", "categories": [{"alias": "fencesgates", "title": "Fences & Gates"}]}]}
{"total": 243, "businesses": [{"rating": 3.0, "review_count": 11, "name": "Automax Chicago Inc", "url": "https://www.yelp.com/biz/automax-chicago-inc-chicago?adjust_creative=4ANmej72Lq5uvu_h_d83AQ&utm_campaign=yelp_api_v3&utm_medium=api_v3_business_search&utm_source=4ANmej72Lq5uvu_h_d83AQ", "coordinates": {"latitude": 41.9376106, "longitude": -87.7466507}, "phone": "+17732868888", "image_url": "https://s3-media4.fl.yelpcdn.com/bphoto/4ph3qWXuTVeNRnitgfJnTA/o.jpg", "location": {"city": "Chicago", "country": "US", "address2": "", "address3": "", "state": "IL", "address1": "3125 N Cicero Ave", "zip_code": "60641"}, "id": "automax-chicago-inc-chicago", "categories": [{"alias": "car_dealers", "title": "Car Dealers"}]}]}
{"total": 243, "businesses": [{"rating": 5.0, "review_count": 6, "name": "Polstar Auto Center", "url": "https://www.yelp.com/biz/polstar-auto-center-chicago?adjust_creative=4ANmej72Lq5uvu_h_d83AQ&utm_campaign=yelp_api_v3&utm_medium=api_v3_business_search&utm_source=4ANmej72Lq5uvu_h_d83AQ", "coordinates": {"latitude": 41.9341318309307, "longitude": -87.7467660605907}, "phone": "+17732829967", "image_url": "", "location": {"city": "Chicago", "country": "US", "address2": "", "address3": "", "state": "IL", "address1": "2930 N Cicero Avenue", "zip_code": "60641"}, "id": "polstar-auto-center-chicago", "categories": [{"alias": "autorepair", "title": "Auto Repair"}]}]}
{"total": 247, "businesses": [{"rating": 5.0, "review_count": 6, "name": "Polstar Auto Center", "url": "https://www.yelp.com/biz/polstar-auto-center-chicago?adjust_creative=4ANmej72Lq5uvu_h_d83AQ&utm_campaign=yelp_api_v3&utm_medium=api_v3_business_search&utm_source=4ANmej72Lq5uvu_h_d83AQ", "coordinates": {"latitude": 41.9341318309307, "longitude": -87.7467660605907}, "phone": "+17732829967", "image_url": "", "location": {"city": "Chicago", "country": "US", "address2": "", "address3": "", "state": "IL", "address1": "2930 N Cicero Avenue", "zip_code": "60641"}, "id": "polstar-auto-center-chicago", "categories": [{"alias": "autorepair", "title": "Auto Repair"}]}]}
{"total": 243, "businesses": [{"rating": 5.0, "review_count": 2, "name": "MJ's Barbershop", "url": "https://www.yelp.com/biz/mjs-barbershop-chicago?adjust_creative=4ANmej72Lq5uvu_h_d83AQ&utm_campaign=yelp_api_v3&utm_medium=api_v3_business_search&utm_source=4ANmej72Lq5uvu_h_d83AQ", "price": "$", "coordinates": {"latitude": 41.9461784362793, "longitude": -87.7470245361328}, "phone": "+17734569801", "image_url": "https://s3-media3.fl.yelpcdn.com/bphoto/i7W3_UT8sW_oC9Swa8bz-Q/o.jpg", "location": {"city": "Chicago", "country": "US", "address2": null, "address3": null, "state": "IL", "address1": "", "zip_code": "60641"}, "id": "mjs-barbershop-chicago", "categories": [{"alias": "barbers", "title": "Barbers"}]}]}
{"total": 247, "businesses": [{"rating": 5.0, "review_count": 2, "name": "MJ's Barbershop", "url": "https://www.yelp.com/biz/mjs-barbershop-chicago?adjust_creative=4ANmej72Lq5uvu_h_d83AQ&utm_campaign=yelp_api_v3&utm_medium=api_v3_business_search&utm_source=4ANmej72Lq5uvu_h_d83AQ", "price": "$", "coordinates": {"latitude": 41.9461784362793, "longitude": -87.7470245361328}, "phone": "+17734569801", "image_url": "https://s3-media3.fl.yelpcdn.com/bphoto/i7W3_UT8sW_oC9Swa8bz-Q/o.jpg", "location": {"city": "Chicago", "country": "US", "address2": null, "address3": null, "state": "IL", "address1": "", "zip_code": "60641"}, "id": "mjs-barbershop-chicago", "categories": [{"alias": "barbers", "title": "Barbers"}]}]}
{"total": 247, "businesses": [{"rating": 3.5, "review_count": 6, "name": "St Bartholomew's School", "url": "https://www.yelp.com/biz/st-bartholomews-school-chicago?adjust_creative=4ANmej72Lq5uvu_h_d83AQ&utm_campaign=yelp_api_v3&utm_medium=api_v3_business_search&utm_source=4ANmej72Lq5uvu_h_d83AQ", "coordinates": {"latitude": 41.9468451, "longitude": -87.7515972}, "phone": "+17732829373", "image_url": "", "location": {"city": "Chicago", "address1": "4941 W Patterson Ave", "address2": "", "address3": "", "state": "IL", "country": "US", "zip_code": "60641"}, "id": "st-bartholomews-school-chicago", "categories": [{"alias": "elementaryschools", "title": "Elementary Schools"}, {"alias": "highschools", "title": "Middle Schools & High Schools"}, {"alias": "religiousschools", "title": "Religious Schools"}]}]}
{"total": 243, "businesses": [{"rating": 4.0, "review_count": 18, "name": "Enterprise Rent-A-Car", "url": "https://www.yelp.com/biz/enterprise-rent-a-car-chicago-64?adjust_creative=4ANmej72Lq5uvu_h_d83AQ&utm_campaign=yelp_api_v3&utm_medium=api_v3_business_search&utm_source=4ANmej72Lq5uvu_h_d83AQ", "coordinates": {"latitude": 41.936688, "longitude": -87.746583}, "phone": "+17732831001", "image_url": "https://s3-media4.fl.yelpcdn.com/bphoto/-U1PeREdsBP6ZgUtVQV9kw/o.jpg", "location": {"city": "Chicago", "country": "US", "address2": null, "address3": null, "state": "IL", "address1": "5358 W Irving Park Rd", "zip_code": "60641"}, "id": "enterprise-rent-a-car-chicago-64", "categories": [{"alias": "carrental", "title": "Car Rental"}]}]}
{"total": 243, "businesses": [{"rating": 4.0, "review_count": 4, "name": "Jadwiga's Florist", "url": "https://www.yelp.com/biz/jadwigas-florist-chicago?adjust_creative=4ANmej72Lq5uvu_h_d83AQ&utm_campaign=yelp_api_v3&utm_medium=api_v3_business_search&utm_source=4ANmej72Lq5uvu_h_d83AQ", "price": "$$$", "coordinates": {"latitude": 41.9384384, "longitude": -87.7578583}, "phone": "+17737948953", "image_url": "https://s3-media1.fl.yelpcdn.com/bphoto/NvCB0MlfORS6gVocrfCfxg/o.jpg", "location": {"city": "Chicago", "country": "US", "address2": "", "address3": "", "state": "IL", "address1": "5229 W Belmont Ave", "zip_code": "60641"}, "id": "jadwigas-florist-chicago", "categories": [{"alias": "florists", "title": "Florists"}]}]}
{"total": 243, "businesses": [{"rating": 3.5, "review_count": 8, "name": "#80 Irving Park Bus", "url": "https://www.yelp.com/biz/80-irving-park-bus-chicago?adjust_creative=4ANmej72Lq5uvu_h_d83AQ&utm_campaign=yelp_api_v3&utm_medium=api_v3_business_search&utm_source=4ANmej72Lq5uvu_h_d83AQ", "coordinates": {"latitude": 41.9461784362793, "longitude": -87.7470245361328}, "phone": "", "image_url": "", "location": {"city": "Chicago", "country": "US", "address2": "", "address3": "", "state": "IL", "address1": "Transit Land", "zip_code": "60641"}, "id": "80-irving-park-bus-chicago", "categories": [{"alias": "publictransport", "title": "Public Transportation"}]}]}
{"total": 247, "businesses": [{"rating": 3.5, "review_count": 8, "name": "#80 Irving Park Bus", "url": "https://www.yelp.com/biz/80-irving-park-bus-chicago?adjust_creative=4ANmej72Lq5uvu_h_d83AQ&utm_campaign=yelp_api_v3&utm_medium=api_v3_business_search&utm_source=4ANmej72Lq5uvu_h_d83AQ", "coordinates": {"latitude": 41.9461784362793, "longitude": -87.7470245361328}, "phone": "", "image_url": "", "location": {"city": "Chicago", "address1": "Transit Land", "address2": "", "address3": "", "state": "IL", "country": "US", "zip_code": "60641"}, "id": "80-irving-park-bus-chicago", "categories": [{"alias": "publictransport", "title": "Public Transportation"}]}]}
{"total": 243, "businesses": [{"rating": 3.5, "review_count": 3, "name": "Addison & Laramie Shell", "url": "https://www.yelp.com/biz/addison-and-laramie-shell-chicago?adjust_creative=4ANmej72Lq5uvu_h_d83AQ&utm_campaign=yelp_api_v3&utm_medium=api_v3_business_search&utm_source=4ANmej72Lq5uvu_h_d83AQ", "coordinates": {"latitude": 41.94573, "longitude": -87.75731}, "phone": "+17735459544", "image_url": "", "location": {"city": "Chicago", "country": "US", "address2": "", "address3": "", "state": "IL", "address1": "5201 W Addison St", "zip_code": "60641"}, "id": "addison-and-laramie-shell-chicago", "categories": [{"alias": "servicestations", "title": "Gas & Service Stations"}]}]}
{"total": 243, "businesses": [{"rating": 3.0, "review_count": 4, "name": "Maria Munoz, MD", "url": "https://www.yelp.com/biz/maria-munoz-md-chicago?adjust_creative=4ANmej72Lq5uvu_h_d83AQ&utm_campaign=yelp_api_v3&utm_medium=api_v3_business_search&utm_source=4ANmej72Lq5uvu_h_d83AQ", "coordinates": {"latitude": 41.9463577270508, "longitude": -87.7492599487305}, "phone": "+17732028861", "image_url": "", "location": {"city": "Chicago", "country": "US", "address2": "", "address3": "", "state": "IL", "address1": "4854 W Addison St", "zip_code": "60641"}, "id": "maria-munoz-md-chicago", "categories": [{"alias": "physicians", "title": "Doctors"}]}]}
{"total": 247, "businesses": [{"rating": 3.0, "review_count": 4, "name": "Maria Munoz, MD", "url": "https://www.yelp.com/biz/maria-munoz-md-chicago?adjust_creative=4ANmej72Lq5uvu_h_d83AQ&utm_campaign=yelp_api_v3&utm_medium=api_v3_business_search&utm_source=4ANmej72Lq5uvu_h_d83AQ", "coordinates": {"latitude": 41.9463577270508, "longitude": -87.7492599487305}, "phone": "+17732028861", "image_url": "", "location": {"city": "Chicago", "country": "US", "address2": "", "address3": "", "state": "IL", "address1": "4854 W Addison St", "zip_code": "60641"}, "id": "maria-munoz-md-chicago", "categories": [{"alias": "physicians", "title": "Doctors"}]}]}
{"total": 243, "businesses": [{"rating": 5.0, "review_count": 15, "name": "2nd City Craftsmen and Construction", "url": "https://www.yelp.com/biz/2nd-city-craftsmen-and-construction-chicago-3?adjust_creative=4ANmej72Lq5uvu_h_d83AQ&utm_campaign=yelp_api_v3&utm_medium=api_v3_business_search&utm_source=4ANmej72Lq5uvu_h_d83AQ", "coordinates": {"latitude": 41.9610049, "longitude": -87.7255098}, "phone": "+12245920689", "image_url": "https://s3-media4.fl.yelpcdn.com/bphoto/ORWwJmq5F5FwBQit4kVnvg/o.jpg", "location": {"city": "Chicago", "country": "US", "address2": "", "address3": "", "state": "IL", "address1": "3902 W Montrose Ave", "zip_code": "60618"}, "id": "2nd-city-craftsmen-and-construction-chicago-3", "categories": [{"alias": "contractors", "title": "Contractors"}]}]}
{"total": 243, "businesses": [{"rating": 4.5, "review_count": 3, "name": "A-Z Sales", "url": "https://www.yelp.com/biz/a-z-sales-chicago?adjust_creative=4ANmej72Lq5uvu_h_d83AQ&utm_campaign=yelp_api_v3&utm_medium=api_v3_business_search&utm_source=4ANmej72Lq5uvu_h_d83AQ", "coordinates": {"latitude": 41.94853, "longitude": -87.7467999}, "phone": "+17732868104", "image_url": "", "location": {"city": "Chicago", "address1": "3717 N Cicero Avenue", "address2": "", "address3": "", "state": "IL", "country": "US", "zip_code": "60641"}, "id": "a-z-sales-chicago", "categories": [{"alias": "gourmet", "title": "Specialty Food"}]}]}
{"total": 243, "businesses": [{"rating": 2.5, "review_count": 22, "name": "The Autobarn City Mazda", "url": "https://www.yelp.com/biz/the-autobarn-city-mazda-chicago?adjust_creative=4ANmej72Lq5uvu_h_d83AQ&utm_campaign=yelp_api_v3&utm_medium=api_v3_business_search&utm_source=4ANmej72Lq5uvu_h_d83AQ", "coordinates": {"latitude": 41.9400829821825, "longitude": -87.7468344569206}, "phone": "+18883830815", "image_url": "https://s3-media2.fl.yelpcdn.com/bphoto/d5cvD0eDJIKuGbhGoQ9zdA/o.jpg", "location": {"city": "Chicago", "address1": "3255 N. Cicero Ave.", "address2": null, "address3": "", "state": "IL", "country": "US", "zip_code": "60641"}, "id": "the-autobarn-city-mazda-chicago", "categories": [{"alias": "car_dealers", "title": "Car Dealers"}]}]}
{"total": 243, "businesses": [{"rating": 2.5, "review_count": 6, "name": "Little Caesar's Pizza Treat", "url": "https://www.yelp.com/biz/little-caesars-pizza-treat-chicago-5?adjust_creative=4ANmej72Lq5uvu_h_d83AQ&utm_campaign=yelp_api_v3&utm_medium=api_v3_business_search&utm_source=4ANmej72Lq5uvu_h_d83AQ", "price": "$", "coordinates": {"latitude": 41.9316549, "longitude": -87.7471399}, "phone": "+17737252400", "image_url": "https://s3-media2.fl.yelpcdn.com/bphoto/qO8gNS4sPKUVp1Ex_gvUQA/o.jpg", "location": {"city": "Chicago", "country": "US", "address2": "", "address3": "", "state": "IL", "address1": "4810 W Diversey Avenue", "zip_code": "60639"}, "id": "little-caesars-pizza-treat-chicago-5", "categories": [{"alias": "pizza", "title": "Pizza"}]}]}
{"total": 243, "businesses": [{"rating": 4.0, "review_count": 24, "name": "Guaranteed Gutters", "url": "https://www.yelp.com/biz/guaranteed-gutters-chicago?adjust_creative=4ANmej72Lq5uvu_h_d83AQ&utm_campaign=yelp_api_v3&utm_medium=api_v3_business_search&utm_source=4ANmej72Lq5uvu_h_d83AQ", "coordinates": {"latitude": 41.9652099609375, "longitude": -87.7749099731445}, "phone": "+17736859556", "image_url": "https://s3-media2.fl.yelpcdn.com/bphoto/IP7KP3DE9eqkx0m-yhJqJA/o.jpg", "location": {"city": "Chicago", "country": "US", "address2": null, "address3": "", "state": "IL", "address1": "5900 W Eastwood Ave", "zip_code": "60630"}, "id": "guaranteed-gutters-chicago", "categories": [{"alias": "gutterservices", "title": "Gutter Services"}]}]}
{"total": 243, "businesses": [{"rating": 5.0, "review_count": 5, "name": "A Plus Auto Detail", "url": "https://www.yelp.com/biz/a-plus-auto-detail-chicago-2?adjust_creative=4ANmej72Lq5uvu_h_d83AQ&utm_campaign=yelp_api_v3&utm_medium=api_v3_business_search&utm_source=4ANmej72Lq5uvu_h_d83AQ", "coordinates": {"latitude": 41.93904, "longitude": -87.7509199}, "phone": "+17735529772", "image_url": "https://s3-media3.fl.yelpcdn.com/bphoto/AmXfgDQvjF72or12Ph9dXw/o.jpg", "location": {"city": "Chicago", "country": "US", "address2": "", "address3": "", "state": "IL", "address1": "4938 W Belmont Ave", "zip_code": "60641"}, "id": "a-plus-auto-detail-chicago-2", "categories": [{"alias": "auto_detailing", "title": "Auto Detailing"}]}]}
{"total": 243, "businesses": [{"rating": 3.5, "review_count": 4, "name": "Chicago Public Library - Portage-Cragin Branch", "url": "https://www.yelp.com/biz/chicago-public-library-portage-cragin-branch-chicago?adjust_creative=4ANmej72Lq5uvu_h_d83AQ&utm_campaign=yelp_api_v3&utm_medium=api_v3_business_search&utm_source=4ANmej72Lq5uvu_h_d83AQ", "coordinates": {"latitude": 41.9389839172363, "longitude": -87.7549209594727}, "phone": "+13127440152", "image_url": "https://s3-media4.fl.yelpcdn.com/bphoto/NhJ1QfJd_BLkfoTIX33ORQ/o.jpg", "location": {"city": "Chicago", "address1": "5108 W Belmont Ave", "address2": "", "address3": "", "state": "IL", "country": "US", "zip_code": "60641"}, "id": "chicago-public-library-portage-cragin-branch-chicago", "categories": [{"alias": "libraries", "title": "Libraries"}]}]}
{"total": 243, "businesses": [{"rating": 5.0, "review_count": 1, "name": "International Body Jewelry & Tattoo Supply", "url": "https://www.yelp.com/biz/international-body-jewelry-and-tattoo-supply-chicago?adjust_creative=4ANmej72Lq5uvu_h_d83AQ&utm_campaign=yelp_api_v3&utm_medium=api_v3_business_search&utm_source=4ANmej72Lq5uvu_h_d83AQ", "price": "$", "coordinates": {"latitude": 41.9358172, "longitude": -87.7469393}, "phone": "+17736856050", "image_url": "https://s3-media2.fl.yelpcdn.com/bphoto/KNuQ2JrPme-UgfuP8d7pUg/o.jpg", "location": {"city": "Chicago", "country": "US", "address2": "", "address3": "", "state": "IL", "address1": "3024 N Cicero Ave", "zip_code": "60641"}, "id": "international-body-jewelry-and-tattoo-supply-chicago", "categories": [{"alias": "tattoo", "title": "Tattoo"}]}]}
{"total": 247, "businesses": [{"rating": 5.0, "review_count": 1, "name": "International Body Jewelry & Tattoo Supply", "url": "https://www.yelp.com/biz/international-body-jewelry-and-tattoo-supply-chicago?adjust_creative=4ANmej72Lq5uvu_h_d83AQ&utm_campaign=yelp_api_v3&utm_medium=api_v3_business_search&utm_source=4ANmej72Lq5uvu_h_d83AQ", "price": "$", "coordinates": {"latitude": 41.9358172, "longitude": -87.7469393}, "phone": "+17736856050", "image_url": "https://s3-media2.fl.yelpcdn.com/bphoto/KNuQ2JrPme-UgfuP8d7pUg/o.jpg", "location": {"city": "Chicago", "country": "US", "address2": "", "address3": "", "state": "IL", "address1": "3024 N Cicero Ave", "zip_code": "60641"}, "id": "international-body-jewelry-and-tattoo-supply-chicago", "categories": [{"alias": "tattoo", "title": "Tattoo"}]}]}
{"total": 243, "businesses": [{"rating": 5.0, "review_count": 3, "name": "Panos Auto Service", "url": "https://www.yelp.com/biz/panos-auto-service-chicago?adjust_creative=4ANmej72Lq5uvu_h_d83AQ&utm_campaign=yelp_api_v3&utm_medium=api_v3_business_search&utm_source=4ANmej72Lq5uvu_h_d83AQ", "coordinates": {"latitude": 41.9391, "longitude": -87.74554}, "phone": "+17736857373", "image_url": "https://s3-media3.fl.yelpcdn.com/bphoto/siTinWTmrA7CbMCNOXUmQQ/o.jpg", "location": {"city": "Chicago", "country": "US", "address2": null, "address3": "", "state": "IL", "address1": "4744 W Belmont Ave", "zip_code": "60641"}, "id": "panos-auto-service-chicago", "categories": [{"alias": "autorepair", "title": "Auto Repair"}, {"alias": "tires", "title": "Tires"}, {"alias": "oilchange", "title": "Oil Change Stations"}]}]}
{"total": 247, "businesses": [{"rating": 5.0, "review_count": 3, "name": "Panos Auto Service", "url": "https://www.yelp.com/biz/panos-auto-service-chicago?adjust_creative=4ANmej72Lq5uvu_h_d83AQ&utm_campaign=yelp_api_v3&utm_medium=api_v3_business_search&utm_source=4ANmej72Lq5uvu_h_d83AQ", "coordinates": {"latitude": 41.9391, "longitude": -87.74554}, "phone": "+17736857373", "image_url": "https://s3-media3.fl.yelpcdn.com/bphoto/siTinWTmrA7CbMCNOXUmQQ/o.jpg", "location": {"city": "Chicago", "address1": "4744 W Belmont Ave", "address2": null, "address3": "", "state": "IL", "country": "US", "zip_code": "60641"}, "id": "panos-auto-service-chicago", "categories": [{"alias": "autorepair", "title": "Auto Repair"}, {"alias": "tires", "title": "Tires"}, {"alias": "oilchange", "title": "Oil Change Stations"}]}]}
{"total": 247, "businesses": [{"rating": 5.0, "review_count": 2, "name": "Smart TV Studios", "url": "https://www.yelp.com/biz/smart-tv-studios-chicago?adjust_creative=4ANmej72Lq5uvu_h_d83AQ&utm_campaign=yelp_api_v3&utm_medium=api_v3_business_search&utm_source=4ANmej72Lq5uvu_h_d83AQ", "coordinates": {"latitude": 41.93905, "longitude": -87.75022}, "phone": "+18478683240", "image_url": "https://s3-media3.fl.yelpcdn.com/bphoto/1gVmiOQIO3M81mh6BR-ZYw/o.jpg", "location": {"city": "Chicago", "country": "US", "address2": null, "address3": "", "state": "IL", "address1": "4920 Belmont Ave", "zip_code": "60641"}, "id": "smart-tv-studios-chicago", "categories": [{"alias": "videofilmproductions", "title": "Video/Film Production"}]}]}
{"total": 243, "businesses": [{"rating": 5.0, "review_count": 1, "name": "Established Auto Service", "url": "https://www.yelp.com/biz/established-auto-service-chicago?adjust_creative=4ANmej72Lq5uvu_h_d83AQ&utm_campaign=yelp_api_v3&utm_medium=api_v3_business_search&utm_source=4ANmej72Lq5uvu_h_d83AQ", "coordinates": {"latitude": 41.93896, "longitude": -87.75688}, "phone": "+17738530659", "image_url": "https://s3-media3.fl.yelpcdn.com/bphoto/wCzuEvu5h8oFLvp263CsVg/o.jpg", "location": {"city": "Chicago", "country": "US", "address2": null, "address3": "", "state": "IL", "address1": "5200 W Belmont Ave", "zip_code": "60641"}, "id": "established-auto-service-chicago", "categories": [{"alias": "autorepair", "title": "Auto Repair"}]}]}
{"total": 243, "businesses": [{"rating": 2.5, "review_count": 3, "name": "Climate Masters Heating and Air Conditioning", "url": "https://www.yelp.com/biz/climate-masters-heating-and-air-conditioning-chicago?adjust_creative=4ANmej72Lq5uvu_h_d83AQ&utm_campaign=yelp_api_v3&utm_medium=api_v3_business_search&utm_source=4ANmej72Lq5uvu_h_d83AQ", "coordinates": {"latitude": 41.939386, "longitude": -87.754559}, "phone": "+17735240598", "image_url": "https://s3-media2.fl.yelpcdn.com/bphoto/w1yhKMxapX-DrT2TNy7Dng/o.jpg", "location": {"city": "Chicago", "country": "US", "address2": null, "address3": "", "state": "IL", "address1": "5105 W Melrose St", "zip_code": "60641"}, "id": "climate-masters-heating-and-air-conditioning-chicago", "categories": [{"alias": "hvac", "title": "Heating & Air Conditioning/HVAC"}]}]}
{"total": 247, "businesses": [{"rating": 2.5, "review_count": 3, "name": "Climate Masters Heating and Air Conditioning", "url": "https://www.yelp.com/biz/climate-masters-heating-and-air-conditioning-chicago?adjust_creative=4ANmej72Lq5uvu_h_d83AQ&utm_campaign=yelp_api_v3&utm_medium=api_v3_business_search&utm_source=4ANmej72Lq5uvu_h_d83AQ", "coordinates": {"latitude": 41.939386, "longitude": -87.754559}, "phone": "+17735240598", "image_url": "https://s3-media2.fl.yelpcdn.com/bphoto/w1yhKMxapX-DrT2TNy7Dng/o.jpg", "location": {"city": "Chicago", "country": "US", "address2": null, "address3": "", "state": "IL", "address1": "5105 W Melrose St", "zip_code": "60641"}, "id": "climate-masters-heating-and-air-conditioning-chicago", "categories": [{"alias": "hvac", "title": "Heating & Air Conditioning/HVAC"}]}]}
{"total": 243, "businesses": [{"rating": 5.0, "review_count": 1, "name": "Santa Fe", "url": "https://www.yelp.com/biz/santa-fe-chicago?adjust_creative=4ANmej72Lq5uvu_h_d83AQ&utm_campaign=yelp_api_v3&utm_medium=api_v3_business_search&utm_source=4ANmej72Lq5uvu_h_d83AQ", "price": "$", "coordinates": {"latitude": 41.945793, "longitude": -87.752258}, "phone": "+17734811383", "image_url": "", "location": {"city": "Chicago", "address1": "5001 W Addison Street", "address2": "", "address3": "", "state": "IL", "country": "US", "zip_code": "60641"}, "id": "santa-fe-chicago", "categories": [{"alias": "grocery", "title": "Grocery"}]}]}
{"total": 243, "businesses": [{"rating": 4.5, "review_count": 10, "name": "Simply Custom, Inc", "url": "https://www.yelp.com/biz/simply-custom-inc-chicago-3?adjust_creative=4ANmej72Lq5uvu_h_d83AQ&utm_campaign=yelp_api_v3&utm_medium=api_v3_business_search&utm_source=4ANmej72Lq5uvu_h_d83AQ", "coordinates": {"latitude": 41.96079, "longitude": -87.763834}, "phone": "+17737948568", "image_url": "https://s3-media2.fl.yelpcdn.com/bphoto/4jUWiF1wGcbySjUz8RYc9A/o.jpg", "location": {"city": "Chicago", "address1": "5436 W Montrose", "address2": null, "address3": "", "state": "IL", "country": "US", "zip_code": "60641"}, "id": "simply-custom-inc-chicago-3", "categories": [{"alias": "blinds", "title": "Shades & Blinds"}]}]}
{"total": 243, "businesses": [{"rating": 5.0, "review_count": 1, "name": "Autozone", "url": "https://www.yelp.com/biz/autozone-chicago-37?adjust_creative=4ANmej72Lq5uvu_h_d83AQ&utm_campaign=yelp_api_v3&utm_medium=api_v3_business_search&utm_source=4ANmej72Lq5uvu_h_d83AQ", "coordinates": {"latitude": 41.9454871519485, "longitude": -87.7465531602502}, "phone": "+17734812650", "image_url": "", "location": {"city": "Chicago", "country": "US", "address2": "", "address3": "", "state": "IL", "address1": "3525 N Cicero", "zip_code": "60641"}, "id": "autozone-chicago-37", "categories": [{"alias": "autopartssupplies", "title": "Auto Parts & Supplies"}]}]}
{"total": 247, "businesses": [{"rating": 5.0, "review_count": 1, "name": "Autozone", "url": "https://www.yelp.com/biz/autozone-chicago-37?adjust_creative=4ANmej72Lq5uvu_h_d83AQ&utm_campaign=yelp_api_v3&utm_medium=api_v3_business_search&utm_source=4ANmej72Lq5uvu_h_d83AQ", "coordinates": {"latitude": 41.9454871519485, "longitude": -87.7465531602502}, "phone": "+17734812650", "image_url": "", "location": {"city": "Chicago", "country": "US", "address2": "", "address3": "", "state": "IL", "address1": "3525 N Cicero", "zip_code": "60641"}, "id": "autozone-chicago-37", "categories": [{"alias": "autopartssupplies", "title": "Auto Parts & Supplies"}]}]}
{"total": 243, "businesses": [{"rating": 5.0, "review_count": 2, "name": "Midwestern Christian Academy", "url": "https://www.yelp.com/biz/midwestern-christian-academy-chicago?adjust_creative=4ANmej72Lq5uvu_h_d83AQ&utm_campaign=yelp_api_v3&utm_medium=api_v3_business_search&utm_source=4ANmej72Lq5uvu_h_d83AQ", "coordinates": {"latitude": 41.943804, "longitude": -87.7468182}, "phone": "+17736851106", "image_url": "https://s3-media3.fl.yelpcdn.com/bphoto/7Yk8jK4doNZwq6ByVI-tbA/o.jpg", "location": {"city": "Chicago", "country": "US", "address2": "", "address3": "", "state": "IL", "address1": "3465 N Cicero Avenue", "zip_code": "60641"}, "id": "midwestern-christian-academy-chicago", "categories": [{"alias": "religiousschools", "title": "Religious Schools"}]}]}
{"total": 243, "businesses": [{"rating": 5.0, "review_count": 6, "name": "Windy City Driving School", "url": "https://www.yelp.com/biz/windy-city-driving-school-chicago?adjust_creative=4ANmej72Lq5uvu_h_d83AQ&utm_campaign=yelp_api_v3&utm_medium=api_v3_business_search&utm_source=4ANmej72Lq5uvu_h_d83AQ", "coordinates": {"latitude": 41.9472058, "longitude": -87.7468071}, "phone": "+13127720982", "image_url": "https://s3-media2.fl.yelpcdn.com/bphoto/9-AhygfPHzIHsQu-qRn02Q/o.jpg", "location": {"city": "Chicago", "country": "US", "address2": null, "address3": "", "state": "IL", "address1": "", "zip_code": "60641"}, "id": "windy-city-driving-school-chicago", "categories": [{"alias": "driving_schools", "title": "Driving Schools"}]}]}
{"total": 243, "businesses": [{"rating": 5.0, "review_count": 2, "name": "Chicago Fut Sao Wing Chun Association", "url": "https://www.yelp.com/biz/chicago-fut-sao-wing-chun-association-chicago?adjust_creative=4ANmej72Lq5uvu_h_d83AQ&utm_campaign=yelp_api_v3&utm_medium=api_v3_business_search&utm_source=4ANmej72Lq5uvu_h_d83AQ", "coordinates": {"latitude": 41.9484825, "longitude": -87.7473373}, "phone": "+17737270550", "image_url": "https://s3-media2.fl.yelpcdn.com/bphoto/m4_XHBCgf8fHA0kZfwjbpg/o.jpg", "location": {"city": "Chicago", "country": "US", "address2": "", "address3": "", "state": "IL", "address1": "3716 N Cicero Ave", "zip_code": "60641"}, "id": "chicago-fut-sao-wing-chun-association-chicago", "categories": [{"alias": "martialarts", "title": "Martial Arts"}]}]}
{"total": 247, "businesses": [{"rating": 5.0, "review_count": 6, "name": "Windy City Driving School", "url": "https://www.yelp.com/biz/windy-city-driving-school-chicago?adjust_creative=4ANmej72Lq5uvu_h_d83AQ&utm_campaign=yelp_api_v3&utm_medium=api_v3_business_search&utm_source=4ANmej72Lq5uvu_h_d83AQ", "coordinates": {"latitude": 41.9472058, "longitude": -87.7468071}, "phone": "+13127720982", "image_url": "https://s3-media2.fl.yelpcdn.com/bphoto/9-AhygfPHzIHsQu-qRn02Q/o.jpg", "location": {"city": "Chicago", "address1": "", "address2": null, "address3": "", "state": "IL", "country": "US", "zip_code": "60641"}, "id": "windy-city-driving-school-chicago", "categories": [{"alias": "driving_schools", "title": "Driving Schools"}]}]}
{"total": 247, "businesses": [{"rating": 5.0, "review_count": 2, "name": "Chicago Fut Sao Wing Chun Association", "url": "https://www.yelp.com/biz/chicago-fut-sao-wing-chun-association-chicago?adjust_creative=4ANmej72Lq5uvu_h_d83AQ&utm_campaign=yelp_api_v3&utm_medium=api_v3_business_search&utm_source=4ANmej72Lq5uvu_h_d83AQ", "coordinates": {"latitude": 41.9484825, "longitude": -87.7473373}, "phone": "+17737270550", "image_url": "https://s3-media2.fl.yelpcdn.com/bphoto/m4_XHBCgf8fHA0kZfwjbpg/o.jpg", "location": {"city": "Chicago", "country": "US", "address2": "", "address3": "", "state": "IL", "address1": "3716 N Cicero Ave", "zip_code": "60641"}, "id": "chicago-fut-sao-wing-chun-association-chicago", "categories": [{"alias": "martialarts", "title": "Martial Arts"}]}]}
{"total": 243, "businesses": [{"rating": 5.0, "review_count": 1, "name": "West Side Alano Club", "url": "https://www.yelp.com/biz/west-side-alano-club-chicago?adjust_creative=4ANmej72Lq5uvu_h_d83AQ&utm_campaign=yelp_api_v3&utm_medium=api_v3_business_search&utm_source=4ANmej72Lq5uvu_h_d83AQ", "coordinates": {"latitude": 41.9459251, "longitude": -87.7517834}, "phone": "+17732829722", "image_url": "", "location": {"city": "Chicago", "country": "US", "address2": null, "address3": null, "state": "IL", "address1": "4953 W Addison St", "zip_code": "60641"}, "id": "west-side-alano-club-chicago", "categories": [{"alias": "rehabilitation_center", "title": "Rehabilitation Center"}]}]}
{"total": 243, "businesses": [{"rating": 5.0, "review_count": 1, "name": "Master Machine Products", "url": "https://www.yelp.com/biz/master-machine-products-chicago?adjust_creative=4ANmej72Lq5uvu_h_d83AQ&utm_campaign=yelp_api_v3&utm_medium=api_v3_business_search&utm_source=4ANmej72Lq5uvu_h_d83AQ", "coordinates": {"latitude": 41.9395816, "longitude": -87.7440866}, "phone": "+17732836100", "image_url": "", "location": {"city": "Chicago", "country": "US", "address2": "", "address3": "", "state": "IL", "address1": "3220 N Kilpatrick Avenue", "zip_code": "60641"}, "id": "master-machine-products-chicago", "categories": []}]}
{"total": 243, "businesses": [{"rating": 5.0, "review_count": 1, "name": "W & B Service", "url": "https://www.yelp.com/biz/w-and-b-service-chicago?adjust_creative=4ANmej72Lq5uvu_h_d83AQ&utm_campaign=yelp_api_v3&utm_medium=api_v3_business_search&utm_source=4ANmej72Lq5uvu_h_d83AQ", "coordinates": {"latitude": 41.9459012, "longitude": -87.744386}, "phone": "+17732824454", "image_url": "https://s3-media1.fl.yelpcdn.com/bphoto/2C-076UpdezWX9o8K6CD0w/o.jpg", "location": {"city": "Chicago", "country": "US", "address2": null, "address3": null, "state": "IL", "address1": "4649 W Addison St", "zip_code": "60641"}, "id": "w-and-b-service-chicago", "categories": [{"alias": "homeappliancerepair", "title": "Appliances & Repair"}]}]}
{"total": 243, "businesses": [{"rating": 5.0, "review_count": 1, "name": "Addison Citgo", "url": "https://www.yelp.com/biz/addison-citgo-chicago?adjust_creative=4ANmej72Lq5uvu_h_d83AQ&utm_campaign=yelp_api_v3&utm_medium=api_v3_business_search&utm_source=4ANmej72Lq5uvu_h_d83AQ", "coordinates": {"latitude": 41.94615, "longitude": -87.75678}, "phone": "+17732833303", "image_url": "", "location": {"city": "Chicago", "address1": "5200 W Addison St", "address2": "", "address3": "", "state": "IL", "country": "US", "zip_code": "60641"}, "id": "addison-citgo-chicago", "categories": [{"alias": "servicestations", "title": "Gas & Service Stations"}]}]}
{"total": 243, "businesses": [{"rating": 5.0, "review_count": 2, "name": "St Bartholomew's School", "url": "https://www.yelp.com/biz/st-bartholomews-school-chicago-2?adjust_creative=4ANmej72Lq5uvu_h_d83AQ&utm_campaign=yelp_api_v3&utm_medium=api_v3_business_search&utm_source=4ANmej72Lq5uvu_h_d83AQ", "coordinates": {"latitude": 41.9468451, "longitude": -87.7515972}, "phone": "+17732829373", "image_url": "", "location": {"city": "Chicago", "country": "US", "address2": "", "address3": "", "state": "IL", "address1": "4941 W Patterson", "zip_code": "60641"}, "id": "st-bartholomews-school-chicago-2", "categories": [{"alias": "religiousschools", "title": "Religious Schools"}, {"alias": "elementaryschools", "title": "Elementary Schools"}, {"alias": "preschools", "title": "Preschools"}]}]}
{"total": 243, "businesses": [{"rating": 4.5, "review_count": 11, "name": "Access Tree Service", "url": "https://www.yelp.com/biz/access-tree-service-chicago?adjust_creative=4ANmej72Lq5uvu_h_d83AQ&utm_campaign=yelp_api_v3&utm_medium=api_v3_business_search&utm_source=4ANmej72Lq5uvu_h_d83AQ", "coordinates": {"latitude": 41.94663, "longitude": -87.74705}, "phone": "+17739911325", "image_url": "https://s3-media1.fl.yelpcdn.com/bphoto/skZRe2qZxLmyPs_oI9DEvA/o.jpg", "location": {"city": "Chicago", "country": "US", "address2": "", "address3": "", "state": "IL", "address1": "", "zip_code": "60641"}, "id": "access-tree-service-chicago", "categories": [{"alias": "treeservices", "title": "Tree Services"}]}]}
{"total": 247, "businesses": [{"rating": 5.0, "review_count": 2, "name": "St Bartholomew's School", "url": "https://www.yelp.com/biz/st-bartholomews-school-chicago-2?adjust_creative=4ANmej72Lq5uvu_h_d83AQ&utm_campaign=yelp_api_v3&utm_medium=api_v3_business_search&utm_source=4ANmej72Lq5uvu_h_d83AQ", "coordinates": {"latitude": 41.9468451, "longitude": -87.7515972}, "phone": "+17732829373", "image_url": "", "location": {"city": "Chicago", "country": "US", "address2": "", "address3": "", "state": "IL", "address1": "4941 W Patterson", "zip_code": "60641"}, "id": "st-bartholomews-school-chicago-2", "categories": [{"alias": "religiousschools", "title": "Religious Schools"}, {"alias": "elementaryschools", "title": "Elementary Schools"}, {"alias": "preschools", "title": "Preschools"}]}]}
{"total": 243, "businesses": [{"rating": 5.0, "review_count": 2, "name": "Cicero Auto Repair", "url": "https://www.yelp.com/biz/cicero-auto-repair-chicago?adjust_creative=4ANmej72Lq5uvu_h_d83AQ&utm_campaign=yelp_api_v3&utm_medium=api_v3_business_search&utm_source=4ANmej72Lq5uvu_h_d83AQ", "coordinates": {"latitude": 41.94912, "longitude": -87.74681}, "phone": "+17732020097", "image_url": "", "location": {"city": "Chicago", "country": "US", "address2": "", "address3": "", "state": "IL", "address1": "3739 N Cicero Ave", "zip_code": "60641"}, "id": "cicero-auto-repair-chicago", "categories": [{"alias": "autorepair", "title": "Auto Repair"}]}]}
{"total": 243, "businesses": [{"rating": 5.0, "review_count": 1, "name": "Diversey Truck Center", "url": "https://www.yelp.com/biz/diversey-truck-center-chicago?adjust_creative=4ANmej72Lq5uvu_h_d83AQ&utm_campaign=yelp_api_v3&utm_medium=api_v3_business_search&utm_source=4ANmej72Lq5uvu_h_d83AQ", "coordinates": {"latitude": 41.93125, "longitude": -87.74888}, "phone": "+17736377760", "image_url": "https://s3-media4.fl.yelpcdn.com/bphoto/QFWoGSPTB-cfLzheH9GYtQ/o.jpg", "location": {"city": "Chicago", "country": "US", "address2": "", "address3": "", "state": "IL", "address1": "4857 W Diversey Avenue", "zip_code": "60639"}, "id": "diversey-truck-center-chicago", "categories": [{"alias": "truckrepair", "title": "Commercial Truck Repair"}, {"alias": "truckdealers", "title": "Commercial Truck Dealers"}]}]}
{"total": 243, "businesses": [{"rating": 5.0, "review_count": 1, "name": "Classica Driving School", "url": "https://www.yelp.com/biz/classica-driving-school-chicago?adjust_creative=4ANmej72Lq5uvu_h_d83AQ&utm_campaign=yelp_api_v3&utm_medium=api_v3_business_search&utm_source=4ANmej72Lq5uvu_h_d83AQ", "coordinates": {"latitude": 41.93174, "longitude": -87.75114}, "phone": "+17735451471", "image_url": "https://s3-media3.fl.yelpcdn.com/bphoto/pvZ2-Iyjp1ycwv5H2yi-cQ/o.jpg", "location": {"city": "Chicago", "country": "US", "address2": "", "address3": "", "state": "IL", "address1": "4952 W Diversey Ave", "zip_code": "60639"}, "id": "classica-driving-school-chicago", "categories": [{"alias": "driving_schools", "title": "Driving Schools"}]}]}
{"total": 247, "businesses": [{"rating": 5.0, "review_count": 1, "name": "Diversey Truck Center", "url": "https://www.yelp.com/biz/diversey-truck-center-chicago?adjust_creative=4ANmej72Lq5uvu_h_d83AQ&utm_campaign=yelp_api_v3&utm_medium=api_v3_business_search&utm_source=4ANmej72Lq5uvu_h_d83AQ", "coordinates": {"latitude": 41.93125, "longitude": -87.74888}, "phone": "+17736377760", "image_url": "https://s3-media4.fl.yelpcdn.com/bphoto/QFWoGSPTB-cfLzheH9GYtQ/o.jpg", "location": {"city": "Chicago", "country": "US", "address2": "", "address3": "", "state": "IL", "address1": "4857 W Diversey Avenue", "zip_code": "60639"}, "id": "diversey-truck-center-chicago", "categories": [{"alias": "truckrepair", "title": "Commercial Truck Repair"}, {"alias": "truckdealers", "title": "Commercial Truck Dealers"}]}]}
{"total": 247, "businesses": [{"rating": 5.0, "review_count": 1, "name": "Classica Driving School", "url": "https://www.yelp.com/biz/classica-driving-school-chicago?adjust_creative=4ANmej72Lq5uvu_h_d83AQ&utm_campaign=yelp_api_v3&utm_medium=api_v3_business_search&utm_source=4ANmej72Lq5uvu_h_d83AQ", "coordinates": {"latitude": 41.93174, "longitude": -87.75114}, "phone": "+17735451471", "image_url": "https://s3-media3.fl.yelpcdn.com/bphoto/pvZ2-Iyjp1ycwv5H2yi-cQ/o.jpg", "location": {"city": "Chicago", "address1": "4952 W Diversey Ave", "address2": "", "address3": "", "state": "IL", "country": "US", "zip_code": "60639"}, "id": "classica-driving-school-chicago", "categories": [{"alias": "driving_schools", "title": "Driving Schools"}]}]}
{"total": 243, "businesses": [{"rating": 5.0, "review_count": 1, "name": "Murray's Discount Auto Stores", "url": "https://www.yelp.com/biz/murrays-discount-auto-stores-chicago-15?adjust_creative=4ANmej72Lq5uvu_h_d83AQ&utm_campaign=yelp_api_v3&utm_medium=api_v3_business_search&utm_source=4ANmej72Lq5uvu_h_d83AQ", "coordinates": {"latitude": 41.9316635131836, "longitude": -87.7461853027344}, "phone": "+17732831025", "image_url": "", "location": {"city": "Chicago", "address1": "2801 N Cicero Ave", "address2": "", "address3": "", "state": "IL", "country": "US", "zip_code": "60641"}, "id": "murrays-discount-auto-stores-chicago-15", "categories": [{"alias": "autopartssupplies", "title": "Auto Parts & Supplies"}]}]}
{"total": 243, "businesses": [{"rating": 5.0, "review_count": 1, "name": "Perumex", "url": "https://www.yelp.com/biz/perumex-chicago?adjust_creative=4ANmej72Lq5uvu_h_d83AQ&utm_campaign=yelp_api_v3&utm_medium=api_v3_business_search&utm_source=4ANmej72Lq5uvu_h_d83AQ", "price": "$$", "coordinates": {"latitude": 41.9313611090183, "longitude": -87.7572407573462}, "phone": "+17734177605", "image_url": "", "location": {"city": "Chicago", "country": "US", "address2": null, "address3": null, "state": "IL", "address1": "5217 W Diversey Ave", "zip_code": "60639"}, "id": "perumex-chicago", "categories": [{"alias": "grocery", "title": "Grocery"}]}]}
{"total": 243, "businesses": [{"rating": 5.0, "review_count": 1, "name": "Apollo Glass & Mirror Company", "url": "https://www.yelp.com/biz/apollo-glass-and-mirror-company-chicago?adjust_creative=4ANmej72Lq5uvu_h_d83AQ&utm_campaign=yelp_api_v3&utm_medium=api_v3_business_search&utm_source=4ANmej72Lq5uvu_h_d83AQ", "coordinates": {"latitude": 41.93119, "longitude": -87.75331}, "phone": "+17732375111", "image_url": "", "location": {"city": "Chicago", "country": "US", "address2": "", "address3": "", "state": "IL", "address1": "5047 W Diversey Avenue", "zip_code": "60639"}, "id": "apollo-glass-and-mirror-company-chicago", "categories": [{"alias": "glassandmirrors", "title": "Glass & Mirrors"}]}]}
{"total": 243, "businesses": [{"rating": 1.0, "review_count": 2, "name": "Dunkin Donuts", "url": "https://www.yelp.com/biz/dunkin-donuts-chicago-300?adjust_creative=4ANmej72Lq5uvu_h_d83AQ&utm_campaign=yelp_api_v3&utm_medium=api_v3_business_search&utm_source=4ANmej72Lq5uvu_h_d83AQ", "coordinates": {"latitude": 41.9385375976562, "longitude": -87.7489700317383}, "phone": "+17737777589", "image_url": "", "location": {"city": "Chicago", "country": "US", "address2": "", "address3": null, "state": "IL", "address1": "4851 W Belmont Ave", "zip_code": "60641"}, "id": "dunkin-donuts-chicago-300", "categories": [{"alias": "coffee", "title": "Coffee & Tea"}, {"alias": "donuts", "title": "Donuts"}]}]}
{"total": 243, "businesses": [{"rating": 2.0, "review_count": 1, "name": "Hot Stop", "url": "https://www.yelp.com/biz/hot-stop-chicago?adjust_creative=4ANmej72Lq5uvu_h_d83AQ&utm_campaign=yelp_api_v3&utm_medium=api_v3_business_search&utm_source=4ANmej72Lq5uvu_h_d83AQ", "coordinates": {"latitude": 41.93538, "longitude": -87.74715}, "phone": "", "image_url": "", "location": {"city": "Chicago", "country": "US", "address2": "", "address3": "", "state": "IL", "address1": "3000 N Cicero Ave", "zip_code": "60641"}, "id": "hot-stop-chicago", "categories": [{"alias": "divebars", "title": "Dive Bars"}, {"alias": "danceclubs", "title": "Dance Clubs"}]}]}
{"total": 243, "businesses": [{"rating": 1.0, "review_count": 6, "name": "McDonald's", "url": "https://www.yelp.com/biz/mcdonalds-chicago-29?adjust_creative=4ANmej72Lq5uvu_h_d83AQ&utm_campaign=yelp_api_v3&utm_medium=api_v3_business_search&utm_source=4ANmej72Lq5uvu_h_d83AQ", "price": "$", "coordinates": {"latitude": 41.9457188, "longitude": -87.7472049}, "phone": "+17732836049", "image_url": "", "location": {"city": "Chicago", "address1": "3560 N Cicero Ave", "address2": "", "address3": "", "state": "IL", "country": "US", "zip_code": "60641"}, "id": "mcdonalds-chicago-29", "categories": [{"alias": "hotdogs", "title": "Fast Food"}, {"alias": "burgers", "title": "Burgers"}]}]}
{"total": 243, "businesses": [{"rating": 5.0, "review_count": 5, "name": "I like Mike's Construction", "url": "https://www.yelp.com/biz/i-like-mikes-construction-chicago-8?adjust_creative=4ANmej72Lq5uvu_h_d83AQ&utm_campaign=yelp_api_v3&utm_medium=api_v3_business_search&utm_source=4ANmej72Lq5uvu_h_d83AQ", "coordinates": {"latitude": 41.9461784362793, "longitude": -87.7470245361328}, "phone": "+17737978368", "image_url": "https://s3-media3.fl.yelpcdn.com/bphoto/bRFd4Wi3Q-IOnvmPlyX0mA/o.jpg", "location": {"city": "Chicago", "country": "US", "address2": null, "address3": "", "state": "IL", "address1": null, "zip_code": "60641"}, "id": "i-like-mikes-construction-chicago-8", "categories": [{"alias": "contractors", "title": "Contractors"}, {"alias": "windowsinstallation", "title": "Windows Installation"}, {"alias": "painters", "title": "Painters"}]}]}
{"total": 243, "businesses": [{"rating": 5.0, "review_count": 2, "name": "JDN Remodeling", "url": "https://www.yelp.com/biz/jdn-remodeling-chicago?adjust_creative=4ANmej72Lq5uvu_h_d83AQ&utm_campaign=yelp_api_v3&utm_medium=api_v3_business_search&utm_source=4ANmej72Lq5uvu_h_d83AQ", "coordinates": {"latitude": 41.9461784362793, "longitude": -87.7470245361328}, "phone": "+17733146402", "image_url": "https://s3-media4.fl.yelpcdn.com/bphoto/XxdWIWfcB9bvdAhoZjTbtw/o.jpg", "location": {"city": "Chicago", "country": "US", "address2": "", "address3": "", "state": "IL", "address1": "", "zip_code": "60641"}, "id": "jdn-remodeling-chicago", "categories": [{"alias": "handyman", "title": "Handyman"}]}]}
{"total": 243, "businesses": [{"rating": 2.5, "review_count": 19, "name": "3 Day Blinds Shop-At-Home Services", "url": "https://www.yelp.com/biz/3-day-blinds-shop-at-home-services-chicago?adjust_creative=4ANmej72Lq5uvu_h_d83AQ&utm_campaign=yelp_api_v3&utm_medium=api_v3_business_search&utm_source=4ANmej72Lq5uvu_h_d83AQ", "price": "$$$", "coordinates": {"latitude": 41.9461212158203, "longitude": -87.7468490600586}, "phone": "+18776517702", "image_url": "https://s3-media3.fl.yelpcdn.com/bphoto/6F8z0xaJG2PI6--t4dFOLg/o.jpg", "location": {"city": "Chicago", "country": "US", "address2": "", "address3": "", "state": "IL", "address1": "", "zip_code": "60641"}, "id": "3-day-blinds-shop-at-home-services-chicago", "categories": [{"alias": "blinds", "title": "Shades & Blinds"}, {"alias": "interiordesign", "title": "Interior Design"}, {"alias": "homedecor", "title": "Home Decor"}]}]}
{"total": 243, "businesses": [{"rating": 5.0, "review_count": 1, "name": "Zuazo's Dollar & Flower Store", "url": "https://www.yelp.com/biz/zuazos-dollar-and-flower-store-chicago?adjust_creative=4ANmej72Lq5uvu_h_d83AQ&utm_campaign=yelp_api_v3&utm_medium=api_v3_business_search&utm_source=4ANmej72Lq5uvu_h_d83AQ", "coordinates": {"latitude": 41.9316889, "longitude": -87.7449085}, "phone": "+17732057305", "image_url": "", "location": {"city": "Chicago", "address1": "4716 W Diversey Ave", "address2": "", "address3": "", "state": "IL", "country": "US", "zip_code": "60639"}, "id": "zuazos-dollar-and-flower-store-chicago", "categories": [{"alias": "deptstores", "title": "Department Stores"}]}]}
{"total": 243, "businesses": [{"rating": 5.0, "review_count": 2, "name": "Have Doggie We'll Doo", "url": "https://www.yelp.com/biz/have-doggie-well-doo-chicago?adjust_creative=4ANmej72Lq5uvu_h_d83AQ&utm_campaign=yelp_api_v3&utm_medium=api_v3_business_search&utm_source=4ANmej72Lq5uvu_h_d83AQ", "coordinates": {"latitude": 41.94663, "longitude": -87.74705}, "phone": "+17732864727", "image_url": "https://s3-media1.fl.yelpcdn.com/bphoto/FedimzqPuIi7ixhPfzOXLg/o.jpg", "location": {"city": "Chicago", "country": "US", "address2": "", "address3": "", "state": "IL", "address1": "", "zip_code": "60641"}, "id": "have-doggie-well-doo-chicago", "categories": [{"alias": "petservices", "title": "Pet Services"}]}]}
{"total": 243, "businesses": [{"rating": 5.0, "review_count": 2, "name": "A+ Piano Instruction by Pierre Miller", "url": "https://www.yelp.com/biz/a-piano-instruction-by-pierre-miller-chicago?adjust_creative=4ANmej72Lq5uvu_h_d83AQ&utm_campaign=yelp_api_v3&utm_medium=api_v3_business_search&utm_source=4ANmej72Lq5uvu_h_d83AQ", "price": "$$", "coordinates": {"latitude": 41.9461784362793, "longitude": -87.7470245361328}, "phone": "+13126943050", "image_url": "https://s3-media2.fl.yelpcdn.com/bphoto/NU-xMI32yUJQvdjgBMBKNQ/o.jpg", "location": {"city": "Chicago", "country": "US", "address2": "", "address3": "", "state": "IL", "address1": "", "zip_code": "60641"}, "id": "a-piano-instruction-by-pierre-miller-chicago", "categories": [{"alias": "musicalinstrumentsandteachers", "title": "Musical Instruments & Teachers"}]}]}
{"total": 247, "businesses": [{"rating": 5.0, "review_count": 2, "name": "Have Doggie We'll Doo", "url": "https://www.yelp.com/biz/have-doggie-well-doo-chicago?adjust_creative=4ANmej72Lq5uvu_h_d83AQ&utm_campaign=yelp_api_v3&utm_medium=api_v3_business_search&utm_source=4ANmej72Lq5uvu_h_d83AQ", "coordinates": {"latitude": 41.94663, "longitude": -87.74705}, "phone": "+17732864727", "image_url": "https://s3-media1.fl.yelpcdn.com/bphoto/FedimzqPuIi7ixhPfzOXLg/o.jpg", "location": {"city": "Chicago", "country": "US", "address2": "", "address3": "", "state": "IL", "address1": "", "zip_code": "60641"}, "id": "have-doggie-well-doo-chicago", "categories": [{"alias": "petservices", "title": "Pet Services"}]}]}
{"total": 243, "businesses": [{"rating": 5.0, "review_count": 3, "name": "One Quality Hands", "url": "https://www.yelp.com/biz/one-quality-hands-chicago?adjust_creative=4ANmej72Lq5uvu_h_d83AQ&utm_campaign=yelp_api_v3&utm_medium=api_v3_business_search&utm_source=4ANmej72Lq5uvu_h_d83AQ", "coordinates": {"latitude": 41.94663, "longitude": -87.74705}, "phone": "+17733122855", "image_url": "https://s3-media2.fl.yelpcdn.com/bphoto/P0N5pNMvIFKd-7Qe28bPaQ/o.jpg", "location": {"city": "Chicago", "country": "US", "address2": null, "address3": "", "state": "IL", "address1": "", "zip_code": "60641"}, "id": "one-quality-hands-chicago", "categories": [{"alias": "flooring", "title": "Flooring"}]}]}
{"total": 247, "businesses": [{"rating": 5.0, "review_count": 3, "name": "Terra Davis, LMT", "url": "https://www.yelp.com/biz/terra-davis-lmt-chicago?adjust_creative=4ANmej72Lq5uvu_h_d83AQ&utm_campaign=yelp_api_v3&utm_medium=api_v3_business_search&utm_source=4ANmej72Lq5uvu_h_d83AQ", "coordinates": {"latitude": 41.9461212158203, "longitude": -87.7468490600586}, "phone": "+17732595000", "image_url": "https://s3-media2.fl.yelpcdn.com/bphoto/K6gTjx-ojYIdKY8e7Z7LFQ/o.jpg", "location": {"city": "Chicago", "country": "US", "address2": "", "address3": "", "state": "IL", "address1": "", "zip_code": "60641"}, "id": "terra-davis-lmt-chicago", "categories": [{"alias": "massage_therapy", "title": "Massage Therapy"}]}]}
{"total": 243, "businesses": [{"rating": 3.0, "review_count": 4, "name": "Glamour Nails", "url": "https://www.yelp.com/biz/glamour-nails-chicago-2?adjust_creative=4ANmej72Lq5uvu_h_d83AQ&utm_campaign=yelp_api_v3&utm_medium=api_v3_business_search&utm_source=4ANmej72Lq5uvu_h_d83AQ", "price": "$", "coordinates": {"latitude": 41.93115, "longitude": -87.75605}, "phone": "+17732377347", "image_url": "", "location": {"city": "Chicago", "address1": "5153 W Diversey Ave", "address2": "", "address3": "", "state": "IL", "country": "US", "zip_code": "60639"}, "id": "glamour-nails-chicago-2", "categories": [{"alias": "othersalons", "title": "Nail Salons"}]}]}
{"total": 243, "businesses": [{"rating": 2.5, "review_count": 8, "name": "Car Care Auto Spa", "url": "https://www.yelp.com/biz/car-care-auto-spa-chicago?adjust_creative=4ANmej72Lq5uvu_h_d83AQ&utm_campaign=yelp_api_v3&utm_medium=api_v3_business_search&utm_source=4ANmej72Lq5uvu_h_d83AQ", "coordinates": {"latitude": 41.94671, "longitude": -87.74745}, "phone": "+17732867856", "image_url": "https://s3-media2.fl.yelpcdn.com/bphoto/AkPoB10by8jcMUlnVhRkRg/o.jpg", "location": {"city": "Chicago", "country": "US", "address2": "", "address3": "", "state": "IL", "address1": "3618 N Cicero Ave", "zip_code": "60641"}, "id": "car-care-auto-spa-chicago", "categories": [{"alias": "carwash", "title": "Car Wash"}, {"alias": "auto_detailing", "title": "Auto Detailing"}]}]}
{"total": 243, "businesses": [{"rating": 5.0, "review_count": 1, "name": "Accurate Painting and Remodeling", "url": "https://www.yelp.com/biz/accurate-painting-and-remodeling-chicago?adjust_creative=4ANmej72Lq5uvu_h_d83AQ&utm_campaign=yelp_api_v3&utm_medium=api_v3_business_search&utm_source=4ANmej72Lq5uvu_h_d83AQ", "coordinates": {"latitude": 41.9461784362793, "longitude": -87.7470245361328}, "phone": "+13122966915", "image_url": "", "location": {"city": "Chicago", "address1": "", "address2": "", "address3": "", "state": "IL", "country": "US", "zip_code": "60641"}, "id": "accurate-painting-and-remodeling-chicago", "categories": [{"alias": "painters", "title": "Painters"}, {"alias": "contractors", "title": "Contractors"}, {"alias": "drywall", "title": "Drywall Installation & Repair"}]}]}
{"total": 243, "businesses": [{"rating": 5.0, "review_count": 2, "name": "Good Work Garage", "url": "https://www.yelp.com/biz/good-work-garage-chicago?adjust_creative=4ANmej72Lq5uvu_h_d83AQ&utm_campaign=yelp_api_v3&utm_medium=api_v3_business_search&utm_source=4ANmej72Lq5uvu_h_d83AQ", "coordinates": {"latitude": 41.9461212158203, "longitude": -87.7468490600586}, "phone": "+17735072596", "image_url": "", "location": {"city": "Chicago", "country": "US", "address2": "", "address3": "", "state": "IL", "address1": "", "zip_code": "60641"}, "id": "good-work-garage-chicago", "categories": [{"alias": "autorepair", "title": "Auto Repair"}]}]}
{"total": 243, "businesses": [{"rating": 4.0, "review_count": 3, "name": "Community Savings Bank", "url": "https://www.yelp.com/biz/community-savings-bank-chicago-2?adjust_creative=4ANmej72Lq5uvu_h_d83AQ&utm_campaign=yelp_api_v3&utm_medium=api_v3_business_search&utm_source=4ANmej72Lq5uvu_h_d83AQ", "coordinates": {"latitude": 41.9388679414988, "longitude": -87.7473326772451}, "phone": "+17736855300", "image_url": "https://s3-media1.fl.yelpcdn.com/bphoto/SCciHR2m6W0N4JQ9ZCy6Tg/o.jpg", "location": {"city": "Chicago", "country": "US", "address2": "", "address3": "", "state": "IL", "address1": "4824 W Belmont Avenue", "zip_code": "60641"}, "id": "community-savings-bank-chicago-2", "categories": [{"alias": "banks", "title": "Banks & Credit Unions"}, {"alias": "mortgagebrokers", "title": "Mortgage Brokers"}]}]}
{"total": 247, "businesses": [{"rating": 5.0, "review_count": 2, "name": "Good Work Garage", "url": "https://www.yelp.com/biz/good-work-garage-chicago?adjust_creative=4ANmej72Lq5uvu_h_d83AQ&utm_campaign=yelp_api_v3&utm_medium=api_v3_business_search&utm_source=4ANmej72Lq5uvu_h_d83AQ", "coordinates": {"latitude": 41.9461212158203, "longitude": -87.7468490600586}, "phone": "+17735072596", "image_url": "", "location": {"city": "Chicago", "address1": "", "address2": "", "address3": "", "state": "IL", "country": "US", "zip_code": "60641"}, "id": "good-work-garage-chicago", "categories": [{"alias": "autorepair", "title": "Auto Repair"}]}]}
{"total": 247, "businesses": [{"rating": 4.0, "review_count": 3, "name": "Community Savings Bank", "url": "https://www.yelp.com/biz/community-savings-bank-chicago-2?adjust_creative=4ANmej72Lq5uvu_h_d83AQ&utm_campaign=yelp_api_v3&utm_medium=api_v3_business_search&utm_source=4ANmej72Lq5uvu_h_d83AQ", "coordinates": {"latitude": 41.9388679414988, "longitude": -87.7473326772451}, "phone": "+17736855300", "image_url": "https://s3-media1.fl.yelpcdn.com/bphoto/SCciHR2m6W0N4JQ9ZCy6Tg/o.jpg", "location": {"city": "Chicago", "country": "US", "address2": "", "address3": "", "state": "IL", "address1": "4824 W Belmont Avenue", "zip_code": "60641"}, "id": "community-savings-bank-chicago-2", "categories": [{"alias": "banks", "title": "Banks & Credit Unions"}, {"alias": "mortgagebrokers", "title": "Mortgage Brokers"}]}]}
{"total": 243, "businesses": [{"rating": 1.5, "review_count": 45, "name": "US Post Office", "url": "https://www.yelp.com/biz/us-post-office-chicago-7?adjust_creative=4ANmej72Lq5uvu_h_d83AQ&utm_campaign=yelp_api_v3&utm_medium=api_v3_business_search&utm_source=4ANmej72Lq5uvu_h_d83AQ", "coordinates": {"latitude": 41.9412956237793, "longitude": -87.7464447021484}, "phone": "+17737253701", "image_url": "https://s3-media2.fl.yelpcdn.com/bphoto/6s9wCEsRYtTGjCRvlSP7fw/o.jpg", "location": {"city": "Chicago", "country": "US", "address2": "", "address3": "", "state": "IL", "address1": "3319 N Cicero Ave", "zip_code": "60641"}, "id": "us-post-office-chicago-7", "categories": [{"alias": "postoffices", "title": "Post Offices"}]}]}
{"total": 247, "businesses": [{"rating": 5.0, "review_count": 1, "name": "Chicago Filipino American Film Festival", "url": "https://www.yelp.com/biz/chicago-filipino-american-film-festival-chicago?adjust_creative=4ANmej72Lq5uvu_h_d83AQ&utm_campaign=yelp_api_v3&utm_medium=api_v3_business_search&utm_source=4ANmej72Lq5uvu_h_d83AQ", "coordinates": {"latitude": 41.954216, "longitude": -87.7489319}, "image_url": "https://s3-media1.fl.yelpcdn.com/bphoto/n0qYDl1HGxWXHKUwun4l5w/o.jpg", "location": {"city": "Chicago", "country": "US", "address2": "4050 N Milwaukee", "address3": "", "state": "IL", "address1": "Portage Theater", "zip_code": "60641"}, "id": "chicago-filipino-american-film-festival-chicago", "categories": [{"alias": "festivals", "title": "Festivals"}]}]}
{"total": 243, "businesses": [{"rating": 2.5, "review_count": 4, "name": "Foremost Liquor Stores", "url": "https://www.yelp.com/biz/foremost-liquor-stores-chicago-2?adjust_creative=4ANmej72Lq5uvu_h_d83AQ&utm_campaign=yelp_api_v3&utm_medium=api_v3_business_search&utm_source=4ANmej72Lq5uvu_h_d83AQ", "price": "$$", "coordinates": {"latitude": 41.9391515851021, "longitude": -87.7469276636839}, "phone": "+17732826064", "image_url": "https://s3-media3.fl.yelpcdn.com/bphoto/FOr5mLiunMDQoWoDCvz_jw/o.jpg", "location": {"city": "Chicago", "country": "US", "address2": "", "address3": "", "state": "IL", "address1": "3210 N Cicero Ave", "zip_code": "60641"}, "id": "foremost-liquor-stores-chicago-2", "categories": [{"alias": "beer_and_wine", "title": "Beer, Wine & Spirits"}]}]}
{"total": 243, "businesses": [{"rating": 4.5, "review_count": 2, "name": "Kadleck Jerome M DDS", "url": "https://www.yelp.com/biz/kadleck-jerome-m-dds-chicago?adjust_creative=4ANmej72Lq5uvu_h_d83AQ&utm_campaign=yelp_api_v3&utm_medium=api_v3_business_search&utm_source=4ANmej72Lq5uvu_h_d83AQ", "coordinates": {"latitude": 41.9387351721525, "longitude": -87.7579797059298}, "phone": "+17737257222", "image_url": "https://s3-media2.fl.yelpcdn.com/bphoto/ALz9Q6aJ15f8Oh22oKdsIg/o.jpg", "location": {"city": "Chicago", "country": "US", "address2": "", "address3": "", "state": "IL", "address1": "5236 W Belmont Ave", "zip_code": "60641"}, "id": "kadleck-jerome-m-dds-chicago", "categories": [{"alias": "generaldentistry", "title": "General Dentistry"}]}]}
{"total": 243, "businesses": [{"rating": 4.5, "review_count": 2, "name": "Tommiz Hair Place", "url": "https://www.yelp.com/biz/tommiz-hair-place-chicago-2?adjust_creative=4ANmej72Lq5uvu_h_d83AQ&utm_campaign=yelp_api_v3&utm_medium=api_v3_business_search&utm_source=4ANmej72Lq5uvu_h_d83AQ", "coordinates": {"latitude": 41.9386171, "longitude": -87.7526944}, "phone": "+17734270304", "image_url": "https://s3-media1.fl.yelpcdn.com/bphoto/q8FJGJwl5gkLEq3aMu3zkA/o.jpg", "location": {"city": "Chicago", "country": "US", "address2": "", "address3": "", "state": "IL", "address1": "5023 W Belmont Avenue", "zip_code": "60641"}, "id": "tommiz-hair-place-chicago-2", "categories": [{"alias": "hair", "title": "Hair Salons"}]}]}
{"total": 243, "businesses": [{"rating": 4.0, "review_count": 1, "name": "C & A Buyer's Place", "url": "https://www.yelp.com/biz/c-and-a-buyers-place-chicago?adjust_creative=4ANmej72Lq5uvu_h_d83AQ&utm_campaign=yelp_api_v3&utm_medium=api_v3_business_search&utm_source=4ANmej72Lq5uvu_h_d83AQ", "coordinates": {"latitude": 41.9388706237078, "longitude": -87.7471650391817}, "image_url": "", "location": {"city": "Chicago", "country": "US", "address2": "", "address3": "", "state": "IL", "address1": "4810 W Belmont Ave", "zip_code": "60641"}, "id": "c-and-a-buyers-place-chicago", "categories": [{"alias": "discountstore", "title": "Discount Store"}]}]}
{"total": 243, "businesses": [{"rating": 4.0, "review_count": 1, "name": "J & S Metals", "url": "https://www.yelp.com/biz/j-and-s-metals-chicago?adjust_creative=4ANmej72Lq5uvu_h_d83AQ&utm_campaign=yelp_api_v3&utm_medium=api_v3_business_search&utm_source=4ANmej72Lq5uvu_h_d83AQ", "coordinates": {"latitude": 41.9389014691114, "longitude": -87.7440758049488}, "phone": "+17732837377", "image_url": "", "location": {"city": "Chicago", "country": "US", "address2": "", "address3": "", "state": "IL", "address1": "4700 W Belmont Ave", "zip_code": "60641"}, "id": "j-and-s-metals-chicago", "categories": [{"alias": "recyclingcenter", "title": "Recycling Center"}]}]}
{"total": 243, "businesses": [{"rating": 3.0, "review_count": 2, "name": "Shawn's Hair Salon & Spa", "url": "https://www.yelp.com/biz/shawns-hair-salon-and-spa-chicago?adjust_creative=4ANmej72Lq5uvu_h_d83AQ&utm_campaign=yelp_api_v3&utm_medium=api_v3_business_search&utm_source=4ANmej72Lq5uvu_h_d83AQ", "price": "$$", "coordinates": {"latitude": 41.93845, "longitude": -87.75704}, "phone": "+17732020430", "image_url": "https://s3-media4.fl.yelpcdn.com/bphoto/20vUWJztR0F0SyWIWz1P9A/o.jpg", "location": {"city": "Chicago", "country": "US", "address2": null, "address3": null, "state": "IL", "address1": "5211 W Belmont Ave", "zip_code": "60641"}, "id": "shawns-hair-salon-and-spa-chicago", "categories": [{"alias": "barbers", "title": "Barbers"}]}]}
{"total": 243, "businesses": [{"rating": 4.0, "review_count": 6, "name": "Cragin Animal Hospital", "url": "https://www.yelp.com/biz/cragin-animal-hospital-chicago?adjust_creative=4ANmej72Lq5uvu_h_d83AQ&utm_campaign=yelp_api_v3&utm_medium=api_v3_business_search&utm_source=4ANmej72Lq5uvu_h_d83AQ", "coordinates": {"latitude": 41.93644, "longitude": -87.7472}, "phone": "+17737774400", "image_url": "", "location": {"city": "Chicago", "country": "US", "address2": "", "address3": "", "state": "IL", "address1": "3042 N Cicero Avenue", "zip_code": "60641"}, "id": "cragin-animal-hospital-chicago", "categories": [{"alias": "vet", "title": "Veterinarians"}]}]}
{"total": 243, "businesses": [{"rating": 3.5, "review_count": 3, "name": "Raul's Tree Services", "url": "https://www.yelp.com/biz/rauls-tree-services-chicago?adjust_creative=4ANmej72Lq5uvu_h_d83AQ&utm_campaign=yelp_api_v3&utm_medium=api_v3_business_search&utm_source=4ANmej72Lq5uvu_h_d83AQ", "coordinates": {"latitude": 41.946762, "longitude": -87.74876}, "phone": "+18473079892", "image_url": "", "location": {"city": "Chicago", "country": "US", "address2": "", "address3": "", "state": "IL", "address1": "4841 W Patterson Ave", "zip_code": "60641"}, "id": "rauls-tree-services-chicago", "categories": [{"alias": "treeservices", "title": "Tree Services"}]}]}
{"total": 243, "businesses": [{"rating": 2.5, "review_count": 2, "name": "Walgreens", "url": "https://www.yelp.com/biz/walgreens-chicago-41?adjust_creative=4ANmej72Lq5uvu_h_d83AQ&utm_campaign=yelp_api_v3&utm_medium=api_v3_business_search&utm_source=4ANmej72Lq5uvu_h_d83AQ", "price": "$$$$", "coordinates": {"latitude": 41.9387051, "longitude": -87.7458055}, "phone": "+17734810211", "image_url": "https://s3-media2.fl.yelpcdn.com/bphoto/KW-nV0q6P3i_rzj2OZ0-JQ/o.jpg", "location": {"city": "Chicago", "country": "US", "address2": "", "address3": "", "state": "IL", "address1": "4745 W Belmont Ave", "zip_code": "60641"}, "id": "walgreens-chicago-41", "categories": [{"alias": "drugstores", "title": "Drugstores"}, {"alias": "cosmetics", "title": "Cosmetics & Beauty Supply"}, {"alias": "convenience", "title": "Convenience Stores"}]}]}
{"total": 247, "businesses": [{"rating": 4.0, "review_count": 6, "name": "Cragin Animal Hospital", "url": "https://www.yelp.com/biz/cragin-animal-hospital-chicago?adjust_creative=4ANmej72Lq5uvu_h_d83AQ&utm_campaign=yelp_api_v3&utm_medium=api_v3_business_search&utm_source=4ANmej72Lq5uvu_h_d83AQ", "coordinates": {"latitude": 41.93644, "longitude": -87.7472}, "phone": "+17737774400", "image_url": "", "location": {"city": "Chicago", "address1": "3042 N Cicero Avenue", "address2": "", "address3": "", "state": "IL", "country": "US", "zip_code": "60641"}, "id": "cragin-animal-hospital-chicago", "categories": [{"alias": "vet", "title": "Veterinarians"}]}]}
{"total": 247, "businesses": [{"rating": 3.5, "review_count": 3, "name": "Raul's Tree Services", "url": "https://www.yelp.com/biz/rauls-tree-services-chicago?adjust_creative=4ANmej72Lq5uvu_h_d83AQ&utm_campaign=yelp_api_v3&utm_medium=api_v3_business_search&utm_source=4ANmej72Lq5uvu_h_d83AQ", "coordinates": {"latitude": 41.946762, "longitude": -87.74876}, "phone": "+18473079892", "image_url": "", "location": {"city": "Chicago", "country": "US", "address2": "", "address3": "", "state": "IL", "address1": "4841 W Patterson Ave", "zip_code": "60641"}, "id": "rauls-tree-services-chicago", "categories": [{"alias": "treeservices", "title": "Tree Services"}]}]}
{"total": 243, "businesses": [{"rating": 2.5, "review_count": 2, "name": "Shampoo Hair Studio", "url": "https://www.yelp.com/biz/shampoo-hair-studio-chicago?adjust_creative=4ANmej72Lq5uvu_h_d83AQ&utm_campaign=yelp_api_v3&utm_medium=api_v3_business_search&utm_source=4ANmej72Lq5uvu_h_d83AQ", "coordinates": {"latitude": 41.9463233947754, "longitude": -87.7522048950195}, "phone": "+17732832777", "image_url": "", "location": {"city": "Chicago", "country": "US", "address2": null, "address3": null, "state": "IL", "address1": "5000 W Addison St", "zip_code": "60641"}, "id": "shampoo-hair-studio-chicago", "categories": []}]}
{"total": 243, "businesses": [{"rating": 5.0, "review_count": 1, "name": "Jenni B's Dog Walking Plus", "url": "https://www.yelp.com/biz/jenni-bs-dog-walking-plus-chicago?adjust_creative=4ANmej72Lq5uvu_h_d83AQ&utm_campaign=yelp_api_v3&utm_medium=api_v3_business_search&utm_source=4ANmej72Lq5uvu_h_d83AQ", "coordinates": {"latitude": 41.959446, "longitude": -87.738783}, "phone": "+17734191688", "image_url": "https://s3-media1.fl.yelpcdn.com/bphoto/mBP9rDCM3crG5RehN_KDOQ/o.jpg", "location": {"city": "Chicago", "country": "US", "address2": null, "address3": "", "state": "IL", "address1": "4314 N Kostner", "zip_code": "60641"}, "id": "jenni-bs-dog-walking-plus-chicago", "categories": [{"alias": "dogwalkers", "title": "Dog Walkers"}]}]}
{"total": 243, "businesses": [{"rating": 5.0, "review_count": 1, "name": "ASAP Hardwood Floors Inc", "url": "https://www.yelp.com/biz/asap-hardwood-floors-inc-chicago?adjust_creative=4ANmej72Lq5uvu_h_d83AQ&utm_campaign=yelp_api_v3&utm_medium=api_v3_business_search&utm_source=4ANmej72Lq5uvu_h_d83AQ", "coordinates": {"latitude": 41.9204711914062, "longitude": -87.7560195922852}, "phone": "+17739643215", "image_url": "https://s3-media1.fl.yelpcdn.com/bphoto/lYZY5P73TVfH03TsTSxNPg/o.jpg", "location": {"city": "Chicago", "country": "US", "address2": "", "address3": "", "state": "IL", "address1": "", "zip_code": "60639"}, "id": "asap-hardwood-floors-inc-chicago", "categories": [{"alias": "flooring", "title": "Flooring"}]}]}
{"total": 247, "businesses": [{"rating": 2.5, "review_count": 2, "name": "Shampoo Hair Studio", "url": "https://www.yelp.com/biz/shampoo-hair-studio-chicago?adjust_creative=4ANmej72Lq5uvu_h_d83AQ&utm_campaign=yelp_api_v3&utm_medium=api_v3_business_search&utm_source=4ANmej72Lq5uvu_h_d83AQ", "coordinates": {"latitude": 41.9463233947754, "longitude": -87.7522048950195}, "phone": "+17732832777", "image_url": "", "location": {"city": "Chicago", "country": "US", "address2": null, "address3": null, "state": "IL", "address1": "5000 W Addison St", "zip_code": "60641"}, "id": "shampoo-hair-studio-chicago", "categories": []}]}
{"total": 243, "businesses": [{"rating": 4.0, "review_count": 2, "name": "Martin's Fresh Market", "url": "https://www.yelp.com/biz/martins-fresh-market-chicago-2?adjust_creative=4ANmej72Lq5uvu_h_d83AQ&utm_campaign=yelp_api_v3&utm_medium=api_v3_business_search&utm_source=4ANmej72Lq5uvu_h_d83AQ", "price": "$", "coordinates": {"latitude": 41.9499, "longitude": -87.74685}, "phone": "+17734812668", "image_url": "https://s3-media4.fl.yelpcdn.com/bphoto/C7IHOPCGIz-tSLNsnTJwLQ/o.jpg", "location": {"city": "Chicago", "country": "US", "address2": null, "address3": "", "state": "IL", "address1": "3801 N Cicero Ave", "zip_code": "60641"}, "id": "martins-fresh-market-chicago-2", "categories": [{"alias": "grocery", "title": "Grocery"}, {"alias": "markets", "title": "Fruits & Veggies"}]}]}
{"total": 247, "businesses": [{"rating": 5.0, "review_count": 1, "name": "ASAP Hardwood Floors Inc", "url": "https://www.yelp.com/biz/asap-hardwood-floors-inc-chicago?adjust_creative=4ANmej72Lq5uvu_h_d83AQ&utm_campaign=yelp_api_v3&utm_medium=api_v3_business_search&utm_source=4ANmej72Lq5uvu_h_d83AQ", "coordinates": {"latitude": 41.9204711914062, "longitude": -87.7560195922852}, "phone": "+17739643215", "image_url": "https://s3-media1.fl.yelpcdn.com/bphoto/lYZY5P73TVfH03TsTSxNPg/o.jpg", "location": {"city": "Chicago", "country": "US", "address2": "", "address3": "", "state": "IL", "address1": "", "zip_code": "60639"}, "id": "asap-hardwood-floors-inc-chicago", "categories": [{"alias": "flooring", "title": "Flooring"}]}]}
{"total": 243, "businesses": [{"rating": 2.0, "review_count": 2, "name": "7-Eleven", "url": "https://www.yelp.com/biz/7-eleven-chicago-27?adjust_creative=4ANmej72Lq5uvu_h_d83AQ&utm_campaign=yelp_api_v3&utm_medium=api_v3_business_search&utm_source=4ANmej72Lq5uvu_h_d83AQ", "price": "$", "coordinates": {"latitude": 41.9458288, "longitude": -87.7469351}, "phone": "+17737254963", "image_url": "https://s3-media3.fl.yelpcdn.com/bphoto/oJMC2QQ9BIp9iPuzprsQbQ/o.jpg", "location": {"city": "Chicago", "country": "US", "address2": "", "address3": "", "state": "IL", "address1": "3541 N Cicero Ave", "zip_code": "60641"}, "id": "7-eleven-chicago-27", "categories": [{"alias": "convenience", "title": "Convenience Stores"}]}]}
{"total": 243, "businesses": [{"rating": 2.0, "review_count": 2, "name": "Gray William P", "url": "https://www.yelp.com/biz/gray-william-p-chicago?adjust_creative=4ANmej72Lq5uvu_h_d83AQ&utm_campaign=yelp_api_v3&utm_medium=api_v3_business_search&utm_source=4ANmej72Lq5uvu_h_d83AQ", "coordinates": {"latitude": 41.9488402, "longitude": -87.7571549}, "phone": "+17735343520", "image_url": "", "location": {"city": "Chicago", "country": "US", "address2": "", "address3": "", "state": "IL", "address1": "3730 N Laramie Avenue", "zip_code": "60641"}, "id": "gray-william-p-chicago", "categories": [{"alias": "elementaryschools", "title": "Elementary Schools"}, {"alias": "highschools", "title": "Middle Schools & High Schools"}]}]}
{"total": 243, "businesses": [{"rating": 2.5, "review_count": 11, "name": "Millennium Auto", "url": "https://www.yelp.com/biz/millennium-auto-chicago?adjust_creative=4ANmej72Lq5uvu_h_d83AQ&utm_campaign=yelp_api_v3&utm_medium=api_v3_business_search&utm_source=4ANmej72Lq5uvu_h_d83AQ", "coordinates": {"latitude": 41.9400068, "longitude": -87.7470731}, "phone": "+17732860400", "image_url": "https://s3-media2.fl.yelpcdn.com/bphoto/Z8EMkpx5z0y-agO-LABWwA/o.jpg", "location": {"city": "Chicago", "country": "US", "address2": "", "address3": "", "state": "IL", "address1": "3250 N Cicero Ave", "zip_code": "60641"}, "id": "millennium-auto-chicago", "categories": [{"alias": "car_dealers", "title": "Car Dealers"}]}]}
{"total": 243, "businesses": [{"rating": 2.0, "review_count": 2, "name": "Diana's Bridal Shop", "url": "https://www.yelp.com/biz/dianas-bridal-shop-chicago?adjust_creative=4ANmej72Lq5uvu_h_d83AQ&utm_campaign=yelp_api_v3&utm_medium=api_v3_business_search&utm_source=4ANmej72Lq5uvu_h_d83AQ", "price": "$$", "coordinates": {"latitude": 41.93124, "longitude": -87.74976}, "phone": "+17736375284", "image_url": "", "location": {"city": "Chicago", "country": "US", "address2": "", "address3": "", "state": "IL", "address1": "4915 W Diversey Avenue", "zip_code": "60639"}, "id": "dianas-bridal-shop-chicago", "categories": [{"alias": "bridal", "title": "Bridal"}]}]}
{"total": 243, "businesses": [{"rating": 1.0, "review_count": 14, "name": "Talro Insurance Agency", "url": "https://www.yelp.com/biz/talro-insurance-agency-chicago-2?adjust_creative=4ANmej72Lq5uvu_h_d83AQ&utm_campaign=yelp_api_v3&utm_medium=api_v3_business_search&utm_source=4ANmej72Lq5uvu_h_d83AQ", "coordinates": {"latitude": 41.93906, "longitude": -87.74966}, "phone": "+17732058255", "image_url": "", "location": {"city": "Chicago", "country": "US", "address2": "", "address3": "", "state": "IL", "address1": "4900 W Belmont Ave", "zip_code": "60641"}, "id": "talro-insurance-agency-chicago-2", "categories": []}]}
{"total": 247, "businesses": [{"rating": 2.5, "review_count": 11, "name": "Millennium Auto", "url": "https://www.yelp.com/biz/millennium-auto-chicago?adjust_creative=4ANmej72Lq5uvu_h_d83AQ&utm_campaign=yelp_api_v3&utm_medium=api_v3_business_search&utm_source=4ANmej72Lq5uvu_h_d83AQ", "coordinates": {"latitude": 41.9400068, "longitude": -87.7470731}, "phone": "+17732860400", "image_url": "https://s3-media2.fl.yelpcdn.com/bphoto/Z8EMkpx5z0y-agO-LABWwA/o.jpg", "location": {"city": "Chicago", "country": "US", "address2": "", "address3": "", "state": "IL", "address1": "3250 N Cicero Ave", "zip_code": "60641"}, "id": "millennium-auto-chicago", "categories": [{"alias": "car_dealers", "title": "Car Dealers"}]}]}
{"total": 243, "businesses": [{"rating": 1.0, "review_count": 1, "name": "Vampires Tattoos", "url": "https://www.yelp.com/biz/vampires-tattoos-chicago?adjust_creative=4ANmej72Lq5uvu_h_d83AQ&utm_campaign=yelp_api_v3&utm_medium=api_v3_business_search&utm_source=4ANmej72Lq5uvu_h_d83AQ", "coordinates": {"latitude": 41.9430146366358, "longitude": -87.7470423281193}, "phone": "+17733978070", "image_url": "https://s3-media1.fl.yelpcdn.com/bphoto/0ngyiuEoG3FvkOu6JBwxHg/o.jpg", "location": {"city": "Chicago", "country": "US", "address2": null, "address3": "", "state": "IL", "address1": "3418 N Cicero Ave", "zip_code": "60641"}, "id": "vampires-tattoos-chicago", "categories": [{"alias": "piercing", "title": "Piercing"}, {"alias": "tattoo", "title": "Tattoo"}]}]}
{"total": 243, "businesses": [{"rating": 1.5, "review_count": 6, "name": "Car Outlet", "url": "https://www.yelp.com/biz/car-outlet-chicago-8?adjust_creative=4ANmej72Lq5uvu_h_d83AQ&utm_campaign=yelp_api_v3&utm_medium=api_v3_business_search&utm_source=4ANmej72Lq5uvu_h_d83AQ", "coordinates": {"latitude": 41.9429565, "longitude": -87.7467471}, "phone": "+18557935577", "image_url": "https://s3-media4.fl.yelpcdn.com/bphoto/mBXq_BKx2r2qt9TvdMFeMQ/o.jpg", "location": {"city": "Chicago", "country": "US", "address2": null, "address3": null, "state": "IL", "address1": "3411 N Cicero Ave", "zip_code": "60641"}, "id": "car-outlet-chicago-8", "categories": [{"alias": "car_dealers", "title": "Car Dealers"}]}]}
{"total": 243, "businesses": [{"rating": 1.5, "review_count": 10, "name": "J & B Laundromat & Dry Cleaners", "url": "https://www.yelp.com/biz/j-and-b-laundromat-and-dry-cleaners-chicago?adjust_creative=4ANmej72Lq5uvu_h_d83AQ&utm_campaign=yelp_api_v3&utm_medium=api_v3_business_search&utm_source=4ANmej72Lq5uvu_h_d83AQ", "price": "$$$$", "coordinates": {"latitude": 41.94591, "longitude": -87.74656}, "phone": "+17737775985", "image_url": "https://s3-media2.fl.yelpcdn.com/bphoto/vUj0jCM3d9N-xfxuG_Khuw/o.jpg", "location": {"city": "Chicago", "country": "US", "address2": "", "address3": "", "state": "IL", "address1": "3545 N Cicero Ave", "zip_code": "60641"}, "id": "j-and-b-laundromat-and-dry-cleaners-chicago", "categories": [{"alias": "drycleaninglaundry", "title": "Dry Cleaning & Laundry"}]}]}
{"total": 243, "businesses": [{"rating": 2.0, "review_count": 1, "name": "Drag City", "url": "https://www.yelp.com/biz/drag-city-chicago?adjust_creative=4ANmej72Lq5uvu_h_d83AQ&utm_campaign=yelp_api_v3&utm_medium=api_v3_business_search&utm_source=4ANmej72Lq5uvu_h_d83AQ", "coordinates": {"latitude": 41.933947, "longitude": -87.7465131}, "phone": "+13124551015", "image_url": "https://s3-media4.fl.yelpcdn.com/bphoto/4xx6qv72S1e1QwsQBfGPPA/o.jpg", "location": {"city": "Chicago", "country": "US", "address2": "", "address3": "", "state": "IL", "address1": "2921 N Cicero Ave", "zip_code": "60641"}, "id": "drag-city-chicago", "categories": [{"alias": "theater", "title": "Performing Arts"}]}]}
{"total": 243, "businesses": [{"rating": 1.0, "review_count": 1, "name": "American Family Insurance - Rob Johnson Agency Inc.", "url": "https://www.yelp.com/biz/american-family-insurance-chicago-37?adjust_creative=4ANmej72Lq5uvu_h_d83AQ&utm_campaign=yelp_api_v3&utm_medium=api_v3_business_search&utm_source=4ANmej72Lq5uvu_h_d83AQ", "coordinates": {"latitude": 41.93672, "longitude": -87.7472}, "phone": "+17734275760", "image_url": "", "location": {"city": "Chicago", "country": "US", "address2": "", "address3": "", "state": "IL", "address1": "3050 N Cicero Ave", "zip_code": "60641"}, "id": "american-family-insurance-chicago-37", "categories": [{"alias": "insurance", "title": "Insurance"}]}]}
{"total": 243, "businesses": [{"rating": 5.0, "review_count": 1, "name": "Triple Transmission A R", "url": "https://www.yelp.com/biz/triple-transmission-a-r-chicago?adjust_creative=4ANmej72Lq5uvu_h_d83AQ&utm_campaign=yelp_api_v3&utm_medium=api_v3_business_search&utm_source=4ANmej72Lq5uvu_h_d83AQ", "coordinates": {"latitude": 41.9386038, "longitude": -87.7533536}, "phone": "+17732867698", "image_url": "https://s3-media1.fl.yelpcdn.com/bphoto/GvTAOerk_u26c257RDcejA/o.jpg", "location": {"city": "Chicago", "country": "US", "address2": "", "address3": "", "state": "IL", "address1": "5033 W Belmont Ave", "zip_code": "60641"}, "id": "triple-transmission-a-r-chicago", "categories": [{"alias": "transmissionrepair", "title": "Transmission Repair"}]}]}
{"total": 243, "businesses": [{"rating": 5.0, "review_count": 2, "name": "Ink and Iron Custom Tattoo Studio", "url": "https://www.yelp.com/biz/ink-and-iron-custom-tattoo-studio-chicago-2?adjust_creative=4ANmej72Lq5uvu_h_d83AQ&utm_campaign=yelp_api_v3&utm_medium=api_v3_business_search&utm_source=4ANmej72Lq5uvu_h_d83AQ", "coordinates": {"latitude": 41.9480895996094, "longitude": -87.7474975585938}, "phone": "+16302705330", "image_url": "https://s3-media3.fl.yelpcdn.com/bphoto/deVlwYuKIcyHa13HP9rNRg/o.jpg", "location": {"city": "Chicago", "country": "US", "address2": null, "address3": "", "state": "IL", "address1": "3700 N Cicero Ave", "zip_code": "60641"}, "id": "ink-and-iron-custom-tattoo-studio-chicago-2", "categories": [{"alias": "tattoo", "title": "Tattoo"}]}]}
{"total": 243, "businesses": [{"rating": 5.0, "review_count": 1, "name": "Cemirex", "url": "https://www.yelp.com/biz/cemirex-chicago-8?adjust_creative=4ANmej72Lq5uvu_h_d83AQ&utm_campaign=yelp_api_v3&utm_medium=api_v3_business_search&utm_source=4ANmej72Lq5uvu_h_d83AQ", "price": "$", "coordinates": {"latitude": 41.9389457702637, "longitude": -87.7579803466797}, "phone": "+17739347680", "image_url": "https://s3-media4.fl.yelpcdn.com/bphoto/oy3Ju2u3Gmnta6GKcHOggA/o.jpg", "location": {"city": "Chicago", "country": "US", "address2": null, "address3": "", "state": "IL", "address1": "5230 W Belmont Ave", "zip_code": "60641"}, "id": "cemirex-chicago-8", "categories": [{"alias": "mattresses", "title": "Mattresses"}, {"alias": "furniture", "title": "Furniture Stores"}]}]}
{"total": 243, "businesses": [{"rating": 5.0, "review_count": 2, "name": "Tempera", "url": "https://www.yelp.com/biz/tempera-niles?adjust_creative=4ANmej72Lq5uvu_h_d83AQ&utm_campaign=yelp_api_v3&utm_medium=api_v3_business_search&utm_source=4ANmej72Lq5uvu_h_d83AQ", "coordinates": {"latitude": 41.9472058, "longitude": -87.7468071}, "phone": "+17739573570", "image_url": "https://s3-media3.fl.yelpcdn.com/bphoto/YwMDi6sEUxxmHuW1edNuEw/o.jpg", "location": {"city": "Niles", "address1": "8253 N Newcastle Ave", "address2": "", "address3": "", "state": "IL", "country": "US", "zip_code": "60714"}, "id": "tempera-niles", "categories": [{"alias": "handyman", "title": "Handyman"}]}]}
{"total": 243, "businesses": [{"rating": 1.0, "review_count": 1, "name": "Hotel Elinor", "url": "https://www.yelp.com/biz/hotel-elinor-chicago?adjust_creative=4ANmej72Lq5uvu_h_d83AQ&utm_campaign=yelp_api_v3&utm_medium=api_v3_business_search&utm_source=4ANmej72Lq5uvu_h_d83AQ", "coordinates": {"latitude": 41.93941, "longitude": -87.74726}, "phone": "+17732833100", "image_url": "", "location": {"city": "Chicago", "country": "US", "address2": "", "address3": "", "state": "IL", "address1": "3216 N Cicero Avenue", "zip_code": "60641"}, "id": "hotel-elinor-chicago", "categories": [{"alias": "hotels", "title": "Hotels"}]}]}
{"total": 243, "businesses": [{"rating": 1.0, "review_count": 1, "name": "Express Automobile", "url": "https://www.yelp.com/biz/express-automobile-chicago?adjust_creative=4ANmej72Lq5uvu_h_d83AQ&utm_campaign=yelp_api_v3&utm_medium=api_v3_business_search&utm_source=4ANmej72Lq5uvu_h_d83AQ", "coordinates": {"latitude": 41.9389549, "longitude": -87.7471285}, "phone": "+17735459427", "image_url": "", "location": {"city": "Chicago", "country": "US", "address2": null, "address3": null, "state": "IL", "address1": "4806 W Belmont Ave", "zip_code": "60641"}, "id": "express-automobile-chicago", "categories": [{"alias": "autopartssupplies", "title": "Auto Parts & Supplies"}]}]}
{"total": 243, "businesses": [{"rating": 2.0, "review_count": 4, "name": "John's Plumbing", "url": "https://www.yelp.com/biz/johns-plumbing-chicago-2?adjust_creative=4ANmej72Lq5uvu_h_d83AQ&utm_campaign=yelp_api_v3&utm_medium=api_v3_business_search&utm_source=4ANmej72Lq5uvu_h_d83AQ", "coordinates": {"latitude": 41.9374899, "longitude": -87.74723}, "phone": "+17732869030", "image_url": "", "location": {"city": "Chicago", "address1": "3116 N Cicero Ave", "address2": "", "address3": "", "state": "IL", "country": "US", "zip_code": "60641"}, "id": "johns-plumbing-chicago-2", "categories": [{"alias": "plumbing", "title": "Plumbing"}]}]}
{"total": 243, "businesses": [{"rating": 1.0, "review_count": 1, "name": "Mortal Canvas Tattoo and Body Piercing", "url": "https://www.yelp.com/biz/mortal-canvas-tattoo-and-body-piercing-chicago?adjust_creative=4ANmej72Lq5uvu_h_d83AQ&utm_campaign=yelp_api_v3&utm_medium=api_v3_business_search&utm_source=4ANmej72Lq5uvu_h_d83AQ", "price": "$$", "coordinates": {"latitude": 41.948093, "longitude": -87.74749}, "phone": "+16302705330", "image_url": "https://s3-media3.fl.yelpcdn.com/bphoto/-jhgYp9Yf8wtO65WDhZoZA/o.jpg", "location": {"city": "Chicago", "country": "US", "address2": "", "address3": "", "state": "IL", "address1": "3700 N Cicero", "zip_code": "60641"}, "id": "mortal-canvas-tattoo-and-body-piercing-chicago", "categories": [{"alias": "piercing", "title": "Piercing"}, {"alias": "tattoo", "title": "Tattoo"}]}]}
{"total": 243, "businesses": [{"rating": 1.0, "review_count": 1, "name": "Richard Specialty", "url": "https://www.yelp.com/biz/richard-specialty-chicago?adjust_creative=4ANmej72Lq5uvu_h_d83AQ&utm_campaign=yelp_api_v3&utm_medium=api_v3_business_search&utm_source=4ANmej72Lq5uvu_h_d83AQ", "coordinates": {"latitude": 41.938522, "longitude": -87.750076}, "phone": "+17737252907", "image_url": "", "location": {"city": "Chicago", "country": "US", "address2": "", "address3": "", "state": "IL", "address1": "4917 W Belmont Ave", "zip_code": "60641"}, "id": "richard-specialty-chicago", "categories": []}]}
{"total": 243, "businesses": [{"rating": 5.0, "review_count": 1, "name": "Chiqui's General Remodeling", "url": "https://www.yelp.com/biz/chiquis-general-remodeling-chicago-2?adjust_creative=4ANmej72Lq5uvu_h_d83AQ&utm_campaign=yelp_api_v3&utm_medium=api_v3_business_search&utm_source=4ANmej72Lq5uvu_h_d83AQ", "coordinates": {"latitude": 41.93816, "longitude": -87.748498}, "phone": "+17737104731", "image_url": "https://s3-media2.fl.yelpcdn.com/bphoto/lptrurZOeCt50GBSa9JQ5Q/o.jpg", "location": {"city": "Chicago", "country": "US", "address2": "", "address3": "", "state": "IL", "address1": "4838 W Fletcher St", "zip_code": "60641"}, "id": "chiquis-general-remodeling-chicago-2", "categories": [{"alias": "contractors", "title": "Contractors"}]}]}
{"total": 243, "businesses": [{"rating": 1.0, "review_count": 1, "name": "All Weather Construction", "url": "https://www.yelp.com/biz/all-weather-construction-chicago?adjust_creative=4ANmej72Lq5uvu_h_d83AQ&utm_campaign=yelp_api_v3&utm_medium=api_v3_business_search&utm_source=4ANmej72Lq5uvu_h_d83AQ", "coordinates": {"latitude": 41.93898, "longitude": -87.75617}, "phone": "+17732824786", "image_url": "https://s3-media4.fl.yelpcdn.com/bphoto/TTT5ohL5F4JKjxRjVh9Q3w/o.jpg", "location": {"city": "Chicago", "country": "US", "address2": "", "address3": "", "state": "IL", "address1": "5146 W Belmont Ave", "zip_code": "60641"}, "id": "all-weather-construction-chicago", "categories": [{"alias": "contractors", "title": "Contractors"}]}]}
{"total": 243, "businesses": [{"rating": 1.0, "review_count": 2, "name": "Doma Shipping", "url": "https://www.yelp.com/biz/doma-shipping-chicago-5?adjust_creative=4ANmej72Lq5uvu_h_d83AQ&utm_campaign=yelp_api_v3&utm_medium=api_v3_business_search&utm_source=4ANmej72Lq5uvu_h_d83AQ", "coordinates": {"latitude": 41.9388449, "longitude": -87.7564062}, "phone": "+17732862577", "image_url": "", "location": {"city": "Chicago", "address1": "5150 W Belmont Ave Ste 3", "address2": "", "address3": "", "state": "IL", "country": "US", "zip_code": "60641"}, "id": "doma-shipping-chicago-5", "categories": []}]}
{"total": 243, "businesses": [{"rating": 5.0, "review_count": 2, "name": "Garcia's Remodeling", "url": "https://www.yelp.com/biz/garcias-remodeling-chicago?adjust_creative=4ANmej72Lq5uvu_h_d83AQ&utm_campaign=yelp_api_v3&utm_medium=api_v3_business_search&utm_source=4ANmej72Lq5uvu_h_d83AQ", "coordinates": {"latitude": 41.9452634648247, "longitude": -87.7438957616687}, "phone": "+17736569590", "image_url": "https://s3-media3.fl.yelpcdn.com/bphoto/7WXKchiymPbE5o9ir5XRaA/o.jpg", "location": {"city": "Chicago", "country": "US", "address2": "", "address3": "", "state": "IL", "address1": "", "zip_code": "60641"}, "id": "garcias-remodeling-chicago", "categories": [{"alias": "contractors", "title": "Contractors"}, {"alias": "flooring", "title": "Flooring"}, {"alias": "painters", "title": "Painters"}]}]}
{"total": 247, "businesses": [{"rating": 1.0, "review_count": 1, "name": "All Weather Construction", "url": "https://www.yelp.com/biz/all-weather-construction-chicago?adjust_creative=4ANmej72Lq5uvu_h_d83AQ&utm_campaign=yelp_api_v3&utm_medium=api_v3_business_search&utm_source=4ANmej72Lq5uvu_h_d83AQ", "coordinates": {"latitude": 41.93898, "longitude": -87.75617}, "phone": "+17732824786", "image_url": "https://s3-media4.fl.yelpcdn.com/bphoto/TTT5ohL5F4JKjxRjVh9Q3w/o.jpg", "location": {"city": "Chicago", "country": "US", "address2": "", "address3": "", "state": "IL", "address1": "5146 W Belmont Ave", "zip_code": "60641"}, "id": "all-weather-construction-chicago", "categories": [{"alias": "contractors", "title": "Contractors"}]}]}
{"total": 247, "businesses": [{"rating": 1.0, "review_count": 2, "name": "Doma Shipping", "url": "https://www.yelp.com/biz/doma-shipping-chicago-5?adjust_creative=4ANmej72Lq5uvu_h_d83AQ&utm_campaign=yelp_api_v3&utm_medium=api_v3_business_search&utm_source=4ANmej72Lq5uvu_h_d83AQ", "coordinates": {"latitude": 41.9388449, "longitude": -87.7564062}, "phone": "+17732862577", "image_url": "", "location": {"city": "Chicago", "country": "US", "address2": "", "address3": "", "state": "IL", "address1": "5150 W Belmont Ave Ste 3", "zip_code": "60641"}, "id": "doma-shipping-chicago-5", "categories": []}]}
{"total": 243, "businesses": [{"rating": 1.0, "review_count": 1, "name": "Act 1 Travel", "url": "https://www.yelp.com/biz/act-1-travel-chicago-2?adjust_creative=4ANmej72Lq5uvu_h_d83AQ&utm_campaign=yelp_api_v3&utm_medium=api_v3_business_search&utm_source=4ANmej72Lq5uvu_h_d83AQ", "coordinates": {"latitude": 41.941722869873, "longitude": -87.7556304931641}, "phone": "+17737754765", "image_url": "", "location": {"city": "Chicago", "country": "US", "address2": "", "address3": "", "state": "IL", "address1": "5130 Henderson", "zip_code": "60641"}, "id": "act-1-travel-chicago-2", "categories": [{"alias": "travelservices", "title": "Travel Services"}]}]}
{"total": 243, "businesses": [{"rating": 1.0, "review_count": 1, "name": "Cars-R-US Auto Sales", "url": "https://www.yelp.com/biz/cars-r-us-auto-sales-chicago?adjust_creative=4ANmej72Lq5uvu_h_d83AQ&utm_campaign=yelp_api_v3&utm_medium=api_v3_business_search&utm_source=4ANmej72Lq5uvu_h_d83AQ", "coordinates": {"latitude": 41.9374711811543, "longitude": -87.7467741072178}, "phone": "+17735451020", "image_url": "https://s3-media1.fl.yelpcdn.com/bphoto/VsuEFeAzTEugX38ztcWbEQ/o.jpg", "location": {"city": "Chicago", "country": "US", "address2": "", "address3": "", "state": "IL", "address1": "3115 N Cicero Ave", "zip_code": "60641"}, "id": "cars-r-us-auto-sales-chicago", "categories": [{"alias": "car_dealers", "title": "Car Dealers"}]}]}
{"total": 247, "businesses": [{"rating": 1.0, "review_count": 2, "name": "Rim Shop", "url": "https://www.yelp.com/biz/rim-shop-chicago?adjust_creative=4ANmej72Lq5uvu_h_d83AQ&utm_campaign=yelp_api_v3&utm_medium=api_v3_business_search&utm_source=4ANmej72Lq5uvu_h_d83AQ", "coordinates": {"latitude": 41.9363018, "longitude": -87.7469564}, "phone": "+17734812664", "image_url": "", "location": {"city": "Chicago", "country": "US", "address2": "", "address3": "", "state": "IL", "address1": "3034 N Cicero Ave", "zip_code": "60641"}, "id": "rim-shop-chicago", "categories": [{"alias": "tires", "title": "Tires"}, {"alias": "wheelrimrepair", "title": "Wheel & Rim Repair"}, {"alias": "towing", "title": "Towing"}]}]}
{"total": 243, "businesses": [{"rating": 1.0, "review_count": 1, "name": "Magnum Insurance", "url": "https://www.yelp.com/biz/magnum-insurance-chicago-6?adjust_creative=4ANmej72Lq5uvu_h_d83AQ&utm_campaign=yelp_api_v3&utm_medium=api_v3_business_search&utm_source=4ANmej72Lq5uvu_h_d83AQ", "coordinates": {"latitude": 41.9372452050447, "longitude": -87.7468874305487}, "phone": "+17732059711", "image_url": "", "location": {"city": "Chicago", "country": "US", "address2": "", "address3": "", "state": "IL", "address1": "3104 N Cicero Ave", "zip_code": "60641"}, "id": "magnum-insurance-chicago-6", "categories": [{"alias": "insurance", "title": "Insurance"}]}]}
{"total": 243, "businesses": [{"rating": 5.0, "review_count": 1, "name": "Nationwide Acceptance", "url": "https://www.yelp.com/biz/nationwide-acceptance-chicago?adjust_creative=4ANmej72Lq5uvu_h_d83AQ&utm_campaign=yelp_api_v3&utm_medium=api_v3_business_search&utm_source=4ANmej72Lq5uvu_h_d83AQ", "coordinates": {"latitude": 41.942992, "longitude": -87.746455}, "phone": "+17737777600", "image_url": "", "location": {"city": "Chicago", "country": "US", "address2": "", "address3": "", "state": "IL", "address1": "3435 N Cicero Ave", "zip_code": "60641"}, "id": "nationwide-acceptance-chicago", "categories": [{"alias": "education", "title": "Education"}, {"alias": "financialservices", "title": "Financial Services"}]}]}
{"total": 243, "businesses": [{"rating": 1.0, "review_count": 1, "name": "One Stop", "url": "https://www.yelp.com/biz/one-stop-chicago-4?adjust_creative=4ANmej72Lq5uvu_h_d83AQ&utm_campaign=yelp_api_v3&utm_medium=api_v3_business_search&utm_source=4ANmej72Lq5uvu_h_d83AQ", "price": "$$$$", "coordinates": {"latitude": 41.9349021911621, "longitude": -87.7471389770508}, "phone": "+17737253513", "image_url": "", "location": {"city": "Chicago", "country": "US", "address2": null, "address3": null, "state": "IL", "address1": "2950 N Cicero Ave", "zip_code": "60641"}, "id": "one-stop-chicago-4", "categories": [{"alias": "convenience", "title": "Convenience Stores"}]}]}
{"total": 243, "businesses": [{"rating": 1.0, "review_count": 1, "name": "Osmondson Carpentry", "url": "https://www.yelp.com/biz/osmondson-carpentry-chicago?adjust_creative=4ANmej72Lq5uvu_h_d83AQ&utm_campaign=yelp_api_v3&utm_medium=api_v3_business_search&utm_source=4ANmej72Lq5uvu_h_d83AQ", "coordinates": {"latitude": 41.93763, "longitude": -87.74724}, "phone": "+17737252422", "image_url": "", "location": {"city": "Chicago", "country": "US", "address2": "", "address3": "", "state": "IL", "address1": "3118 N Cicero Avenue", "zip_code": "60641"}, "id": "osmondson-carpentry-chicago", "categories": []}]}
{"total": 243, "businesses": [{"rating": 1.0, "review_count": 1, "name": "Creative Floors", "url": "https://www.yelp.com/biz/creative-floors-chicago?adjust_creative=4ANmej72Lq5uvu_h_d83AQ&utm_campaign=yelp_api_v3&utm_medium=api_v3_business_search&utm_source=4ANmej72Lq5uvu_h_d83AQ", "coordinates": {"latitude": 41.936348, "longitude": -87.747635}, "image_url": "", "location": {"city": "Chicago", "country": "US", "address2": "", "address3": "", "state": "IL", "address1": "4818 W Nelson St", "zip_code": "60641"}, "id": "creative-floors-chicago", "categories": [{"alias": "flooring", "title": "Flooring"}]}]}
{"total": 243, "businesses": [{"rating": 5.0, "review_count": 1, "name": "Midwest Bible Church", "url": "https://www.yelp.com/biz/midwest-bible-church-chicago?adjust_creative=4ANmej72Lq5uvu_h_d83AQ&utm_campaign=yelp_api_v3&utm_medium=api_v3_business_search&utm_source=4ANmej72Lq5uvu_h_d83AQ", "coordinates": {"latitude": 41.9436442, "longitude": -87.7468128}, "phone": "+17736856500", "image_url": "", "location": {"city": "Chicago", "country": "US", "address2": "", "address3": "", "state": "IL", "address1": "3441 N Cicero Ave", "zip_code": "60641"}, "id": "midwest-bible-church-chicago", "categories": [{"alias": "churches", "title": "Churches"}]}]}
{"total": 243, "businesses": [{"rating": 1.0, "review_count": 1, "name": "Plunkett Catering Service", "url": "https://www.yelp.com/biz/plunkett-catering-service-chicago?adjust_creative=4ANmej72Lq5uvu_h_d83AQ&utm_campaign=yelp_api_v3&utm_medium=api_v3_business_search&utm_source=4ANmej72Lq5uvu_h_d83AQ", "coordinates": {"latitude": 41.93895, "longitude": -87.75766}, "phone": "+17737254848", "image_url": "", "location": {"city": "Chicago", "country": "US", "address2": "", "address3": "", "state": "IL", "address1": "5222 W Belmont Avenue", "zip_code": "60641"}, "id": "plunkett-catering-service-chicago", "categories": [{"alias": "catering", "title": "Caterers"}]}]}
{"total": 243, "businesses": [{"rating": 1.0, "review_count": 1, "name": "Premier Flooring Services", "url": "https://www.yelp.com/biz/premier-flooring-services-chicago?adjust_creative=4ANmej72Lq5uvu_h_d83AQ&utm_campaign=yelp_api_v3&utm_medium=api_v3_business_search&utm_source=4ANmej72Lq5uvu_h_d83AQ", "coordinates": {"latitude": 41.93665, "longitude": -87.75398}, "phone": "+17734102831", "image_url": "", "location": {"city": "Chicago", "country": "US", "address2": "", "address3": "", "state": "IL", "address1": "3053 N Leclaire Ave", "zip_code": "60641"}, "id": "premier-flooring-services-chicago", "categories": [{"alias": "flooring", "title": "Flooring"}]}]}
{"total": 243, "businesses": [{"rating": 1.0, "review_count": 1, "name": "The Chicago Door People", "url": "https://www.yelp.com/biz/the-chicago-door-people-chicago?adjust_creative=4ANmej72Lq5uvu_h_d83AQ&utm_campaign=yelp_api_v3&utm_medium=api_v3_business_search&utm_source=4ANmej72Lq5uvu_h_d83AQ", "coordinates": {"latitude": 41.937238, "longitude": -87.756994}, "phone": "+17732834014", "image_url": "https://s3-media4.fl.yelpcdn.com/bphoto/n3HmMbYUrRzNP9gE-2ck8g/o.jpg", "location": {"city": "Chicago", "country": "US", "address2": null, "address3": null, "state": "IL", "address1": "3108 N Laramie Ave", "zip_code": "60641"}, "id": "the-chicago-door-people-chicago", "categories": [{"alias": "doorsales", "title": "Door Sales/Installation"}]}]}
{"total": 243, "businesses": [{"rating": 5.0, "review_count": 1, "name": "Chicago Brewery Tour Bus", "url": "https://www.yelp.com/biz/chicago-brewery-tour-bus-chicago?adjust_creative=4ANmej72Lq5uvu_h_d83AQ&utm_campaign=yelp_api_v3&utm_medium=api_v3_business_search&utm_source=4ANmej72Lq5uvu_h_d83AQ", "coordinates": {"latitude": 41.9452171, "longitude": -87.757515}, "phone": "+17733402739", "image_url": "https://s3-media4.fl.yelpcdn.com/bphoto/_rKOPM0INlfqsk_QXd2otw/o.jpg", "location": {"city": "Chicago", "country": "US", "address2": "", "address3": "", "state": "IL", "address1": "5214 W Eddy St", "zip_code": "60641"}, "id": "chicago-brewery-tour-bus-chicago", "categories": [{"alias": "bustours", "title": "Bus Tours"}]}]}
{"total": 243, "businesses": [{"rating": 1.0, "review_count": 1, "name": "Bella Spa", "url": "https://www.yelp.com/biz/bella-spa-chicago-2?adjust_creative=4ANmej72Lq5uvu_h_d83AQ&utm_campaign=yelp_api_v3&utm_medium=api_v3_business_search&utm_source=4ANmej72Lq5uvu_h_d83AQ", "price": "$$$", "coordinates": {"latitude": 41.9308586, "longitude": -87.7567368}, "phone": "+17734174537", "image_url": "https://s3-media2.fl.yelpcdn.com/bphoto/ls2SU64xwbZKFH3LLjkFZw/o.jpg", "location": {"city": "Chicago", "country": "US", "address2": null, "address3": "", "state": "IL", "address1": "2742 N Laramie Ave", "zip_code": "60639"}, "id": "bella-spa-chicago-2", "categories": [{"alias": "spas", "title": "Day Spas"}]}]}
{"total": 243, "businesses": [{"rating": 1.0, "review_count": 1, "name": "Salvador Martinez Landscaping", "url": "https://www.yelp.com/biz/salvador-martinez-landscaping-chicago?adjust_creative=4ANmej72Lq5uvu_h_d83AQ&utm_campaign=yelp_api_v3&utm_medium=api_v3_business_search&utm_source=4ANmej72Lq5uvu_h_d83AQ", "coordinates": {"latitude": 41.94541, "longitude": -87.75618}, "phone": "+17732821669", "image_url": "", "location": {"city": "Chicago", "address1": "5142 N Eddy", "address2": "", "address3": "", "state": "IL", "country": "US", "zip_code": "60641"}, "id": "salvador-martinez-landscaping-chicago", "categories": [{"alias": "landscaping", "title": "Landscaping"}]}]}
{"total": 243, "businesses": [{"rating": 1.0, "review_count": 2, "name": "Leong Jack C MD", "url": "https://www.yelp.com/biz/leong-jack-c-md-chicago?adjust_creative=4ANmej72Lq5uvu_h_d83AQ&utm_campaign=yelp_api_v3&utm_medium=api_v3_business_search&utm_source=4ANmej72Lq5uvu_h_d83AQ", "coordinates": {"latitude": 41.93538, "longitude": -87.74715}, "phone": "+17732823115", "image_url": "", "location": {"city": "Chicago", "country": "US", "address2": "", "address3": "", "state": "IL", "address1": "3000 N Cicero Ave", "zip_code": "60641"}, "id": "leong-jack-c-md-chicago", "categories": [{"alias": "acupuncture", "title": "Acupuncture"}, {"alias": "physicians", "title": "Doctors"}]}]}
{"total": 243, "businesses": [{"rating": 5.0, "review_count": 1, "name": "Christopher J Lamb, DDS", "url": "https://www.yelp.com/biz/christopher-j-lamb-dds-chicago?adjust_creative=4ANmej72Lq5uvu_h_d83AQ&utm_campaign=yelp_api_v3&utm_medium=api_v3_business_search&utm_source=4ANmej72Lq5uvu_h_d83AQ", "coordinates": {"latitude": 41.9353294372559, "longitude": -87.7569198608398}, "phone": "+17737256771", "image_url": "", "location": {"city": "Chicago", "country": "US", "address2": "", "address3": "", "state": "IL", "address1": "3006 N Laramie Ave", "zip_code": "60641"}, "id": "christopher-j-lamb-dds-chicago", "categories": [{"alias": "generaldentistry", "title": "General Dentistry"}]}]}
{"total": 243, "businesses": [{"rating": 5.0, "review_count": 1, "name": "Pappas Tom", "url": "https://www.yelp.com/biz/pappas-tom-chicago?adjust_creative=4ANmej72Lq5uvu_h_d83AQ&utm_campaign=yelp_api_v3&utm_medium=api_v3_business_search&utm_source=4ANmej72Lq5uvu_h_d83AQ", "coordinates": {"latitude": 41.9384299, "longitude": -87.75813}, "phone": "+17732867118", "image_url": "", "location": {"city": "Chicago", "country": "US", "address2": "", "address3": "", "state": "IL", "address1": "5237 W Belmont Avenue", "zip_code": "60641"}, "id": "pappas-tom-chicago", "categories": [{"alias": "chiropractors", "title": "Chiropractors"}]}]}
{"total": 243, "businesses": [{"rating": 1.0, "review_count": 1, "name": "Cicero Prompt Care Family Medical Center", "url": "https://www.yelp.com/biz/cicero-prompt-care-family-medical-center-chicago?adjust_creative=4ANmej72Lq5uvu_h_d83AQ&utm_campaign=yelp_api_v3&utm_medium=api_v3_business_search&utm_source=4ANmej72Lq5uvu_h_d83AQ", "coordinates": {"latitude": 41.93538, "longitude": -87.74715}, "phone": "+17732823115", "image_url": "", "location": {"city": "Chicago", "country": "US", "address2": "", "address3": "", "state": "IL", "address1": "3000 N Cicero Avenue", "zip_code": "60641"}, "id": "cicero-prompt-care-family-medical-center-chicago", "categories": [{"alias": "physicians", "title": "Doctors"}]}]}
{"total": 243, "businesses": [{"rating": 1.0, "review_count": 2, "name": "JNW Mechanical", "url": "https://www.yelp.com/biz/jnw-mechanical-chicago?adjust_creative=4ANmej72Lq5uvu_h_d83AQ&utm_campaign=yelp_api_v3&utm_medium=api_v3_business_search&utm_source=4ANmej72Lq5uvu_h_d83AQ", "coordinates": {"latitude": 41.946199759841, "longitude": -87.7449133247137}, "phone": "+17739319186", "image_url": "", "location": {"city": "Chicago", "address1": "4708 W Addison St", "address2": "", "address3": "", "state": "IL", "country": "US", "zip_code": "60641"}, "id": "jnw-mechanical-chicago", "categories": [{"alias": "hvac", "title": "Heating & Air Conditioning/HVAC"}]}]}
{"total": 243, "businesses": [{"rating": 1.0, "review_count": 1, "name": "Globalstar Beauty", "url": "https://www.yelp.com/biz/globalstar-beauty-chicago-2?adjust_creative=4ANmej72Lq5uvu_h_d83AQ&utm_campaign=yelp_api_v3&utm_medium=api_v3_business_search&utm_source=4ANmej72Lq5uvu_h_d83AQ", "price": "$$", "coordinates": {"latitude": 41.931649, "longitude": -87.758109}, "phone": "+17732837472", "image_url": "https://s3-media2.fl.yelpcdn.com/bphoto/Q6Q72wwaI0X-Y4F-hanuqw/o.jpg", "location": {"city": "Chicago", "country": "US", "address2": "", "address3": "", "state": "IL", "address1": "5242 W Diversey Ave", "zip_code": "60639"}, "id": "globalstar-beauty-chicago-2", "categories": [{"alias": "shopping", "title": "Shopping"}]}]}
{"total": 243, "businesses": [{"rating": 3.5, "review_count": 3, "name": "Allstate Insurance: Rosemary Campuzano", "url": "https://www.yelp.com/biz/allstate-insurance-rosemary-campuzano-chicago?adjust_creative=4ANmej72Lq5uvu_h_d83AQ&utm_campaign=yelp_api_v3&utm_medium=api_v3_business_search&utm_source=4ANmej72Lq5uvu_h_d83AQ", "coordinates": {"latitude": 41.931678840774, "longitude": -87.7519112080336}, "phone": "+17737252155", "image_url": "https://s3-media1.fl.yelpcdn.com/bphoto/w0Tb7Y7pNrkvyPpScYyTnA/o.jpg", "location": {"city": "Chicago", "address1": "5006 W Diversey Ave", "address2": "", "address3": "", "state": "IL", "country": "US", "zip_code": "60639"}, "id": "allstate-insurance-rosemary-campuzano-chicago", "categories": [{"alias": "insurance", "title": "Insurance"}]}]}
{"total": 243, "businesses": [{"rating": 5.0, "review_count": 2, "name": "The Learning Garden", "url": "https://www.yelp.com/biz/the-learning-garden-chicago?adjust_creative=4ANmej72Lq5uvu_h_d83AQ&utm_campaign=yelp_api_v3&utm_medium=api_v3_business_search&utm_source=4ANmej72Lq5uvu_h_d83AQ", "coordinates": {"latitude": 41.9503784, "longitude": -87.75}, "phone": "+17736856634", "image_url": "https://s3-media3.fl.yelpcdn.com/bphoto/mr7r0q_n2vuoH9d1WGn4VA/o.jpg", "location": {"city": "Chicago", "country": "US", "address2": null, "address3": "", "state": "IL", "address1": "4901 W Berenice Ave", "zip_code": "60641"}, "id": "the-learning-garden-chicago", "categories": [{"alias": "childcare", "title": "Child Care & Day Care"}, {"alias": "preschools", "title": "Preschools"}]}]}
{"total": 243, "businesses": [{"rating": 3.0, "review_count": 2, "name": "Integrity Automotive Machine", "url": "https://www.yelp.com/biz/integrity-automotive-machine-chicago?adjust_creative=4ANmej72Lq5uvu_h_d83AQ&utm_campaign=yelp_api_v3&utm_medium=api_v3_business_search&utm_source=4ANmej72Lq5uvu_h_d83AQ", "coordinates": {"latitude": 41.93319, "longitude": -87.74706}, "phone": "+17732829200", "image_url": "", "location": {"city": "Chicago", "country": "US", "address2": "", "address3": "", "state": "IL", "address1": "2858 N Cicero Avenue", "zip_code": "60641"}, "id": "integrity-automotive-machine-chicago", "categories": [{"alias": "autorepair", "title": "Auto Repair"}]}]}
{"total": 243, "businesses": [{"rating": 1.0, "review_count": 1, "name": "Mysha's Flooring Company", "url": "https://www.yelp.com/biz/myshas-flooring-company-chicago?adjust_creative=4ANmej72Lq5uvu_h_d83AQ&utm_campaign=yelp_api_v3&utm_medium=api_v3_business_search&utm_source=4ANmej72Lq5uvu_h_d83AQ", "coordinates": {"latitude": 41.9490613, "longitude": -87.7444208}, "phone": "+17739642863", "image_url": "https://s3-media4.fl.yelpcdn.com/bphoto/A8vDKIp3sWGLbEADMZC1Wg/o.jpg", "location": {"city": "Chicago", "country": "US", "address2": null, "address3": "", "state": "IL", "address1": "3737 N Kilpatrick Ave", "zip_code": "60641"}, "id": "myshas-flooring-company-chicago", "categories": [{"alias": "flooring", "title": "Flooring"}]}]}
{"total": 243, "businesses": [{"rating": 1.0, "review_count": 2, "name": "Commercial Coin Laundry Systems", "url": "https://www.yelp.com/biz/commercial-coin-laundry-systems-chicago?adjust_creative=4ANmej72Lq5uvu_h_d83AQ&utm_campaign=yelp_api_v3&utm_medium=api_v3_business_search&utm_source=4ANmej72Lq5uvu_h_d83AQ", "coordinates": {"latitude": 41.9495217, "longitude": -87.7473585}, "phone": "+17732835300", "image_url": "", "location": {"city": "Chicago", "country": "US", "address2": "", "address3": "", "state": "IL", "address1": "3750 N Cicero Ave", "zip_code": "60641"}, "id": "commercial-coin-laundry-systems-chicago", "categories": [{"alias": "drycleaninglaundry", "title": "Dry Cleaning & Laundry"}]}]}
{"total": 243, "businesses": [{"rating": 1.0, "review_count": 1, "name": "Aaron's Sales and Lease Ownership", "url": "https://www.yelp.com/biz/aarons-sales-and-lease-ownership-chicago-3?adjust_creative=4ANmej72Lq5uvu_h_d83AQ&utm_campaign=yelp_api_v3&utm_medium=api_v3_business_search&utm_source=4ANmej72Lq5uvu_h_d83AQ", "coordinates": {"latitude": 41.9316449, "longitude": -87.74796}, "phone": "+17737773366", "image_url": "", "location": {"city": "Chicago", "country": "US", "address2": "", "address3": "", "state": "IL", "address1": "4830 W Diversey Avenue", "zip_code": "60639"}, "id": "aarons-sales-and-lease-ownership-chicago-3", "categories": [{"alias": "electronics", "title": "Electronics"}, {"alias": "furniture", "title": "Furniture Stores"}, {"alias": "appliances", "title": "Appliances"}]}]}
{"total": 243, "businesses": [{"rating": 5.0, "review_count": 1, "name": "Aaaa Auto Care", "url": "https://www.yelp.com/biz/aaaa-auto-care-chicago?adjust_creative=4ANmej72Lq5uvu_h_d83AQ&utm_campaign=yelp_api_v3&utm_medium=api_v3_business_search&utm_source=4ANmej72Lq5uvu_h_d83AQ", "coordinates": {"latitude": 41.9313651, "longitude": -87.7497308}, "phone": "+17733855302", "image_url": "", "location": {"city": "Chicago", "address1": "4919 W Diversey Avenue", "address2": "", "address3": "", "state": "IL", "country": "US", "zip_code": "60639"}, "id": "aaaa-auto-care-chicago", "categories": [{"alias": "autorepair", "title": "Auto Repair"}]}]}
{"total": 243, "businesses": [{"rating": 4.0, "review_count": 1, "name": "Magic Glass Block Company", "url": "https://www.yelp.com/biz/magic-glass-block-company-chicago?adjust_creative=4ANmej72Lq5uvu_h_d83AQ&utm_campaign=yelp_api_v3&utm_medium=api_v3_business_search&utm_source=4ANmej72Lq5uvu_h_d83AQ", "coordinates": {"latitude": 41.9313196, "longitude": -87.7532451}, "phone": "+17732374044", "image_url": "", "location": {"city": "Chicago", "country": "US", "address2": "", "address3": "", "state": "IL", "address1": "5045 W Diversey Avenue", "zip_code": "60639"}, "id": "magic-glass-block-company-chicago", "categories": [{"alias": "autoglass", "title": "Auto Glass Services"}]}]}
{"total": 243, "businesses": [{"rating": 1.0, "review_count": 1, "name": "Ron's Temporary Help Services", "url": "https://www.yelp.com/biz/rons-temporary-help-services-chicago?adjust_creative=4ANmej72Lq5uvu_h_d83AQ&utm_campaign=yelp_api_v3&utm_medium=api_v3_business_search&utm_source=4ANmej72Lq5uvu_h_d83AQ", "coordinates": {"latitude": 41.93182, "longitude": -87.74447}, "phone": "+17732827788", "image_url": "", "location": {"city": "Chicago", "country": "US", "address2": "", "address3": "", "state": "IL", "address1": "4700 W Diversey Ave", "zip_code": "60639"}, "id": "rons-temporary-help-services-chicago", "categories": [{"alias": "employmentagencies", "title": "Employment Agencies"}]}]}
{"total": 247, "businesses": [{"rating": 1.0, "review_count": 1, "name": "Aaron's Sales and Lease Ownership", "url": "https://www.yelp.com/biz/aarons-sales-and-lease-ownership-chicago-3?adjust_creative=4ANmej72Lq5uvu_h_d83AQ&utm_campaign=yelp_api_v3&utm_medium=api_v3_business_search&utm_source=4ANmej72Lq5uvu_h_d83AQ", "coordinates": {"latitude": 41.9316449, "longitude": -87.74796}, "phone": "+17737773366", "image_url": "", "location": {"city": "Chicago", "country": "US", "address2": "", "address3": "", "state": "IL", "address1": "4830 W Diversey Avenue", "zip_code": "60639"}, "id": "aarons-sales-and-lease-ownership-chicago-3", "categories": [{"alias": "electronics", "title": "Electronics"}, {"alias": "furniture", "title": "Furniture Stores"}, {"alias": "appliances", "title": "Appliances"}]}]}
{"total": 243, "businesses": [{"rating": 5.0, "review_count": 2, "name": "Nails From Natasha", "url": "https://www.yelp.com/biz/nails-from-natasha-chicago?adjust_creative=4ANmej72Lq5uvu_h_d83AQ&utm_campaign=yelp_api_v3&utm_medium=api_v3_business_search&utm_source=4ANmej72Lq5uvu_h_d83AQ", "price": "$", "coordinates": {"latitude": 41.9461784362793, "longitude": -87.7470245361328}, "phone": "+13125052214", "image_url": "https://s3-media1.fl.yelpcdn.com/bphoto/h_ewPxFX-A5HuGnVTID6mQ/o.jpg", "location": {"city": "Chicago", "address1": "", "address2": "", "address3": "", "state": "IL", "country": "US", "zip_code": "60641"}, "id": "nails-from-natasha-chicago", "categories": [{"alias": "othersalons", "title": "Nail Salons"}]}]}
{"total": 243, "businesses": [{"rating": 5.0, "review_count": 1, "name": "La Korita", "url": "https://www.yelp.com/biz/la-korita-chicago?adjust_creative=4ANmej72Lq5uvu_h_d83AQ&utm_campaign=yelp_api_v3&utm_medium=api_v3_business_search&utm_source=4ANmej72Lq5uvu_h_d83AQ", "coordinates": {"latitude": 41.931164, "longitude": -87.755455}, "phone": "+17736222853", "image_url": "", "location": {"city": "Chicago", "country": "US", "address2": null, "address3": "", "state": "IL", "address1": "5137 W Diversey Ave", "zip_code": "60639"}, "id": "la-korita-chicago", "categories": [{"alias": "icecream", "title": "Ice Cream & Frozen Yogurt"}, {"alias": "juicebars", "title": "Juice Bars & Smoothies"}]}]}
{"total": 243, "businesses": [{"rating": 1.0, "review_count": 2, "name": "Northshore Glazing & Mirror", "url": "https://www.yelp.com/biz/northshore-glazing-and-mirror-chicago?adjust_creative=4ANmej72Lq5uvu_h_d83AQ&utm_campaign=yelp_api_v3&utm_medium=api_v3_business_search&utm_source=4ANmej72Lq5uvu_h_d83AQ", "coordinates": {"latitude": 41.9311239, "longitude": -87.758238}, "phone": "+17737453461", "image_url": "", "location": {"city": "Chicago", "country": "US", "address2": "", "address3": "", "state": "IL", "address1": "5245 W. Diversey Avenue", "zip_code": "60639"}, "id": "northshore-glazing-and-mirror-chicago", "categories": [{"alias": "windowsinstallation", "title": "Windows Installation"}, {"alias": "homewindowtinting", "title": "Home Window Tinting"}]}]}
{"total": 243, "businesses": [{"rating": 5.0, "review_count": 1, "name": "Galapagos Family Hair Cut", "url": "https://www.yelp.com/biz/galapagos-family-hair-cut-chicago?adjust_creative=4ANmej72Lq5uvu_h_d83AQ&utm_campaign=yelp_api_v3&utm_medium=api_v3_business_search&utm_source=4ANmej72Lq5uvu_h_d83AQ", "coordinates": {"latitude": 41.9314502924681, "longitude": -87.7572776377201}, "phone": "+17735456698", "image_url": "", "location": {"city": "Chicago", "country": "US", "address2": "", "address3": "", "state": "IL", "address1": "5218 W Diversey Avenue", "zip_code": "60639"}, "id": "galapagos-family-hair-cut-chicago", "categories": [{"alias": "hair", "title": "Hair Salons"}]}]}
{"total": 243, "businesses": [{"rating": 5.0, "review_count": 1, "name": "Robert J Nicpon Productions", "url": "https://www.yelp.com/biz/robert-j-nicpon-productions-chicago?adjust_creative=4ANmej72Lq5uvu_h_d83AQ&utm_campaign=yelp_api_v3&utm_medium=api_v3_business_search&utm_source=4ANmej72Lq5uvu_h_d83AQ", "coordinates": {"latitude": 41.9461212158203, "longitude": -87.7468490600586}, "phone": "+17738441700", "image_url": "https://s3-media3.fl.yelpcdn.com/bphoto/UU7HSxAh4gBAESCtp1wDhA/o.jpg", "location": {"city": "Chicago", "country": "US", "address2": null, "address3": "", "state": "IL", "address1": "", "zip_code": "60641"}, "id": "robert-j-nicpon-productions-chicago", "categories": [{"alias": "djs", "title": "DJs"}]}]}
{"total": 243, "businesses": [{"rating": 5.0, "review_count": 1, "name": "Chris Halstead LMT", "url": "https://www.yelp.com/biz/chris-halstead-lmt-chicago?adjust_creative=4ANmej72Lq5uvu_h_d83AQ&utm_campaign=yelp_api_v3&utm_medium=api_v3_business_search&utm_source=4ANmej72Lq5uvu_h_d83AQ", "coordinates": {"latitude": 41.9461212158203, "longitude": -87.7468490600586}, "phone": "+18479510516", "image_url": "https://s3-media3.fl.yelpcdn.com/bphoto/vB461zJSpMvVT16SztF7Xg/o.jpg", "location": {"city": "Chicago", "country": "US", "address2": null, "address3": "", "state": "IL", "address1": "", "zip_code": "60641"}, "id": "chris-halstead-lmt-chicago", "categories": [{"alias": "massage_therapy", "title": "Massage Therapy"}]}]}
{"total": 243, "businesses": [{"rating": 5.0, "review_count": 1, "name": "Snow Men Snow Removal", "url": "https://www.yelp.com/biz/snow-men-snow-removal-chicago?adjust_creative=4ANmej72Lq5uvu_h_d83AQ&utm_campaign=yelp_api_v3&utm_medium=api_v3_business_search&utm_source=4ANmej72Lq5uvu_h_d83AQ", "coordinates": {"latitude": 41.9461212158203, "longitude": -87.7468490600586}, "phone": "+17738996178", "image_url": "https://s3-media2.fl.yelpcdn.com/bphoto/TaQ-9sSSsaBjKvcDIm4QSw/o.jpg", "location": {"city": "Chicago", "address1": "", "address2": null, "address3": "", "state": "IL", "country": "US", "zip_code": "60641"}, "id": "snow-men-snow-removal-chicago", "categories": [{"alias": "snowremoval", "title": "Snow Removal"}]}]}
{"total": 243, "businesses": [{"rating": 5.0, "review_count": 1, "name": "The Parent Coop", "url": "https://www.yelp.com/biz/the-parent-coop-chicago?adjust_creative=4ANmej72Lq5uvu_h_d83AQ&utm_campaign=yelp_api_v3&utm_medium=api_v3_business_search&utm_source=4ANmej72Lq5uvu_h_d83AQ", "coordinates": {"latitude": 41.9461784362793, "longitude": -87.7470245361328}, "phone": "+15635281319", "image_url": "https://s3-media3.fl.yelpcdn.com/bphoto/migqYIm-s8TNr9HMJIQSPQ/o.jpg", "location": {"city": "Chicago", "country": "US", "address2": "", "address3": "", "state": "IL", "address1": "", "zip_code": "60641"}, "id": "the-parent-coop-chicago", "categories": [{"alias": "doulas", "title": "Doulas"}, {"alias": "childbirthedu", "title": "Childbirth Education"}]}]}
{"total": 243, "businesses": [{"rating": 4.5, "review_count": 2, "name": "Harmony Estate Sales", "url": "https://www.yelp.com/biz/harmony-estate-sales-chicago-5?adjust_creative=4ANmej72Lq5uvu_h_d83AQ&utm_campaign=yelp_api_v3&utm_medium=api_v3_business_search&utm_source=4ANmej72Lq5uvu_h_d83AQ", "coordinates": {"latitude": 41.9461784362793, "longitude": -87.7470245361328}, "phone": "+17735457120", "image_url": "https://s3-media3.fl.yelpcdn.com/bphoto/vkuYzDpZc0r_Z_4jXIgvXg/o.jpg", "location": {"city": "Chicago", "country": "US", "address2": null, "address3": "", "state": "IL", "address1": "", "zip_code": "60641"}, "id": "harmony-estate-sales-chicago-5", "categories": [{"alias": "estateliquidation", "title": "Estate Liquidation"}]}]}
{"total": 243, "businesses": [{"rating": 5.0, "review_count": 1, "name": "Manuel Gallegos Tree Service", "url": "https://www.yelp.com/biz/manuel-gallegos-tree-service-chicago?adjust_creative=4ANmej72Lq5uvu_h_d83AQ&utm_campaign=yelp_api_v3&utm_medium=api_v3_business_search&utm_source=4ANmej72Lq5uvu_h_d83AQ", "coordinates": {"latitude": 41.9461784362793, "longitude": -87.7470245361328}, "phone": "+18474564399", "image_url": "https://s3-media3.fl.yelpcdn.com/bphoto/j5IgkLLVynD0pHx0G8Pd0A/o.jpg", "location": {"city": "Chicago", "country": "US", "address2": null, "address3": null, "state": "IL", "address1": "", "zip_code": "60641"}, "id": "manuel-gallegos-tree-service-chicago", "categories": [{"alias": "treeservices", "title": "Tree Services"}]}]}
{"total": 243, "businesses": [{"rating": 1.0, "review_count": 1, "name": "Sears Appliance Repair", "url": "https://www.yelp.com/biz/sears-appliance-repair-chicago-2?adjust_creative=4ANmej72Lq5uvu_h_d83AQ&utm_campaign=yelp_api_v3&utm_medium=api_v3_business_search&utm_source=4ANmej72Lq5uvu_h_d83AQ", "coordinates": {"latitude": 41.954, "longitude": -87.747}, "phone": "+17736960805", "image_url": "https://s3-media4.fl.yelpcdn.com/bphoto/6F0zYOIkEn5vZe370ZVwkA/o.jpg", "location": {"city": "Chicago", "country": "US", "address2": "Six Corners S/C", "address3": null, "state": "IL", "address1": "4730 W Irving Park Rd", "zip_code": "60641"}, "id": "sears-appliance-repair-chicago-2", "categories": [{"alias": "homeappliancerepair", "title": "Appliances & Repair"}, {"alias": "electronicsrepair", "title": "Electronics Repair"}]}]}
{"total": 247, "businesses": [{"rating": 5.0, "review_count": 1, "name": "The Parent Coop", "url": "https://www.yelp.com/biz/the-parent-coop-chicago?adjust_creative=4ANmej72Lq5uvu_h_d83AQ&utm_campaign=yelp_api_v3&utm_medium=api_v3_business_search&utm_source=4ANmej72Lq5uvu_h_d83AQ", "coordinates": {"latitude": 41.9461784362793, "longitude": -87.7470245361328}, "phone": "+15635281319", "image_url": "https://s3-media3.fl.yelpcdn.com/bphoto/migqYIm-s8TNr9HMJIQSPQ/o.jpg", "location": {"city": "Chicago", "address1": "", "address2": "", "address3": "", "state": "IL", "country": "US", "zip_code": "60641"}, "id": "the-parent-coop-chicago", "categories": [{"alias": "doulas", "title": "Doulas"}, {"alias": "childbirthedu", "title": "Childbirth Education"}]}]}
{"total": 243, "businesses": [{"rating": 5.0, "review_count": 1, "name": "Luzco Photography", "url": "https://www.yelp.com/biz/luzco-photography-chicago?adjust_creative=4ANmej72Lq5uvu_h_d83AQ&utm_campaign=yelp_api_v3&utm_medium=api_v3_business_search&utm_source=4ANmej72Lq5uvu_h_d83AQ", "coordinates": {"latitude": 41.9461212158203, "longitude": -87.7468490600586}, "phone": "+13127256181", "image_url": "", "location": {"city": "Chicago", "address1": null, "address2": null, "address3": "", "state": "IL", "country": "US", "zip_code": "60641"}, "id": "luzco-photography-chicago", "categories": [{"alias": "photographers", "title": "Photographers"}]}]}
{"total": 243, "businesses": [{"rating": 5.0, "review_count": 1, "name": "Budget Cleaning Services", "url": "https://www.yelp.com/biz/budget-cleaning-services-chicago?adjust_creative=4ANmej72Lq5uvu_h_d83AQ&utm_campaign=yelp_api_v3&utm_medium=api_v3_business_search&utm_source=4ANmej72Lq5uvu_h_d83AQ", "coordinates": {"latitude": 41.9461212158203, "longitude": -87.7468490600586}, "phone": "+17737775011", "image_url": "", "location": {"city": "Chicago", "country": "US", "address2": "", "address3": "", "state": "IL", "address1": "", "zip_code": "60641"}, "id": "budget-cleaning-services-chicago", "categories": [{"alias": "homecleaning", "title": "Home Cleaning"}]}]}
{"total": 243, "businesses": [{"rating": 4.5, "review_count": 14, "name": "C&E Handyman", "url": "https://www.yelp.com/biz/c-and-e-handyman-chicago?adjust_creative=4ANmej72Lq5uvu_h_d83AQ&utm_campaign=yelp_api_v3&utm_medium=api_v3_business_search&utm_source=4ANmej72Lq5uvu_h_d83AQ", "coordinates": {"latitude": 41.9434916704252, "longitude": -87.6852645823731}, "phone": "+17735936471", "image_url": "https://s3-media1.fl.yelpcdn.com/bphoto/Dn76_Yx8AMRZtZSmdJPMHw/o.jpg", "location": {"city": "Chicago", "country": "US", "address2": null, "address3": "", "state": "IL", "address1": "", "zip_code": "60618"}, "id": "c-and-e-handyman-chicago", "categories": [{"alias": "handyman", "title": "Handyman"}, {"alias": "painters", "title": "Painters"}, {"alias": "carpenters", "title": "Carpenters"}]}]}
{"total": 243, "businesses": [{"rating": 4.5, "review_count": 90, "name": "AAA Liberty Lock & Door Closer Check Service", "url": "https://www.yelp.com/biz/aaa-liberty-lock-and-door-closer-check-service-chicago?adjust_creative=4ANmej72Lq5uvu_h_d83AQ&utm_campaign=yelp_api_v3&utm_medium=api_v3_business_search&utm_source=4ANmej72Lq5uvu_h_d83AQ", "coordinates": {"latitude": 41.919395, "longitude": -87.677993}, "phone": "+13123880071", "image_url": "https://s3-media1.fl.yelpcdn.com/bphoto/vJOE1hKF96dAcWY6qk-ocw/o.jpg", "location": {"city": "Chicago", "country": "US", "address2": "", "address3": "", "state": "IL", "address1": "2056 N Damen Ave", "zip_code": "60647"}, "id": "aaa-liberty-lock-and-door-closer-check-service-chicago", "categories": [{"alias": "locksmiths", "title": "Keys & Locksmiths"}, {"alias": "securitysystems", "title": "Security Systems"}]}]}
{"total": 247, "businesses": [{"rating": 5.0, "review_count": 1, "name": "Luzco Photography", "url": "https://www.yelp.com/biz/luzco-photography-chicago?adjust_creative=4ANmej72Lq5uvu_h_d83AQ&utm_campaign=yelp_api_v3&utm_medium=api_v3_business_search&utm_source=4ANmej72Lq5uvu_h_d83AQ", "coordinates": {"latitude": 41.9461212158203, "longitude": -87.7468490600586}, "phone": "+13127256181", "image_url": "", "location": {"city": "Chicago", "country": "US", "address2": null, "address3": "", "state": "IL", "address1": null, "zip_code": "60641"}, "id": "luzco-photography-chicago", "categories": [{"alias": "photographers", "title": "Photographers"}]}]}
{"total": 247, "businesses": [{"rating": 5.0, "review_count": 1, "name": "Budget Cleaning Services", "url": "https://www.yelp.com/biz/budget-cleaning-services-chicago?adjust_creative=4ANmej72Lq5uvu_h_d83AQ&utm_campaign=yelp_api_v3&utm_medium=api_v3_business_search&utm_source=4ANmej72Lq5uvu_h_d83AQ", "coordinates": {"latitude": 41.9461212158203, "longitude": -87.7468490600586}, "phone": "+17737775011", "image_url": "", "location": {"city": "Chicago", "address1": "", "address2": "", "address3": "", "state": "IL", "country": "US", "zip_code": "60641"}, "id": "budget-cleaning-services-chicago", "categories": [{"alias": "homecleaning", "title": "Home Cleaning"}]}]}
{"total": 243, "businesses": [{"rating": 4.5, "review_count": 115, "name": "Cityscape Landscape", "url": "https://www.yelp.com/biz/cityscape-landscape-chicago-2?adjust_creative=4ANmej72Lq5uvu_h_d83AQ&utm_campaign=yelp_api_v3&utm_medium=api_v3_business_search&utm_source=4ANmej72Lq5uvu_h_d83AQ", "coordinates": {"latitude": 41.9011917114258, "longitude": -87.6577835083008}, "phone": "+17733424009", "image_url": "https://s3-media4.fl.yelpcdn.com/bphoto/fRfs-ZLJqYJVVVGqWrWypg/o.jpg", "location": {"city": "Chicago", "country": "US", "address2": "", "address3": "", "state": "IL", "address1": "", "zip_code": "60642"}, "id": "cityscape-landscape-chicago-2", "categories": [{"alias": "landscaping", "title": "Landscaping"}, {"alias": "landscapearchitects", "title": "Landscape Architects"}, {"alias": "patiocoverings", "title": "Patio Coverings"}]}]}
{"total": 243, "businesses": [{"rating": 5.0, "review_count": 1, "name": "Anderson Pest Solutions", "url": "https://www.yelp.com/biz/anderson-pest-solutions-chicago-2?adjust_creative=4ANmej72Lq5uvu_h_d83AQ&utm_campaign=yelp_api_v3&utm_medium=api_v3_business_search&utm_source=4ANmej72Lq5uvu_h_d83AQ", "coordinates": {"latitude": 41.87807, "longitude": -87.65489}, "phone": "+16305813720", "image_url": "https://s3-media4.fl.yelpcdn.com/bphoto/shU1W3lEUxL1GcgbkKfXDw/o.jpg", "location": {"city": "Chicago", "address1": "1100 W Jackson Blvd", "address2": "", "address3": "", "state": "IL", "country": "US", "zip_code": "60607"}, "id": "anderson-pest-solutions-chicago-2", "categories": [{"alias": "pest_control", "title": "Pest Control"}]}]}
{"total": 247, "businesses": [{"rating": 3.5, "review_count": 3, "name": "Loves Plumbing & Sewer", "url": "https://www.yelp.com/biz/loves-plumbing-and-sewer-chicago?adjust_creative=4ANmej72Lq5uvu_h_d83AQ&utm_campaign=yelp_api_v3&utm_medium=api_v3_business_search&utm_source=4ANmej72Lq5uvu_h_d83AQ", "coordinates": {"latitude": 41.952614, "longitude": -87.762245}, "phone": "+17733700079", "image_url": "https://s3-media2.fl.yelpcdn.com/bphoto/29vgOJDy_NjqKU5IeN8Jng/o.jpg", "location": {"city": "Chicago", "country": "US", "address2": null, "address3": "", "state": "IL", "address1": "5400 W Dakin", "zip_code": "60641"}, "id": "loves-plumbing-and-sewer-chicago", "categories": [{"alias": "plumbing", "title": "Plumbing"}]}]}
{"total": 243, "businesses": [{"rating": 5.0, "review_count": 1, "name": "All New Season Heating-Air Conditioning-Boiler", "url": "https://www.yelp.com/biz/all-new-season-heating-air-conditioning-boiler-chicago-2?adjust_creative=4ANmej72Lq5uvu_h_d83AQ&utm_campaign=yelp_api_v3&utm_medium=api_v3_business_search&utm_source=4ANmej72Lq5uvu_h_d83AQ", "coordinates": {"latitude": 41.797699, "longitude": -87.736404}, "phone": "+17739862429", "image_url": "https://s3-media1.fl.yelpcdn.com/bphoto/0LKqXoUOmnZZDzT8vRbGew/o.jpg", "location": {"city": "Chicago", "country": "US", "address2": null, "address3": "", "state": "IL", "address1": "5229 S Kolmar Ave", "zip_code": "60632"}, "id": "all-new-season-heating-air-conditioning-boiler-chicago-2", "categories": [{"alias": "hvac", "title": "Heating & Air Conditioning/HVAC"}]}]}
{"total": 243, "businesses": [{"rating": 3.5, "review_count": 3, "name": "R.M. Concrete Specialist, Inc.", "url": "https://www.yelp.com/biz/r-m-concrete-specialist-inc-chicago?adjust_creative=4ANmej72Lq5uvu_h_d83AQ&utm_campaign=yelp_api_v3&utm_medium=api_v3_business_search&utm_source=4ANmej72Lq5uvu_h_d83AQ", "coordinates": {"latitude": 41.79731, "longitude": -87.76156}, "phone": "+17082679281", "image_url": "https://s3-media3.fl.yelpcdn.com/bphoto/pYDDIZGWqynoQ_fT4EKm0w/o.jpg", "location": {"city": "Chicago", "country": "US", "address2": "", "address3": "", "state": "IL", "address1": "5230 S Luna Ave", "zip_code": "60638"}, "id": "r-m-concrete-specialist-inc-chicago", "categories": [{"alias": "contractors", "title": "Contractors"}, {"alias": "masonry_concrete", "title": "Masonry/Concrete"}]}]}
{"total": 247, "businesses": [{"rating": 5.0, "review_count": 1, "name": "Anderson Pest Solutions", "url": "https://www.yelp.com/biz/anderson-pest-solutions-chicago-2?adjust_creative=4ANmej72Lq5uvu_h_d83AQ&utm_campaign=yelp_api_v3&utm_medium=api_v3_business_search&utm_source=4ANmej72Lq5uvu_h_d83AQ", "coordinates": {"latitude": 41.87807, "longitude": -87.65489}, "phone": "+16305813720", "image_url": "https://s3-media4.fl.yelpcdn.com/bphoto/shU1W3lEUxL1GcgbkKfXDw/o.jpg", "location": {"city": "Chicago", "address1": "1100 W Jackson Blvd", "address2": "", "address3": "", "state": "IL", "country": "US", "zip_code": "60607"}, "id": "anderson-pest-solutions-chicago-2", "categories": [{"alias": "pest_control", "title": "Pest Control"}]}]}
