{"total": 109, "businesses": [{"rating": 4.5, "review_count": 16, "name": "Tamago Coffee and Bikes", "url": "https://www.yelp.com/biz/tamago-coffee-and-bikes-chicago?adjust_creative=4ANmej72Lq5uvu_h_d83AQ&utm_campaign=yelp_api_v3&utm_medium=api_v3_business_search&utm_source=4ANmej72Lq5uvu_h_d83AQ", "price": "$", "coordinates": {"latitude": 41.7949799039052, "longitude": -87.5823506067873}, "phone": "+17738881225", "image_url": "https://s3-media2.fl.yelpcdn.com/bphoto/riqZSSTasJxVtyRUcbox5Q/o.jpg", "location": {"city": "Chicago", "country": "US", "address2": "", "address3": "", "state": "IL", "address1": "5501 S Everett Ave", "zip_code": "60637"}, "id": "tamago-coffee-and-bikes-chicago", "categories": [{"alias": "bike_repair_maintenance", "title": "Bike Repair/Maintenance"}, {"alias": "coffee", "title": "Coffee & Tea"}]}]}
{"total": 109, "businesses": [{"rating": 4.0, "review_count": 73, "name": "The Cove Lounge", "url": "https://www.yelp.com/biz/the-cove-lounge-chicago?adjust_creative=4ANmej72Lq5uvu_h_d83AQ&utm_campaign=yelp_api_v3&utm_medium=api_v3_business_search&utm_source=4ANmej72Lq5uvu_h_d83AQ", "price": "$", "coordinates": {"latitude": 41.7953727153673, "longitude": -87.5819230934846}, "phone": "+17736841013", "image_url": "https://s3-media1.fl.yelpcdn.com/bphoto/-G2beoyCbs_AOolyc-K8_g/o.jpg", "location": {"city": "Chicago", "country": "US", "address2": "", "address3": "", "state": "IL", "address1": "1750 E 55th St", "zip_code": "60615"}, "id": "the-cove-lounge-chicago", "categories": [{"alias": "divebars", "title": "Dive Bars"}]}]}
{"total": 109, "businesses": [{"rating": 3.5, "review_count": 86, "name": "Sip & Savor", "url": "https://www.yelp.com/biz/sip-and-savor-chicago?adjust_creative=4ANmej72Lq5uvu_h_d83AQ&utm_campaign=yelp_api_v3&utm_medium=api_v3_business_search&utm_source=4ANmej72Lq5uvu_h_d83AQ", "price": "$", "coordinates": {"latitude": 41.7995707246542, "longitude": -87.5838654833576}, "phone": "+17739524532", "image_url": "https://s3-media4.fl.yelpcdn.com/bphoto/-wXSQ82T6KoNMzr3Mwc7cg/o.jpg", "location": {"city": "Chicago", "country": "US", "address2": "", "address3": "", "state": "IL", "address1": "5301 S Hyde Park Blvd", "zip_code": "60615"}, "id": "sip-and-savor-chicago", "categories": [{"alias": "coffee", "title": "Coffee & Tea"}]}]}
{"total": 109, "businesses": [{"rating": 3.5, "review_count": 107, "name": "Seoul Corea", "url": "https://www.yelp.com/biz/seoul-corea-chicago?adjust_creative=4ANmej72Lq5uvu_h_d83AQ&utm_campaign=yelp_api_v3&utm_medium=api_v3_business_search&utm_source=4ANmej72Lq5uvu_h_d83AQ", "price": "$$", "coordinates": {"latitude": 41.795085935838, "longitude": -87.58648663737}, "phone": "+17732881795", "image_url": "https://s3-media4.fl.yelpcdn.com/bphoto/S2lrSDOxhJNfrWBqok6WmA/o.jpg", "location": {"city": "Chicago", "country": "US", "address2": null, "address3": "", "state": "IL", "address1": "1603 E 55th St", "zip_code": "60615"}, "id": "seoul-corea-chicago", "categories": [{"alias": "korean", "title": "Korean"}]}]}
{"total": 109, "businesses": [{"rating": 5.0, "review_count": 42, "name": "Peter McCarthy Electric", "url": "https://www.yelp.com/biz/peter-mccarthy-electric-chicago-3?adjust_creative=4ANmej72Lq5uvu_h_d83AQ&utm_campaign=yelp_api_v3&utm_medium=api_v3_business_search&utm_source=4ANmej72Lq5uvu_h_d83AQ", "coordinates": {"latitude": 41.799256, "longitude": -87.585114}, "phone": "+17738423649", "image_url": "https://s3-media1.fl.yelpcdn.com/bphoto/CudQXJY5AzPqckk9pnJ7FQ/o.jpg", "location": {"city": "Chicago", "country": "US", "address2": null, "address3": "", "state": "IL", "address1": "5307 S Cornell Ave", "zip_code": "60615"}, "id": "peter-mccarthy-electric-chicago-3", "categories": [{"alias": "electricians", "title": "Electricians"}]}]}
{"total": 109, "businesses": [{"rating": 3.5, "review_count": 77, "name": "Morry's Deli", "url": "https://www.yelp.com/biz/morrys-deli-chicago?adjust_creative=4ANmej72Lq5uvu_h_d83AQ&utm_campaign=yelp_api_v3&utm_medium=api_v3_business_search&utm_source=4ANmej72Lq5uvu_h_d83AQ", "price": "$", "coordinates": {"latitude": 41.795128015, "longitude": -87.585575608187}, "phone": "+17733633800", "image_url": "https://s3-media4.fl.yelpcdn.com/bphoto/b9EEBUM00mlkQRscDPPTyA/o.jpg", "location": {"city": "Chicago", "country": "US", "address2": "", "address3": "", "state": "IL", "address1": "5500 S Cornell Ave", "zip_code": "60637"}, "id": "morrys-deli-chicago", "categories": [{"alias": "delis", "title": "Delis"}, {"alias": "breakfast_brunch", "title": "Breakfast & Brunch"}, {"alias": "sandwiches", "title": "Sandwiches"}]}]}
{"total": 109, "businesses": [{"rating": 3.5, "review_count": 197, "name": "The Snail Thai Cuisine", "url": "https://www.yelp.com/biz/the-snail-thai-cuisine-chicago?adjust_creative=4ANmej72Lq5uvu_h_d83AQ&utm_campaign=yelp_api_v3&utm_medium=api_v3_business_search&utm_source=4ANmej72Lq5uvu_h_d83AQ", "price": "$$", "coordinates": {"latitude": 41.7951091813566, "longitude": -87.5847875008758}, "phone": "+17736675423", "image_url": "https://s3-media3.fl.yelpcdn.com/bphoto/LXK9e3zIJb18VE9Y_lbGwg/o.jpg", "location": {"city": "Chicago", "country": "US", "address2": "", "address3": "", "state": "IL", "address1": "1649 E 55th St", "zip_code": "60615"}, "id": "the-snail-thai-cuisine-chicago", "categories": [{"alias": "thai", "title": "Thai"}]}]}
{"total": 109, "businesses": [{"rating": 4.0, "review_count": 18, "name": "57th Street Beach", "url": "https://www.yelp.com/biz/57th-street-beach-chicago?adjust_creative=4ANmej72Lq5uvu_h_d83AQ&utm_campaign=yelp_api_v3&utm_medium=api_v3_business_search&utm_source=4ANmej72Lq5uvu_h_d83AQ", "coordinates": {"latitude": 41.7924, "longitude": -87.58034}, "phone": "", "image_url": "https://s3-media1.fl.yelpcdn.com/bphoto/HipVTL-Y3B0zzvm0oD8GUQ/o.jpg", "location": {"city": "Chicago", "country": "US", "address2": "", "address3": "", "state": "IL", "address1": "57th St and Lake Shore Dr", "zip_code": "60637"}, "id": "57th-street-beach-chicago", "categories": [{"alias": "parks", "title": "Parks"}, {"alias": "beaches", "title": "Beaches"}]}]}
{"total": 109, "businesses": [{"rating": 4.5, "review_count": 794, "name": "Museum of Science and Industry", "url": "https://www.yelp.com/biz/museum-of-science-and-industry-chicago-3?adjust_creative=4ANmej72Lq5uvu_h_d83AQ&utm_campaign=yelp_api_v3&utm_medium=api_v3_business_search&utm_source=4ANmej72Lq5uvu_h_d83AQ", "coordinates": {"latitude": 41.7906403, "longitude": -87.5797592}, "phone": "+17736841414", "image_url": "https://s3-media1.fl.yelpcdn.com/bphoto/cqLpdHrn4dgX4loA5UiDzA/o.jpg", "location": {"city": "Chicago", "country": "US", "address2": "", "address3": "", "state": "IL", "address1": "5700 S Lake Shore Dr", "zip_code": "60637"}, "id": "museum-of-science-and-industry-chicago-3", "categories": [{"alias": "museums", "title": "Museums"}]}]}
{"total": 109, "businesses": [{"rating": 3.5, "review_count": 94, "name": "Pho 55", "url": "https://www.yelp.com/biz/pho-55-chicago?adjust_creative=4ANmej72Lq5uvu_h_d83AQ&utm_campaign=yelp_api_v3&utm_medium=api_v3_business_search&utm_source=4ANmej72Lq5uvu_h_d83AQ", "price": "$$", "coordinates": {"latitude": 41.7950942223492, "longitude": -87.5861781024446}, "phone": "+17733631515", "image_url": "https://s3-media4.fl.yelpcdn.com/bphoto/7fpVU3WeAGeaN3XPTUYmxw/o.jpg", "location": {"city": "Chicago", "country": "US", "address2": null, "address3": null, "state": "IL", "address1": "1611 E 55th St", "zip_code": "60615"}, "id": "pho-55-chicago", "categories": [{"alias": "vietnamese", "title": "Vietnamese"}]}]}
{"total": 109, "businesses": [{"rating": 3.5, "review_count": 36, "name": "Falcon Inn", "url": "https://www.yelp.com/biz/falcon-inn-chicago?adjust_creative=4ANmej72Lq5uvu_h_d83AQ&utm_campaign=yelp_api_v3&utm_medium=api_v3_business_search&utm_source=4ANmej72Lq5uvu_h_d83AQ", "price": "$", "coordinates": {"latitude": 41.7992324829102, "longitude": -87.5862274169922}, "phone": "", "image_url": "https://s3-media3.fl.yelpcdn.com/bphoto/lgJVLak9iQs26YcbSAukQw/o.jpg", "location": {"city": "Chicago", "country": "US", "address2": "", "address3": "", "state": "IL", "address1": "1601 E 53rd St", "zip_code": "60615"}, "id": "falcon-inn-chicago", "categories": [{"alias": "divebars", "title": "Dive Bars"}]}]}
{"total": 109, "businesses": [{"rating": 3.5, "review_count": 85, "name": "Kikuya Japanese Restaurant", "url": "https://www.yelp.com/biz/kikuya-japanese-restaurant-chicago?adjust_creative=4ANmej72Lq5uvu_h_d83AQ&utm_campaign=yelp_api_v3&utm_medium=api_v3_business_search&utm_source=4ANmej72Lq5uvu_h_d83AQ", "price": "$$", "coordinates": {"latitude": 41.795104018948, "longitude": -87.586589483148}, "phone": "+17736673727", "image_url": "https://s3-media1.fl.yelpcdn.com/bphoto/xsNVvLCgZWKE43sDDX1XOg/o.jpg", "location": {"city": "Chicago", "country": "US", "address2": "", "address3": "", "state": "IL", "address1": "1601 E 55th St", "zip_code": "60615"}, "id": "kikuya-japanese-restaurant-chicago", "categories": [{"alias": "japanese", "title": "Japanese"}]}]}
{"total": 109, "businesses": [{"rating": 3.5, "review_count": 115, "name": "Piccolo Mondo", "url": "https://www.yelp.com/biz/piccolo-mondo-chicago?adjust_creative=4ANmej72Lq5uvu_h_d83AQ&utm_campaign=yelp_api_v3&utm_medium=api_v3_business_search&utm_source=4ANmej72Lq5uvu_h_d83AQ", "price": "$$", "coordinates": {"latitude": 41.7935249, "longitude": -87.5846317}, "phone": "+17736431106", "image_url": "https://s3-media2.fl.yelpcdn.com/bphoto/m2ync0tMXvqt1LqnSrhEXg/o.jpg", "location": {"city": "Chicago", "address1": "1642 E 56th St", "address2": "", "address3": "", "state": "IL", "country": "US", "zip_code": "60637"}, "id": "piccolo-mondo-chicago", "categories": [{"alias": "italian", "title": "Italian"}]}]}
{"total": 109, "businesses": [{"rating": 4.5, "review_count": 57, "name": "Open Produce", "url": "https://www.yelp.com/biz/open-produce-chicago?adjust_creative=4ANmej72Lq5uvu_h_d83AQ&utm_campaign=yelp_api_v3&utm_medium=api_v3_business_search&utm_source=4ANmej72Lq5uvu_h_d83AQ", "price": "$$", "coordinates": {"latitude": 41.795137228657, "longitude": -87.585112572048}, "phone": "+17734964327", "image_url": "https://s3-media1.fl.yelpcdn.com/bphoto/chUiElSrW6vxIn8tJ8f_Zw/o.jpg", "location": {"city": "Chicago", "address1": "1635 E 55th St", "address2": "", "address3": "", "state": "IL", "country": "US", "zip_code": "60615"}, "id": "open-produce-chicago", "categories": [{"alias": "grocery", "title": "Grocery"}, {"alias": "markets", "title": "Fruits & Veggies"}]}]}
{"total": 109, "businesses": [{"rating": 5.0, "review_count": 32, "name": "First Aid Comics", "url": "https://www.yelp.com/biz/first-aid-comics-chicago?adjust_creative=4ANmej72Lq5uvu_h_d83AQ&utm_campaign=yelp_api_v3&utm_medium=api_v3_business_search&utm_source=4ANmej72Lq5uvu_h_d83AQ", "price": "$", "coordinates": {"latitude": 41.7950651, "longitude": -87.5856129}, "phone": "+17737526642", "image_url": "https://s3-media1.fl.yelpcdn.com/bphoto/USHNLRzDzHYFFVcVXztbZw/o.jpg", "location": {"city": "Chicago", "country": "US", "address2": "", "address3": "", "state": "IL", "address1": "1617 E 55th St", "zip_code": "60615"}, "id": "first-aid-comics-chicago", "categories": [{"alias": "comicbooks", "title": "Comic Books"}]}]}
{"total": 109, "businesses": [{"rating": 3.0, "review_count": 110, "name": "Siam Restaurant", "url": "https://www.yelp.com/biz/siam-restaurant-chicago-2?adjust_creative=4ANmej72Lq5uvu_h_d83AQ&utm_campaign=yelp_api_v3&utm_medium=api_v3_business_search&utm_source=4ANmej72Lq5uvu_h_d83AQ", "price": "$", "coordinates": {"latitude": 41.795121, "longitude": -87.585031}, "phone": "+17733249296", "image_url": "https://s3-media4.fl.yelpcdn.com/bphoto/uSMPGd8OU1o8YJZ_fBNVuw/o.jpg", "location": {"city": "Chicago", "country": "US", "address2": "", "address3": "", "state": "IL", "address1": "1639 E 55th St", "zip_code": "60615"}, "id": "siam-restaurant-chicago-2", "categories": [{"alias": "thai", "title": "Thai"}]}]}
{"total": 109, "businesses": [{"rating": 4.5, "review_count": 62, "name": "Jackson Bark", "url": "https://www.yelp.com/biz/jackson-bark-chicago-2?adjust_creative=4ANmej72Lq5uvu_h_d83AQ&utm_campaign=yelp_api_v3&utm_medium=api_v3_business_search&utm_source=4ANmej72Lq5uvu_h_d83AQ", "coordinates": {"latitude": 41.786434, "longitude": -87.578638}, "phone": "+17732721307", "image_url": "https://s3-media1.fl.yelpcdn.com/bphoto/2P-BMt1HVZll0TN9mI9cBg/o.jpg", "location": {"city": "Chicago", "country": "US", "address2": "", "address3": "", "state": "IL", "address1": "5800 S Lake Shore Dr", "zip_code": "60637"}, "id": "jackson-bark-chicago-2", "categories": [{"alias": "dog_parks", "title": "Dog Parks"}]}]}
{"total": 109, "businesses": [{"rating": 4.5, "review_count": 34, "name": "Cornell Florist", "url": "https://www.yelp.com/biz/cornell-florist-chicago?adjust_creative=4ANmej72Lq5uvu_h_d83AQ&utm_campaign=yelp_api_v3&utm_medium=api_v3_business_search&utm_source=4ANmej72Lq5uvu_h_d83AQ", "price": "$$", "coordinates": {"latitude": 41.7951387, "longitude": -87.5848468}, "phone": "+17733241651", "image_url": "https://s3-media4.fl.yelpcdn.com/bphoto/7aqSqb5hENHXDaeQhLiwiQ/o.jpg", "location": {"city": "Chicago", "country": "US", "address2": "", "address3": "", "state": "IL", "address1": "1645 E 55th St", "zip_code": "60615"}, "id": "cornell-florist-chicago", "categories": [{"alias": "florists", "title": "Florists"}, {"alias": "gardening", "title": "Nurseries & Gardening"}]}]}
{"total": 109, "businesses": [{"rating": 3.0, "review_count": 160, "name": "Thai 55th Restaurant", "url": "https://www.yelp.com/biz/thai-55th-restaurant-chicago-2?adjust_creative=4ANmej72Lq5uvu_h_d83AQ&utm_campaign=yelp_api_v3&utm_medium=api_v3_business_search&utm_source=4ANmej72Lq5uvu_h_d83AQ", "price": "$", "coordinates": {"latitude": 41.7950651, "longitude": -87.5857276}, "phone": "+17733637119", "image_url": "https://s3-media1.fl.yelpcdn.com/bphoto/KcJ13dFESsox75RtULC51Q/o.jpg", "location": {"city": "Chicago", "country": "US", "address2": null, "address3": "", "state": "IL", "address1": "1607 E 55th St", "zip_code": "60615"}, "id": "thai-55th-restaurant-chicago-2", "categories": [{"alias": "thai", "title": "Thai"}]}]}
{"total": 109, "businesses": [{"rating": 4.5, "review_count": 24, "name": "The Bakery at Piccolo Mondo", "url": "https://www.yelp.com/biz/the-bakery-at-piccolo-mondo-chicago?adjust_creative=4ANmej72Lq5uvu_h_d83AQ&utm_campaign=yelp_api_v3&utm_medium=api_v3_business_search&utm_source=4ANmej72Lq5uvu_h_d83AQ", "price": "$$", "coordinates": {"latitude": 41.793440580368, "longitude": -87.5846325606108}, "phone": "+17736431106", "image_url": "https://s3-media3.fl.yelpcdn.com/bphoto/_iKKVq_MkW8tqW2lJfAqqw/o.jpg", "location": {"city": "Chicago", "address1": "1642 E 56th St", "address2": null, "address3": "", "state": "IL", "country": "US", "zip_code": "60637"}, "id": "the-bakery-at-piccolo-mondo-chicago", "categories": [{"alias": "bakeries", "title": "Bakeries"}, {"alias": "desserts", "title": "Desserts"}]}]}
{"total": 109, "businesses": [{"rating": 3.5, "review_count": 55, "name": "Cholie's Pizza", "url": "https://www.yelp.com/biz/cholies-pizza-chicago-3?adjust_creative=4ANmej72Lq5uvu_h_d83AQ&utm_campaign=yelp_api_v3&utm_medium=api_v3_business_search&utm_source=4ANmej72Lq5uvu_h_d83AQ", "price": "$", "coordinates": {"latitude": 41.7994157741206, "longitude": -87.5863657915256}, "phone": "+17736848688", "image_url": "https://s3-media2.fl.yelpcdn.com/bphoto/rlWyOQJNxE29dFbz4FMeyA/o.jpg", "location": {"city": "Chicago", "country": "US", "address2": "", "address3": "", "state": "IL", "address1": "1601 E 53rd St", "zip_code": "60615"}, "id": "cholies-pizza-chicago-3", "categories": [{"alias": "pizza", "title": "Pizza"}]}]}
{"total": 109, "businesses": [{"rating": 3.0, "review_count": 80, "name": "Mikkey's Retro Grill", "url": "https://www.yelp.com/biz/mikkeys-retro-grill-chicago?adjust_creative=4ANmej72Lq5uvu_h_d83AQ&utm_campaign=yelp_api_v3&utm_medium=api_v3_business_search&utm_source=4ANmej72Lq5uvu_h_d83AQ", "price": "$$", "coordinates": {"latitude": 41.7991568485298, "longitude": -87.5838662223336}, "phone": "+17736758525", "image_url": "https://s3-media3.fl.yelpcdn.com/bphoto/M-WGiPy1bw78e_B7dpofGg/o.jpg", "location": {"city": "Chicago", "country": "US", "address2": "", "address3": "", "state": "IL", "address1": "5319 S. Hyde Park Boulevard", "zip_code": "60615"}, "id": "mikkeys-retro-grill-chicago", "categories": [{"alias": "burgers", "title": "Burgers"}, {"alias": "breakfast_brunch", "title": "Breakfast & Brunch"}, {"alias": "tradamerican", "title": "American (Traditional)"}]}]}
{"total": 109, "businesses": [{"rating": 5.0, "review_count": 12, "name": "Security Shop", "url": "https://www.yelp.com/biz/security-shop-chicago-3?adjust_creative=4ANmej72Lq5uvu_h_d83AQ&utm_campaign=yelp_api_v3&utm_medium=api_v3_business_search&utm_source=4ANmej72Lq5uvu_h_d83AQ", "coordinates": {"latitude": 41.7950651, "longitude": -87.5857505}, "phone": "+17735256705", "image_url": "", "location": {"city": "Chicago", "country": "US", "address2": null, "address3": null, "state": "IL", "address1": "1605 E 55th St", "zip_code": "60615"}, "id": "security-shop-chicago-3", "categories": [{"alias": "locksmiths", "title": "Keys & Locksmiths"}]}]}
{"total": 109, "businesses": [{"rating": 4.0, "review_count": 32, "name": "Osaka Garden", "url": "https://www.yelp.com/biz/osaka-garden-chicago?adjust_creative=4ANmej72Lq5uvu_h_d83AQ&utm_campaign=yelp_api_v3&utm_medium=api_v3_business_search&utm_source=4ANmej72Lq5uvu_h_d83AQ", "coordinates": {"latitude": 41.786542825414, "longitude": -87.582903839963}, "phone": "", "image_url": "https://s3-media4.fl.yelpcdn.com/bphoto/4RzzujCxy7pSyDT9jmmrnw/o.jpg", "location": {"city": "Chicago", "country": "US", "address2": "", "address3": "", "state": "IL", "address1": "5800 S Lake Shore Dr", "zip_code": "60637"}, "id": "osaka-garden-chicago", "categories": [{"alias": "parks", "title": "Parks"}]}]}
{"total": 109, "businesses": [{"rating": 4.5, "review_count": 28, "name": "Rainbow Cleaners", "url": "https://www.yelp.com/biz/rainbow-cleaners-chicago-3?adjust_creative=4ANmej72Lq5uvu_h_d83AQ&utm_campaign=yelp_api_v3&utm_medium=api_v3_business_search&utm_source=4ANmej72Lq5uvu_h_d83AQ", "price": "$$$", "coordinates": {"latitude": 41.7997064090327, "longitude": -87.5846276637298}, "phone": "+17732881207", "image_url": "", "location": {"city": "Chicago", "country": "US", "address2": "", "address3": "", "state": "IL", "address1": "1648 E 53rd St", "zip_code": "60615"}, "id": "rainbow-cleaners-chicago-3", "categories": [{"alias": "drycleaninglaundry", "title": "Dry Cleaning & Laundry"}]}]}
{"total": 109, "businesses": [{"rating": 4.0, "review_count": 38, "name": "Jasmin Waxing & Spa", "url": "https://www.yelp.com/biz/jasmin-waxing-and-spa-chicago?adjust_creative=4ANmej72Lq5uvu_h_d83AQ&utm_campaign=yelp_api_v3&utm_medium=api_v3_business_search&utm_source=4ANmej72Lq5uvu_h_d83AQ", "price": "$$", "coordinates": {"latitude": 41.7951712757349, "longitude": -87.5849463790655}, "phone": "+17737045990", "image_url": "https://s3-media1.fl.yelpcdn.com/bphoto/1hxskzX0i_jHMvUbLz-SUA/o.jpg", "location": {"city": "Chicago", "country": "US", "address2": "", "address3": "", "state": "IL", "address1": "1639 E 55th St", "zip_code": "60615"}, "id": "jasmin-waxing-and-spa-chicago", "categories": [{"alias": "waxing", "title": "Waxing"}, {"alias": "threadingservices", "title": "Threading Services"}, {"alias": "othersalons", "title": "Nail Salons"}]}]}
{"total": 109, "businesses": [{"rating": 3.5, "review_count": 12, "name": "The Brain Food Court", "url": "https://www.yelp.com/biz/the-brain-food-court-chicago?adjust_creative=4ANmej72Lq5uvu_h_d83AQ&utm_campaign=yelp_api_v3&utm_medium=api_v3_business_search&utm_source=4ANmej72Lq5uvu_h_d83AQ", "price": "$$", "coordinates": {"latitude": 41.7906338, "longitude": -87.579754}, "phone": "+17736841414", "image_url": "https://s3-media1.fl.yelpcdn.com/bphoto/VBlZ2KVH5rg1bC-5LvcOmA/o.jpg", "location": {"city": "Chicago", "country": "US", "address2": "5700 S Lake Shore Dr", "address3": "", "state": "IL", "address1": "Museum of Science & Industry", "zip_code": "60637"}, "id": "the-brain-food-court-chicago", "categories": [{"alias": "tradamerican", "title": "American (Traditional)"}]}]}
{"total": 109, "businesses": [{"rating": 5.0, "review_count": 8, "name": "Cornell's Dollar Plus", "url": "https://www.yelp.com/biz/cornells-dollar-plus-chicago-2?adjust_creative=4ANmej72Lq5uvu_h_d83AQ&utm_campaign=yelp_api_v3&utm_medium=api_v3_business_search&utm_source=4ANmej72Lq5uvu_h_d83AQ", "price": "$", "coordinates": {"latitude": 41.7950878, "longitude": -87.585236}, "phone": "+17732417410", "image_url": "https://s3-media4.fl.yelpcdn.com/bphoto/V59qvV2qO-EjaTRkqF4RAA/o.jpg", "location": {"city": "Chicago", "address1": "1631 E 55th St", "address2": "", "address3": "", "state": "IL", "country": "US", "zip_code": "60615"}, "id": "cornells-dollar-plus-chicago-2", "categories": [{"alias": "wholesale_stores", "title": "Wholesale Stores"}]}]}
{"total": 109, "businesses": [{"rating": 4.5, "review_count": 5, "name": "Lifestyle Chiropractic PC", "url": "https://www.yelp.com/biz/lifestyle-chiropractic-pc-chicago-2?adjust_creative=4ANmej72Lq5uvu_h_d83AQ&utm_campaign=yelp_api_v3&utm_medium=api_v3_business_search&utm_source=4ANmej72Lq5uvu_h_d83AQ", "coordinates": {"latitude": 41.7952845990658, "longitude": -87.582196444273}, "phone": "+17736679053", "image_url": "https://s3-media1.fl.yelpcdn.com/bphoto/rdB7h1irbiGGcNC14YGANQ/o.jpg", "location": {"city": "Chicago", "address1": "1746 E 55th St", "address2": "", "address3": "", "state": "IL", "country": "US", "zip_code": "60615"}, "id": "lifestyle-chiropractic-pc-chicago-2", "categories": [{"alias": "chiropractors", "title": "Chiropractors"}, {"alias": "acupuncture", "title": "Acupuncture"}]}]}
{"total": 109, "businesses": [{"rating": 4.0, "review_count": 17, "name": "Advance Cleaners", "url": "https://www.yelp.com/biz/advance-cleaners-chicago?adjust_creative=4ANmej72Lq5uvu_h_d83AQ&utm_campaign=yelp_api_v3&utm_medium=api_v3_business_search&utm_source=4ANmej72Lq5uvu_h_d83AQ", "price": "$$$$", "coordinates": {"latitude": 41.7950852, "longitude": -87.5823218}, "phone": "+17736432222", "image_url": "https://s3-media4.fl.yelpcdn.com/bphoto/0ldTF-RruyFRlbTsfLAqYA/o.jpg", "location": {"city": "Chicago", "country": "US", "address2": "", "address3": "", "state": "IL", "address1": "1751 E 55th St", "zip_code": "60615"}, "id": "advance-cleaners-chicago", "categories": [{"alias": "drycleaninglaundry", "title": "Dry Cleaning & Laundry"}]}]}
{"total": 109, "businesses": [{"rating": 4.0, "review_count": 17, "name": "63rd St Beach", "url": "https://www.yelp.com/biz/63rd-st-beach-chicago?adjust_creative=4ANmej72Lq5uvu_h_d83AQ&utm_campaign=yelp_api_v3&utm_medium=api_v3_business_search&utm_source=4ANmej72Lq5uvu_h_d83AQ", "coordinates": {"latitude": 41.7818453187145, "longitude": -87.5734619272216}, "phone": "+17733632225", "image_url": "https://s3-media3.fl.yelpcdn.com/bphoto/Y0mP8fAN-q_eLgeZAIdf9w/o.jpg", "location": {"city": "Chicago", "country": "US", "address2": "", "address3": "", "state": "IL", "address1": "6300 S Lake Shore Dr", "zip_code": "60686"}, "id": "63rd-st-beach-chicago", "categories": [{"alias": "beaches", "title": "Beaches"}]}]}
{"total": 109, "businesses": [{"rating": 5.0, "review_count": 10, "name": "The Spotlight", "url": "https://www.yelp.com/biz/the-spotlight-chicago-2?adjust_creative=4ANmej72Lq5uvu_h_d83AQ&utm_campaign=yelp_api_v3&utm_medium=api_v3_business_search&utm_source=4ANmej72Lq5uvu_h_d83AQ", "coordinates": {"latitude": 41.7997428883441, "longitude": -87.5845201977004}, "phone": "+13129330351", "image_url": "https://s3-media2.fl.yelpcdn.com/bphoto/5Wqn86UpS79zK9AofTmXEw/o.jpg", "location": {"city": "Chicago", "country": "US", "address2": null, "address3": "", "state": "IL", "address1": "1648 E 53rd St", "zip_code": "60615"}, "id": "the-spotlight-chicago-2", "categories": [{"alias": "barbers", "title": "Barbers"}]}]}
{"total": 109, "businesses": [{"rating": 5.0, "review_count": 9, "name": "Danceytude", "url": "https://www.yelp.com/biz/danceytude-chicago?adjust_creative=4ANmej72Lq5uvu_h_d83AQ&utm_campaign=yelp_api_v3&utm_medium=api_v3_business_search&utm_source=4ANmej72Lq5uvu_h_d83AQ", "coordinates": {"latitude": 41.7994483242301, "longitude": -87.5838059919129}, "image_url": "https://s3-media3.fl.yelpcdn.com/bphoto/Q2EIrmlhlDnTGqhfVFxuUA/o.jpg", "location": {"city": "Chicago", "country": "US", "address2": null, "address3": "", "state": "IL", "address1": null, "zip_code": "60615"}, "id": "danceytude-chicago", "categories": [{"alias": "fitness", "title": "Fitness & Instruction"}]}]}
{"total": 109, "businesses": [{"rating": 4.0, "review_count": 34, "name": "Village Eyecare - Hyde Park", "url": "https://www.yelp.com/biz/village-eyecare-hyde-park-chicago?adjust_creative=4ANmej72Lq5uvu_h_d83AQ&utm_campaign=yelp_api_v3&utm_medium=api_v3_business_search&utm_source=4ANmej72Lq5uvu_h_d83AQ", "price": "$$", "coordinates": {"latitude": 41.7950668, "longitude": -87.5851898}, "phone": "+17733630202", "image_url": "https://s3-media1.fl.yelpcdn.com/bphoto/KplR0Pmw-z5hj3wEJedXew/o.jpg", "location": {"city": "Chicago", "country": "US", "address2": "", "address3": "", "state": "IL", "address1": "1621 E 55th St", "zip_code": "60615"}, "id": "village-eyecare-hyde-park-chicago", "categories": [{"alias": "opticians", "title": "Eyewear & Opticians"}, {"alias": "optometrists", "title": "Optometrists"}]}]}
{"total": 109, "businesses": [{"rating": 4.5, "review_count": 8, "name": "Windermere House", "url": "https://www.yelp.com/biz/windermere-house-chicago?adjust_creative=4ANmej72Lq5uvu_h_d83AQ&utm_campaign=yelp_api_v3&utm_medium=api_v3_business_search&utm_source=4ANmej72Lq5uvu_h_d83AQ", "coordinates": {"latitude": 41.7934129, "longitude": -87.5845609}, "phone": "+17736431500", "image_url": "https://s3-media4.fl.yelpcdn.com/bphoto/2TRjGC8O9NTqknU6v0Tc3A/o.jpg", "location": {"city": "Chicago", "country": "US", "address2": null, "address3": null, "state": "IL", "address1": "1642 E 56th St", "zip_code": "60637"}, "id": "windermere-house-chicago", "categories": [{"alias": "apartments", "title": "Apartments"}]}]}
{"total": 109, "businesses": [{"rating": 4.5, "review_count": 6, "name": "Parent Cooperative For Early Learning", "url": "https://www.yelp.com/biz/parent-cooperative-for-early-learning-chicago?adjust_creative=4ANmej72Lq5uvu_h_d83AQ&utm_campaign=yelp_api_v3&utm_medium=api_v3_business_search&utm_source=4ANmej72Lq5uvu_h_d83AQ", "coordinates": {"latitude": 41.7993779, "longitude": -87.5829449}, "phone": "+17736846363", "image_url": "https://s3-media3.fl.yelpcdn.com/bphoto/SfKXEU80pqAPdQ6AFk8Q4Q/o.jpg", "location": {"city": "Chicago", "country": "US", "address2": "", "address3": "", "state": "IL", "address1": "5300 S Shore Dr", "zip_code": "60615"}, "id": "parent-cooperative-for-early-learning-chicago", "categories": [{"alias": "childcare", "title": "Child Care & Day Care"}, {"alias": "preschools", "title": "Preschools"}, {"alias": "elementaryschools", "title": "Elementary Schools"}]}]}
{"total": 109, "businesses": [{"rating": 3.5, "review_count": 13, "name": "Cornell Shoe Service", "url": "https://www.yelp.com/biz/cornell-shoe-service-chicago?adjust_creative=4ANmej72Lq5uvu_h_d83AQ&utm_campaign=yelp_api_v3&utm_medium=api_v3_business_search&utm_source=4ANmej72Lq5uvu_h_d83AQ", "coordinates": {"latitude": 41.799416, "longitude": -87.58611}, "phone": "+17733243813", "image_url": "https://s3-media1.fl.yelpcdn.com/bphoto/gamgXuIBeScDGVQY_cQ34A/o.jpg", "location": {"city": "Chicago", "address1": "1613 E 53rd St", "address2": "", "address3": "", "state": "IL", "country": "US", "zip_code": "60615"}, "id": "cornell-shoe-service-chicago", "categories": [{"alias": "shoerepair", "title": "Shoe Repair"}]}]}
{"total": 109, "businesses": [{"rating": 5.0, "review_count": 3, "name": "The Hair Coach", "url": "https://www.yelp.com/biz/the-hair-coach-chicago-2?adjust_creative=4ANmej72Lq5uvu_h_d83AQ&utm_campaign=yelp_api_v3&utm_medium=api_v3_business_search&utm_source=4ANmej72Lq5uvu_h_d83AQ", "coordinates": {"latitude": 41.7947365100589, "longitude": -87.5830520629883}, "phone": "+13129537460", "image_url": "https://s3-media1.fl.yelpcdn.com/bphoto/PLc6Ule6hHX-DugeE4OXww/o.jpg", "location": {"city": "Chicago", "address1": "1713 1/2 E 55th St", "address2": "Lower Level", "address3": "", "state": "IL", "country": "US", "zip_code": "60615"}, "id": "the-hair-coach-chicago-2", "categories": [{"alias": "hairstylists", "title": "Hair Stylists"}, {"alias": "hair_extensions", "title": "Hair Extensions"}]}]}
{"total": 109, "businesses": [{"rating": 2.0, "review_count": 155, "name": "Bar Louie", "url": "https://www.yelp.com/biz/bar-louie-chicago-14?adjust_creative=4ANmej72Lq5uvu_h_d83AQ&utm_campaign=yelp_api_v3&utm_medium=api_v3_business_search&utm_source=4ANmej72Lq5uvu_h_d83AQ", "price": "$$", "coordinates": {"latitude": 41.794864, "longitude": -87.580703}, "phone": "+17733635300", "image_url": "https://s3-media4.fl.yelpcdn.com/bphoto/Mh8YLkVHli02yOF9iElCIA/o.jpg", "location": {"city": "Chicago", "country": "US", "address2": "", "address3": "", "state": "IL", "address1": "5500 S Shore Dr", "zip_code": "60637"}, "id": "bar-louie-chicago-14", "categories": [{"alias": "bars", "title": "Bars"}, {"alias": "newamerican", "title": "American (New)"}]}]}
{"total": 109, "businesses": [{"rating": 4.0, "review_count": 9, "name": "Everett Cleaners", "url": "https://www.yelp.com/biz/everett-cleaners-chicago?adjust_creative=4ANmej72Lq5uvu_h_d83AQ&utm_campaign=yelp_api_v3&utm_medium=api_v3_business_search&utm_source=4ANmej72Lq5uvu_h_d83AQ", "price": "$$$", "coordinates": {"latitude": 41.79508, "longitude": -87.5835199}, "phone": "+17732888614", "image_url": "https://s3-media3.fl.yelpcdn.com/bphoto/KckKsfG-mt8Tji66E3tUDQ/o.jpg", "location": {"city": "Chicago", "address1": "5501 S Hyde Park Blvd", "address2": "", "address3": "", "state": "IL", "country": "US", "zip_code": "60637"}, "id": "everett-cleaners-chicago", "categories": [{"alias": "drycleaninglaundry", "title": "Dry Cleaning & Laundry"}]}]}
{"total": 109, "businesses": [{"rating": 3.5, "review_count": 21, "name": "Tamer Hair Salon", "url": "https://www.yelp.com/biz/tamer-hair-salon-chicago?adjust_creative=4ANmej72Lq5uvu_h_d83AQ&utm_campaign=yelp_api_v3&utm_medium=api_v3_business_search&utm_source=4ANmej72Lq5uvu_h_d83AQ", "price": "$$", "coordinates": {"latitude": 41.7950916136544, "longitude": -87.5858153447489}, "phone": "+17732561111", "image_url": "https://s3-media4.fl.yelpcdn.com/bphoto/TvlfMRvunqrfQsYa5oIuPg/o.jpg", "location": {"city": "Chicago", "country": "US", "address2": "", "address3": "", "state": "IL", "address1": "1619 E 55th St", "zip_code": "60615"}, "id": "tamer-hair-salon-chicago", "categories": [{"alias": "hair", "title": "Hair Salons"}, {"alias": "hairremoval", "title": "Hair Removal"}]}]}
{"total": 109, "businesses": [{"rating": 5.0, "review_count": 6, "name": "Christine Otte Photography", "url": "https://www.yelp.com/biz/christine-otte-photography-chicago?adjust_creative=4ANmej72Lq5uvu_h_d83AQ&utm_campaign=yelp_api_v3&utm_medium=api_v3_business_search&utm_source=4ANmej72Lq5uvu_h_d83AQ", "coordinates": {"latitude": 41.791206, "longitude": -87.587151}, "phone": "+18594621733", "image_url": "https://s3-media3.fl.yelpcdn.com/bphoto/iWeHuyaCIisAncaL8x-75w/o.jpg", "location": {"city": "Chicago", "country": "US", "address2": "#3E", "address3": "", "state": "IL", "address1": "5700 S. Stony Island Ave.", "zip_code": "60637"}, "id": "christine-otte-photography-chicago", "categories": [{"alias": "photographers", "title": "Photographers"}]}]}
{"total": 109, "businesses": [{"rating": 5.0, "review_count": 3, "name": "Frank Cooper - State Farm Insurance Agent", "url": "https://www.yelp.com/biz/frank-cooper-state-farm-insurance-agent-chicago?adjust_creative=4ANmej72Lq5uvu_h_d83AQ&utm_campaign=yelp_api_v3&utm_medium=api_v3_business_search&utm_source=4ANmej72Lq5uvu_h_d83AQ", "coordinates": {"latitude": 41.79925, "longitude": -87.58364}, "phone": "+17735385758", "image_url": "https://s3-media2.fl.yelpcdn.com/bphoto/ESnAvPr628MZ7OXa53nm5A/o.jpg", "location": {"city": "Chicago", "country": "US", "address2": "Ste 101", "address3": "", "state": "IL", "address1": "5307 S Hyde Park Blvd", "zip_code": "60615"}, "id": "frank-cooper-state-farm-insurance-agent-chicago", "categories": [{"alias": "insurance", "title": "Insurance"}]}]}
{"total": 109, "businesses": [{"rating": 5.0, "review_count": 7, "name": "Cornell Dry Cleaners", "url": "https://www.yelp.com/biz/cornell-dry-cleaners-chicago?adjust_creative=4ANmej72Lq5uvu_h_d83AQ&utm_campaign=yelp_api_v3&utm_medium=api_v3_business_search&utm_source=4ANmej72Lq5uvu_h_d83AQ", "price": "$", "coordinates": {"latitude": 41.7995365709066, "longitude": -87.5859461724758}, "phone": "+17732884300", "image_url": "https://s3-media3.fl.yelpcdn.com/bphoto/gDsrwHpwJOZ0H6_OQmHlwQ/o.jpg", "location": {"city": "Chicago", "country": "US", "address2": "", "address3": "", "state": "IL", "address1": "1609 E 53rd St", "zip_code": "60615"}, "id": "cornell-dry-cleaners-chicago", "categories": [{"alias": "drycleaninglaundry", "title": "Dry Cleaning & Laundry"}, {"alias": "sewingalterations", "title": "Sewing & Alterations"}]}]}
{"total": 109, "businesses": [{"rating": 5.0, "review_count": 4, "name": "Body By Nature Fitness Training", "url": "https://www.yelp.com/biz/body-by-nature-fitness-training-chicago?adjust_creative=4ANmej72Lq5uvu_h_d83AQ&utm_campaign=yelp_api_v3&utm_medium=api_v3_business_search&utm_source=4ANmej72Lq5uvu_h_d83AQ", "coordinates": {"latitude": 41.7993491069685, "longitude": -87.5839478038166}, "phone": "+17734280994", "image_url": "https://s3-media1.fl.yelpcdn.com/bphoto/1U4zbUuXyaCK11_VrsOizw/o.jpg", "location": {"city": "Chicago", "country": "US", "address2": "Ste 104", "address3": "", "state": "IL", "address1": "5307 S Hyde Park Blvd", "zip_code": "60615"}, "id": "body-by-nature-fitness-training-chicago", "categories": [{"alias": "healthtrainers", "title": "Trainers"}]}]}
{"total": 109, "businesses": [{"rating": 4.5, "review_count": 3, "name": "Hyde Park Mini Mart", "url": "https://www.yelp.com/biz/hyde-park-mini-mart-chicago?adjust_creative=4ANmej72Lq5uvu_h_d83AQ&utm_campaign=yelp_api_v3&utm_medium=api_v3_business_search&utm_source=4ANmej72Lq5uvu_h_d83AQ", "price": "$$", "coordinates": {"latitude": 41.7994703, "longitude": -87.5838486}, "phone": "+17736848114", "image_url": "", "location": {"city": "Chicago", "country": "US", "address2": "", "address3": "", "state": "IL", "address1": "5301 S Hyde Park Blvd", "zip_code": "60615"}, "id": "hyde-park-mini-mart-chicago", "categories": [{"alias": "convenience", "title": "Convenience Stores"}]}]}
{"total": 109, "businesses": [{"rating": 2.5, "review_count": 37, "name": "Manus Dental Hyde Park", "url": "https://www.yelp.com/biz/manus-dental-hyde-park-chicago?adjust_creative=4ANmej72Lq5uvu_h_d83AQ&utm_campaign=yelp_api_v3&utm_medium=api_v3_business_search&utm_source=4ANmej72Lq5uvu_h_d83AQ", "coordinates": {"latitude": 41.7953549, "longitude": -87.5846199}, "phone": "+17737526600", "image_url": "https://s3-media1.fl.yelpcdn.com/bphoto/3Z_cywOTyH4xWH4wm9gigw/o.jpg", "location": {"city": "Chicago", "country": "US", "address2": "", "address3": "", "state": "IL", "address1": "1646 E 55th St", "zip_code": "60615"}, "id": "manus-dental-hyde-park-chicago", "categories": [{"alias": "generaldentistry", "title": "General Dentistry"}]}]}
{"total": 109, "businesses": [{"rating": 3.0, "review_count": 26, "name": "Del Prado Apartments", "url": "https://www.yelp.com/biz/del-prado-apartments-chicago?adjust_creative=4ANmej72Lq5uvu_h_d83AQ&utm_campaign=yelp_api_v3&utm_medium=api_v3_business_search&utm_source=4ANmej72Lq5uvu_h_d83AQ", "coordinates": {"latitude": 41.799251, "longitude": -87.583647}, "phone": "+17732563280", "image_url": "https://s3-media3.fl.yelpcdn.com/bphoto/IIhtd7AP6OzouNU8m8weQQ/o.jpg", "location": {"city": "Chicago", "address1": "5307 S Hyde Park Blvd", "address2": "", "address3": "", "state": "IL", "country": "US", "zip_code": "60615"}, "id": "del-prado-apartments-chicago", "categories": [{"alias": "apartments", "title": "Apartments"}]}]}
{"total": 109, "businesses": [{"rating": 4.5, "review_count": 6, "name": "The Space", "url": "https://www.yelp.com/biz/the-space-chicago-2?adjust_creative=4ANmej72Lq5uvu_h_d83AQ&utm_campaign=yelp_api_v3&utm_medium=api_v3_business_search&utm_source=4ANmej72Lq5uvu_h_d83AQ", "coordinates": {"latitude": 41.7992515563965, "longitude": -87.5836486816406}, "phone": "+17739527443", "image_url": "https://s3-media2.fl.yelpcdn.com/bphoto/1_oRuH1TuM_qtXDDggtI9A/o.jpg", "location": {"city": "Chicago", "address1": "5307 S Hyde Park Ave", "address2": "Ste 202", "address3": "", "state": "IL", "country": "US", "zip_code": "60615"}, "id": "the-space-chicago-2", "categories": [{"alias": "gyms", "title": "Gyms"}]}]}
{"total": 109, "businesses": [{"rating": 4.0, "review_count": 1, "name": "Cornell Park", "url": "https://www.yelp.com/biz/cornell-park-chicago?adjust_creative=4ANmej72Lq5uvu_h_d83AQ&utm_campaign=yelp_api_v3&utm_medium=api_v3_business_search&utm_source=4ANmej72Lq5uvu_h_d83AQ", "coordinates": {"latitude": 41.7959330230951, "longitude": -87.5853601098061}, "phone": "+13127452470", "image_url": "https://s3-media4.fl.yelpcdn.com/bphoto/FBz4wgTi_fy0AZzozjABGg/o.jpg", "location": {"city": "Chicago", "country": "US", "address2": "", "address3": "", "state": "IL", "address1": "5473 S Cornell Ave", "zip_code": "60615"}, "id": "cornell-park-chicago", "categories": [{"alias": "parks", "title": "Parks"}]}]}
{"total": 109, "businesses": [{"rating": 4.5, "review_count": 4, "name": "Chiro One Wellness Centers", "url": "https://www.yelp.com/biz/chiro-one-wellness-centers-chicago-7?adjust_creative=4ANmej72Lq5uvu_h_d83AQ&utm_campaign=yelp_api_v3&utm_medium=api_v3_business_search&utm_source=4ANmej72Lq5uvu_h_d83AQ", "price": "$$$$", "coordinates": {"latitude": 41.7998199, "longitude": -87.58483}, "phone": "+17738199004", "image_url": "https://s3-media2.fl.yelpcdn.com/bphoto/Xgout4rgNrCjJ0iVlY0CEg/o.jpg", "location": {"city": "Chicago", "address1": "1644 E 53rd St", "address2": "", "address3": null, "state": "IL", "country": "US", "zip_code": "60615"}, "id": "chiro-one-wellness-centers-chicago-7", "categories": [{"alias": "chiropractors", "title": "Chiropractors"}, {"alias": "physicaltherapy", "title": "Physical Therapy"}]}]}
{"total": 109, "businesses": [{"rating": 3.5, "review_count": 4, "name": "Finnigan's Ice Cream Parlor", "url": "https://www.yelp.com/biz/finnigans-ice-cream-parlor-chicago?adjust_creative=4ANmej72Lq5uvu_h_d83AQ&utm_campaign=yelp_api_v3&utm_medium=api_v3_business_search&utm_source=4ANmej72Lq5uvu_h_d83AQ", "price": "$$", "coordinates": {"latitude": 41.792417, "longitude": -87.5803508}, "phone": "+17736841414", "image_url": "https://s3-media2.fl.yelpcdn.com/bphoto/teiGX_Qj28g9qphKPoMC7g/o.jpg", "location": {"city": "Chicago", "country": "US", "address2": "5700 S Lake Shore Dr", "address3": "", "state": "IL", "address1": "Inside the Museum of Science and Industry", "zip_code": "60637"}, "id": "finnigans-ice-cream-parlor-chicago", "categories": [{"alias": "icecream", "title": "Ice Cream & Frozen Yogurt"}]}]}
{"total": 109, "businesses": [{"rating": 4.0, "review_count": 11, "name": "University Dental Professionals", "url": "https://www.yelp.com/biz/university-dental-professionals-chicago?adjust_creative=4ANmej72Lq5uvu_h_d83AQ&utm_campaign=yelp_api_v3&utm_medium=api_v3_business_search&utm_source=4ANmej72Lq5uvu_h_d83AQ", "coordinates": {"latitude": 41.7938738, "longitude": -87.5850806}, "phone": "+17736845702", "image_url": "https://s3-media1.fl.yelpcdn.com/bphoto/FvKYgdjLC2O1uG6S7DLh8w/o.jpg", "location": {"city": "Chicago", "country": "US", "address2": null, "address3": "", "state": "IL", "address1": "5549 S Cornell Ave", "zip_code": "60637"}, "id": "university-dental-professionals-chicago", "categories": [{"alias": "cosmeticsurgeons", "title": "Cosmetic Surgeons"}, {"alias": "oralsurgeons", "title": "Oral Surgeons"}, {"alias": "periodontists", "title": "Periodontists"}]}]}
{"total": 109, "businesses": [{"rating": 5.0, "review_count": 4, "name": "Fitzgerald's Martial Arts", "url": "https://www.yelp.com/biz/fitzgeralds-martial-arts-chicago?adjust_creative=4ANmej72Lq5uvu_h_d83AQ&utm_campaign=yelp_api_v3&utm_medium=api_v3_business_search&utm_source=4ANmej72Lq5uvu_h_d83AQ", "coordinates": {"latitude": 41.7953573, "longitude": -87.5822968}, "phone": "+17736435648", "image_url": "https://s3-media1.fl.yelpcdn.com/bphoto/-yOOJ5NFRwCvIJd24O_nvQ/o.jpg", "location": {"city": "Chicago", "country": "US", "address2": "", "address3": "", "state": "IL", "address1": "1742 E 55th St", "zip_code": "60615"}, "id": "fitzgeralds-martial-arts-chicago", "categories": [{"alias": "martialarts", "title": "Martial Arts"}]}]}
{"total": 109, "businesses": [{"rating": 5.0, "review_count": 4, "name": "Silver Umbrella", "url": "https://www.yelp.com/biz/silver-umbrella-chicago?adjust_creative=4ANmej72Lq5uvu_h_d83AQ&utm_campaign=yelp_api_v3&utm_medium=api_v3_business_search&utm_source=4ANmej72Lq5uvu_h_d83AQ", "price": "$$", "coordinates": {"latitude": 41.7993602, "longitude": -87.5840232}, "phone": "+17736756114", "image_url": "", "location": {"city": "Chicago", "country": "US", "address2": "", "address3": "", "state": "IL", "address1": "5305 S Hyde Park Blvd", "zip_code": "60615"}, "id": "silver-umbrella-chicago", "categories": [{"alias": "vintage", "title": "Used, Vintage & Consignment"}, {"alias": "jewelry", "title": "Jewelry"}, {"alias": "accessories", "title": "Accessories"}]}]}
{"total": 109, "businesses": [{"rating": 3.5, "review_count": 7, "name": "Universal Dental", "url": "https://www.yelp.com/biz/universal-dental-chicago-5?adjust_creative=4ANmej72Lq5uvu_h_d83AQ&utm_campaign=yelp_api_v3&utm_medium=api_v3_business_search&utm_source=4ANmej72Lq5uvu_h_d83AQ", "coordinates": {"latitude": 41.7995942, "longitude": -87.5852447}, "phone": "+17739666465", "image_url": "https://s3-media3.fl.yelpcdn.com/bphoto/7bY0R-d5ZVpghNTn0_7l_Q/o.jpg", "location": {"city": "Chicago", "country": "US", "address2": null, "address3": "", "state": "IL", "address1": "1634 E 53rd St", "zip_code": "60615"}, "id": "universal-dental-chicago-5", "categories": [{"alias": "orthodontists", "title": "Orthodontists"}, {"alias": "generaldentistry", "title": "General Dentistry"}, {"alias": "oralsurgeons", "title": "Oral Surgeons"}]}]}
{"total": 109, "businesses": [{"rating": 4.0, "review_count": 12, "name": "Sonnets Academy", "url": "https://www.yelp.com/biz/sonnets-academy-chicago-6?adjust_creative=4ANmej72Lq5uvu_h_d83AQ&utm_campaign=yelp_api_v3&utm_medium=api_v3_business_search&utm_source=4ANmej72Lq5uvu_h_d83AQ", "coordinates": {"latitude": 41.7943006, "longitude": -87.5840908}, "phone": "+17738910029", "image_url": "https://s3-media4.fl.yelpcdn.com/bphoto/b_vq1wIXEUxXgUWewCgn3g/o.jpg", "location": {"city": "Chicago", "country": "US", "address2": "", "address3": "", "state": "IL", "address1": "5548 S Hyde Park Blvd", "zip_code": "60637"}, "id": "sonnets-academy-chicago-6", "categories": [{"alias": "childcare", "title": "Child Care & Day Care"}, {"alias": "preschools", "title": "Preschools"}]}]}
{"total": 109, "businesses": [{"rating": 2.5, "review_count": 13, "name": "Hyde Park Florist", "url": "https://www.yelp.com/biz/hyde-park-florist-chicago?adjust_creative=4ANmej72Lq5uvu_h_d83AQ&utm_campaign=yelp_api_v3&utm_medium=api_v3_business_search&utm_source=4ANmej72Lq5uvu_h_d83AQ", "price": "$$$", "coordinates": {"latitude": 41.7953648, "longitude": -87.5821731}, "phone": "+17732882800", "image_url": "https://s3-media2.fl.yelpcdn.com/bphoto/_YXgSCxZx0RCxXZ-5RohZg/o.jpg", "location": {"city": "Chicago", "country": "US", "address2": "", "address3": "", "state": "IL", "address1": "1748 E 55th St", "zip_code": "60615"}, "id": "hyde-park-florist-chicago", "categories": [{"alias": "florists", "title": "Florists"}]}]}
{"total": 109, "businesses": [{"rating": 5.0, "review_count": 1, "name": "Star Status Barber Shop", "url": "https://www.yelp.com/biz/star-status-barber-shop-chicago?adjust_creative=4ANmej72Lq5uvu_h_d83AQ&utm_campaign=yelp_api_v3&utm_medium=api_v3_business_search&utm_source=4ANmej72Lq5uvu_h_d83AQ", "price": "$$", "coordinates": {"latitude": 41.7951853573322, "longitude": -87.5837561488152}, "phone": "+17735828227", "image_url": "https://s3-media1.fl.yelpcdn.com/bphoto/J7JSR1-H6xlwivLNsvwFFA/o.jpg", "location": {"city": "Chicago", "country": "US", "address2": null, "address3": "", "state": "IL", "address1": "1701 E 55th St", "zip_code": "60615"}, "id": "star-status-barber-shop-chicago", "categories": [{"alias": "barbers", "title": "Barbers"}]}]}
{"total": 109, "businesses": [{"rating": 4.0, "review_count": 5, "name": "57th Street Art Fair", "url": "https://www.yelp.com/biz/57th-street-art-fair-chicago?adjust_creative=4ANmej72Lq5uvu_h_d83AQ&utm_campaign=yelp_api_v3&utm_medium=api_v3_business_search&utm_source=4ANmej72Lq5uvu_h_d83AQ", "coordinates": {"latitude": 41.799643188715, "longitude": -87.5851877778769}, "phone": "+17734933247", "image_url": "https://s3-media3.fl.yelpcdn.com/bphoto/x9mmg1Tb105L9IVQtCQGKA/o.jpg", "location": {"city": "Chicago", "country": "US", "address2": "PMB 116", "address3": "", "state": "IL", "address1": "1634 East 53rd St", "zip_code": "60615"}, "id": "57th-street-art-fair-chicago", "categories": [{"alias": "festivals", "title": "Festivals"}]}]}
{"total": 109, "businesses": [{"rating": 5.0, "review_count": 2, "name": "Divine Creators", "url": "https://www.yelp.com/biz/divine-creators-chicago?adjust_creative=4ANmej72Lq5uvu_h_d83AQ&utm_campaign=yelp_api_v3&utm_medium=api_v3_business_search&utm_source=4ANmej72Lq5uvu_h_d83AQ", "price": "$$", "coordinates": {"latitude": 41.7950716, "longitude": -87.5849848}, "phone": "+17736849179", "image_url": "https://s3-media1.fl.yelpcdn.com/bphoto/drTU5uPUqWXdIOZwOKD-fA/o.jpg", "location": {"city": "Chicago", "address1": "1637 E 55th St", "address2": "", "address3": "", "state": "IL", "country": "US", "zip_code": "60615"}, "id": "divine-creators-chicago", "categories": [{"alias": "barbers", "title": "Barbers"}]}]}
{"total": 109, "businesses": [{"rating": 5.0, "review_count": 3, "name": "Tech Box", "url": "https://www.yelp.com/biz/tech-box-chicago-2?adjust_creative=4ANmej72Lq5uvu_h_d83AQ&utm_campaign=yelp_api_v3&utm_medium=api_v3_business_search&utm_source=4ANmej72Lq5uvu_h_d83AQ", "price": "$$", "coordinates": {"latitude": 41.7950666, "longitude": -87.5851647}, "phone": "+17732675588", "image_url": "https://s3-media2.fl.yelpcdn.com/bphoto/6iPohFsgBZntqG4nIMH4ow/o.jpg", "location": {"city": "Chicago", "address1": "1623 E 55th St", "address2": "", "address3": "", "state": "IL", "country": "US", "zip_code": "60615"}, "id": "tech-box-chicago-2", "categories": [{"alias": "mobilephonerepair", "title": "Mobile Phone Repair"}]}]}
{"total": 109, "businesses": [{"rating": 5.0, "review_count": 2, "name": "Devonshire Apartments", "url": "https://www.yelp.com/biz/devonshire-apartments-chicago?adjust_creative=4ANmej72Lq5uvu_h_d83AQ&utm_campaign=yelp_api_v3&utm_medium=api_v3_business_search&utm_source=4ANmej72Lq5uvu_h_d83AQ", "coordinates": {"latitude": 41.7642974853516, "longitude": -87.561408996582}, "phone": "+17733754924", "image_url": "https://s3-media4.fl.yelpcdn.com/bphoto/AcAvhbduKBryr9pih8HaxA/o.jpg", "location": {"city": "Chicago", "country": "US", "address2": "", "address3": "", "state": "IL", "address1": "7260 S Shore Dr", "zip_code": "60649"}, "id": "devonshire-apartments-chicago", "categories": [{"alias": "apartments", "title": "Apartments"}]}]}
{"total": 109, "businesses": [{"rating": 5.0, "review_count": 1, "name": "1700 E 56th Apartment Building", "url": "https://www.yelp.com/biz/1700-e-56th-apartment-building-chicago?adjust_creative=4ANmej72Lq5uvu_h_d83AQ&utm_campaign=yelp_api_v3&utm_medium=api_v3_business_search&utm_source=4ANmej72Lq5uvu_h_d83AQ", "coordinates": {"latitude": 41.7937698364258, "longitude": -87.5832595825195}, "phone": "+17733241701", "image_url": "", "location": {"city": "Chicago", "country": "US", "address2": "", "address3": "", "state": "IL", "address1": "1700 E 56th Street", "zip_code": "60637"}, "id": "1700-e-56th-apartment-building-chicago", "categories": [{"alias": "apartments", "title": "Apartments"}]}]}
{"total": 109, "businesses": [{"rating": 5.0, "review_count": 2, "name": "Claret Center", "url": "https://www.yelp.com/biz/claret-center-chicago?adjust_creative=4ANmej72Lq5uvu_h_d83AQ&utm_campaign=yelp_api_v3&utm_medium=api_v3_business_search&utm_source=4ANmej72Lq5uvu_h_d83AQ", "coordinates": {"latitude": 41.79404, "longitude": -87.58295}, "phone": "+17736436259", "image_url": "", "location": {"city": "Chicago", "address1": "5536 S Everett Ave", "address2": "", "address3": "", "state": "IL", "country": "US", "zip_code": "60637"}, "id": "claret-center-chicago", "categories": [{"alias": "massage_therapy", "title": "Massage Therapy"}, {"alias": "acupuncture", "title": "Acupuncture"}, {"alias": "psychologists", "title": "Psychologists"}]}]}
{"total": 109, "businesses": [{"rating": 5.0, "review_count": 1, "name": "The Parkshore", "url": "https://www.yelp.com/biz/the-parkshore-chicago?adjust_creative=4ANmej72Lq5uvu_h_d83AQ&utm_campaign=yelp_api_v3&utm_medium=api_v3_business_search&utm_source=4ANmej72Lq5uvu_h_d83AQ", "coordinates": {"latitude": 41.79499, "longitude": -87.58136}, "phone": "+17737528990", "image_url": "", "location": {"city": "Chicago", "country": "US", "address2": "", "address3": "", "state": "IL", "address1": "1755 E 55th St", "zip_code": "60615"}, "id": "the-parkshore-chicago", "categories": [{"alias": "apartments", "title": "Apartments"}]}]}
{"total": 109, "businesses": [{"rating": 5.0, "review_count": 3, "name": "Comprehensive Learning Services", "url": "https://www.yelp.com/biz/comprehensive-learning-services-chicago-3?adjust_creative=4ANmej72Lq5uvu_h_d83AQ&utm_campaign=yelp_api_v3&utm_medium=api_v3_business_search&utm_source=4ANmej72Lq5uvu_h_d83AQ", "coordinates": {"latitude": 41.7934412509203, "longitude": -87.5845849514008}, "image_url": "", "location": {"city": "Chicago", "country": "US", "address2": "", "address3": "", "state": "IL", "address1": "1652 E 56th St", "zip_code": "60637"}, "id": "comprehensive-learning-services-chicago-3", "categories": [{"alias": "educationservices", "title": "Educational Services"}]}]}
{"total": 109, "businesses": [{"rating": 5.0, "review_count": 3, "name": "Delprado Cleaners", "url": "https://www.yelp.com/biz/delprado-cleaners-chicago?adjust_creative=4ANmej72Lq5uvu_h_d83AQ&utm_campaign=yelp_api_v3&utm_medium=api_v3_business_search&utm_source=4ANmej72Lq5uvu_h_d83AQ", "coordinates": {"latitude": 41.799468845129, "longitude": -87.5839754194021}, "phone": "+17739555307", "image_url": "", "location": {"city": "Chicago", "country": "US", "address2": "", "address3": "", "state": "IL", "address1": "5303 S Hyde Park Blvd", "zip_code": "60615"}, "id": "delprado-cleaners-chicago", "categories": [{"alias": "drycleaninglaundry", "title": "Dry Cleaning & Laundry"}]}]}
{"total": 109, "businesses": [{"rating": 5.0, "review_count": 2, "name": "Silver Fern Events", "url": "https://www.yelp.com/biz/silver-fern-events-chicago?adjust_creative=4ANmej72Lq5uvu_h_d83AQ&utm_campaign=yelp_api_v3&utm_medium=api_v3_business_search&utm_source=4ANmej72Lq5uvu_h_d83AQ", "coordinates": {"latitude": 41.79697, "longitude": -87.584426}, "image_url": "https://s3-media4.fl.yelpcdn.com/bphoto/-g7uDUvNZHh0ynHU-u9hiQ/o.jpg", "location": {"city": "Chicago", "country": "US", "address2": "", "address3": "", "state": "IL", "address1": "5438 S Hyde Park Blvd", "zip_code": "60615"}, "id": "silver-fern-events-chicago", "categories": [{"alias": "wedding_planning", "title": "Wedding Planning"}]}]}
{"total": 109, "businesses": [{"rating": 5.0, "review_count": 1, "name": "Silver Cloud Condiminium Homes", "url": "https://www.yelp.com/biz/silver-cloud-condiminium-homes-chicago?adjust_creative=4ANmej72Lq5uvu_h_d83AQ&utm_campaign=yelp_api_v3&utm_medium=api_v3_business_search&utm_source=4ANmej72Lq5uvu_h_d83AQ", "coordinates": {"latitude": 41.79817, "longitude": -87.58589}, "phone": "+17736845900", "image_url": "https://s3-media4.fl.yelpcdn.com/bphoto/s-J-JJRjRip2BuCKnD0Osg/o.jpg", "location": {"city": "Chicago", "country": "US", "address2": null, "address3": null, "state": "IL", "address1": "5346 S Cornell Ave", "zip_code": "60615"}, "id": "silver-cloud-condiminium-homes-chicago", "categories": [{"alias": "apartments", "title": "Apartments"}]}]}
{"total": 109, "businesses": [{"rating": 3.5, "review_count": 3, "name": "Christmas Around the World", "url": "https://www.yelp.com/biz/christmas-around-the-world-chicago?adjust_creative=4ANmej72Lq5uvu_h_d83AQ&utm_campaign=yelp_api_v3&utm_medium=api_v3_business_search&utm_source=4ANmej72Lq5uvu_h_d83AQ", "coordinates": {"latitude": 41.7924, "longitude": -87.58034}, "phone": "+17736841414", "image_url": "https://s3-media1.fl.yelpcdn.com/bphoto/uPE_5-O6Wh0_OHO0t47XGg/o.jpg", "location": {"city": "Chicago", "country": "US", "address2": "Museum of Science and Industry", "address3": "", "state": "IL", "address1": "57th St & Lake Shore Dr", "zip_code": "60637"}, "id": "christmas-around-the-world-chicago", "categories": [{"alias": "museums", "title": "Museums"}]}]}
{"total": 109, "businesses": [{"rating": 1.0, "review_count": 1, "name": "57th Street Grill", "url": "https://www.yelp.com/biz/57th-street-grill-chicago-2?adjust_creative=4ANmej72Lq5uvu_h_d83AQ&utm_campaign=yelp_api_v3&utm_medium=api_v3_business_search&utm_source=4ANmej72Lq5uvu_h_d83AQ", "price": "$", "coordinates": {"latitude": 41.7924217, "longitude": -87.5801661}, "image_url": "", "location": {"city": "Chicago", "country": "US", "address2": "", "address3": null, "state": "IL", "address1": "S Lake Shore Dr", "zip_code": "60637"}, "id": "57th-street-grill-chicago-2", "categories": [{"alias": "hotdog", "title": "Hot Dogs"}, {"alias": "streetvendors", "title": "Street Vendors"}]}]}
{"total": 109, "businesses": [{"rating": 2.5, "review_count": 7, "name": "Harris Bank", "url": "https://www.yelp.com/biz/harris-bank-chicago-3?adjust_creative=4ANmej72Lq5uvu_h_d83AQ&utm_campaign=yelp_api_v3&utm_medium=api_v3_business_search&utm_source=4ANmej72Lq5uvu_h_d83AQ", "coordinates": {"latitude": 41.795436, "longitude": -87.584999}, "phone": "+17732415100", "image_url": "", "location": {"city": "Chicago", "country": "US", "address2": null, "address3": "", "state": "IL", "address1": "5493 S Cornell Ave", "zip_code": "60637"}, "id": "harris-bank-chicago-3", "categories": [{"alias": "banks", "title": "Banks & Credit Unions"}]}]}
{"total": 109, "businesses": [{"rating": 3.5, "review_count": 3, "name": "Del Prado Cleaners", "url": "https://www.yelp.com/biz/del-prado-cleaners-chicago?adjust_creative=4ANmej72Lq5uvu_h_d83AQ&utm_campaign=yelp_api_v3&utm_medium=api_v3_business_search&utm_source=4ANmej72Lq5uvu_h_d83AQ", "coordinates": {"latitude": 41.7991770870765, "longitude": -87.5838684842771}, "phone": "+17739555307", "image_url": "", "location": {"city": "Chicago", "country": "US", "address2": "", "address3": "", "state": "IL", "address1": "5303 S Hyde Park Blvd", "zip_code": "60615"}, "id": "del-prado-cleaners-chicago", "categories": [{"alias": "drycleaninglaundry", "title": "Dry Cleaning & Laundry"}]}]}
{"total": 109, "businesses": [{"rating": 2.5, "review_count": 12, "name": "Shoreland", "url": "https://www.yelp.com/biz/shoreland-chicago?adjust_creative=4ANmej72Lq5uvu_h_d83AQ&utm_campaign=yelp_api_v3&utm_medium=api_v3_business_search&utm_source=4ANmej72Lq5uvu_h_d83AQ", "coordinates": {"latitude": 41.796211, "longitude": -87.581484}, "phone": "+17733473384", "image_url": "https://s3-media3.fl.yelpcdn.com/bphoto/N0fVO2G54wq2cVEZPT0i2g/o.jpg", "location": {"city": "Chicago", "country": "US", "address2": "", "address3": "", "state": "IL", "address1": "5454 S Shore Dr", "zip_code": "60615"}, "id": "shoreland-chicago", "categories": [{"alias": "apartments", "title": "Apartments"}]}]}
{"total": 109, "businesses": [{"rating": 4.0, "review_count": 2, "name": "Promontory Apartments Trust", "url": "https://www.yelp.com/biz/promontory-apartments-trust-chicago?adjust_creative=4ANmej72Lq5uvu_h_d83AQ&utm_campaign=yelp_api_v3&utm_medium=api_v3_business_search&utm_source=4ANmej72Lq5uvu_h_d83AQ", "coordinates": {"latitude": 41.7944563322668, "longitude": -87.5805830955505}, "phone": "+17736849108", "image_url": "https://s3-media3.fl.yelpcdn.com/bphoto/YTa2Z-XXfILSE3aK5-Farw/o.jpg", "location": {"city": "Chicago", "country": "US", "address2": "Apt 11A", "address3": "", "state": "IL", "address1": "5530 S Shore Dr", "zip_code": "60637"}, "id": "promontory-apartments-trust-chicago", "categories": [{"alias": "apartments", "title": "Apartments"}]}]}
{"total": 109, "businesses": [{"rating": 4.0, "review_count": 1, "name": "Quick Snack", "url": "https://www.yelp.com/biz/quick-snack-chicago?adjust_creative=4ANmej72Lq5uvu_h_d83AQ&utm_campaign=yelp_api_v3&utm_medium=api_v3_business_search&utm_source=4ANmej72Lq5uvu_h_d83AQ", "price": "$", "coordinates": {"latitude": 41.7953549, "longitude": -87.5843025}, "phone": "+17733636101", "image_url": "https://s3-media1.fl.yelpcdn.com/bphoto/p0IToKyOLBrTKod5StdHmw/o.jpg", "location": {"city": "Chicago", "address1": "1658 E 55th Street", "address2": "", "address3": "", "state": "IL", "country": "US", "zip_code": "60615"}, "id": "quick-snack-chicago", "categories": [{"alias": "convenience", "title": "Convenience Stores"}]}]}
{"total": 109, "businesses": [{"rating": 4.0, "review_count": 1, "name": "Broadview Hall", "url": "https://www.yelp.com/biz/broadview-hall-chicago?adjust_creative=4ANmej72Lq5uvu_h_d83AQ&utm_campaign=yelp_api_v3&utm_medium=api_v3_business_search&utm_source=4ANmej72Lq5uvu_h_d83AQ", "coordinates": {"latitude": 41.794864, "longitude": -87.584474}, "phone": "+17737951306", "image_url": "https://s3-media4.fl.yelpcdn.com/bphoto/JoemKHbS4dayIk9Z3OxPiQ/o.jpg", "location": {"city": "Chicago", "country": "US", "address2": "", "address3": "", "state": "IL", "address1": "S Hyde Park Blvd", "zip_code": "60637"}, "id": "broadview-hall-chicago", "categories": [{"alias": "university_housing", "title": "University Housing"}]}]}
{"total": 109, "businesses": [{"rating": 3.0, "review_count": 2, "name": "Flamingo-On-the-Lake Apts", "url": "https://www.yelp.com/biz/flamingo-on-the-lake-apts-chicago?adjust_creative=4ANmej72Lq5uvu_h_d83AQ&utm_campaign=yelp_api_v3&utm_medium=api_v3_business_search&utm_source=4ANmej72Lq5uvu_h_d83AQ", "coordinates": {"latitude": 41.7951078, "longitude": -87.5806105}, "phone": "+17737523800", "image_url": "", "location": {"city": "Chicago", "address1": "5500 S Shore Drive Apt 1508", "address2": "", "address3": "", "state": "IL", "country": "US", "zip_code": "60637"}, "id": "flamingo-on-the-lake-apts-chicago", "categories": [{"alias": "apartments", "title": "Apartments"}]}]}
{"total": 109, "businesses": [{"rating": 4.0, "review_count": 1, "name": "Hassans Hair Design", "url": "https://www.yelp.com/biz/hassans-hair-design-chicago?adjust_creative=4ANmej72Lq5uvu_h_d83AQ&utm_campaign=yelp_api_v3&utm_medium=api_v3_business_search&utm_source=4ANmej72Lq5uvu_h_d83AQ", "coordinates": {"latitude": 41.7951853573322, "longitude": -87.5836683064699}, "phone": "+17732560160", "image_url": "", "location": {"city": "Chicago", "country": "US", "address2": "", "address3": "", "state": "IL", "address1": "1705 E 55th Street", "zip_code": "60615"}, "id": "hassans-hair-design-chicago", "categories": [{"alias": "hair", "title": "Hair Salons"}]}]}
{"total": 109, "businesses": [{"rating": 3.0, "review_count": 2, "name": "MetroPro Realty", "url": "https://www.yelp.com/biz/metropro-realty-chicago?adjust_creative=4ANmej72Lq5uvu_h_d83AQ&utm_campaign=yelp_api_v3&utm_medium=api_v3_business_search&utm_source=4ANmej72Lq5uvu_h_d83AQ", "coordinates": {"latitude": 41.7951618880033, "longitude": -87.5856417417526}, "phone": "+17736671000", "image_url": "https://s3-media4.fl.yelpcdn.com/bphoto/Q5V2nOx6AoelVGUJ7krYdA/o.jpg", "location": {"city": "Chicago", "country": "US", "address2": null, "address3": null, "state": "IL", "address1": "1613 E 55th St", "zip_code": "60615"}, "id": "metropro-realty-chicago", "categories": [{"alias": "realestatesvcs", "title": "Real Estate Services"}]}]}
{"total": 109, "businesses": [{"rating": 1.5, "review_count": 23, "name": "Chicago Apartment Finders", "url": "https://www.yelp.com/biz/chicago-apartment-finders-chicago-4?adjust_creative=4ANmej72Lq5uvu_h_d83AQ&utm_campaign=yelp_api_v3&utm_medium=api_v3_business_search&utm_source=4ANmej72Lq5uvu_h_d83AQ", "coordinates": {"latitude": 41.79549, "longitude": -87.58214}, "phone": "+18883463377", "image_url": "https://s3-media4.fl.yelpcdn.com/bphoto/v-_SYU1aK3jrNFGUq69DXQ/o.jpg", "location": {"city": "Chicago", "country": "US", "address2": "", "address3": "", "state": "IL", "address1": "1740 E 55th St", "zip_code": "60615"}, "id": "chicago-apartment-finders-chicago-4", "categories": [{"alias": "apartments", "title": "Apartments"}]}]}
{"total": 109, "businesses": [{"rating": 3.0, "review_count": 3, "name": "Museum Walk", "url": "https://www.yelp.com/biz/museum-walk-chicago?adjust_creative=4ANmej72Lq5uvu_h_d83AQ&utm_campaign=yelp_api_v3&utm_medium=api_v3_business_search&utm_source=4ANmej72Lq5uvu_h_d83AQ", "coordinates": {"latitude": 41.7940368652344, "longitude": -87.5820846557617}, "phone": "+17737524280", "image_url": "https://s3-media1.fl.yelpcdn.com/bphoto/L5MO6S8kFDnx16qwLB9erg/o.jpg", "location": {"city": "Chicago", "country": "US", "address2": "", "address3": "", "state": "IL", "address1": "5541 S Everett Ave", "zip_code": "60637"}, "id": "museum-walk-chicago", "categories": [{"alias": "apartments", "title": "Apartments"}]}]}
{"total": 109, "businesses": [{"rating": 2.5, "review_count": 2, "name": "Oneness Spiritual Center", "url": "https://www.yelp.com/biz/oneness-spiritual-center-chicago?adjust_creative=4ANmej72Lq5uvu_h_d83AQ&utm_campaign=yelp_api_v3&utm_medium=api_v3_business_search&utm_source=4ANmej72Lq5uvu_h_d83AQ", "coordinates": {"latitude": 41.800757, "longitude": -87.585069}, "phone": "+17732335784", "image_url": "https://s3-media1.fl.yelpcdn.com/bphoto/ZvS1AKLq8SC8VCtaBaA3PQ/o.jpg", "location": {"city": "Chicago", "country": "US", "address2": null, "address3": "", "state": "IL", "address1": "5200 S Hyde Park Blvd", "zip_code": "60615"}, "id": "oneness-spiritual-center-chicago", "categories": [{"alias": "buddhist_temples", "title": "Buddhist Temples"}]}]}
{"total": 109, "businesses": [{"rating": 2.5, "review_count": 3, "name": "Get It Straight Orthodontics", "url": "https://www.yelp.com/biz/get-it-straight-orthodontics-chicago-3?adjust_creative=4ANmej72Lq5uvu_h_d83AQ&utm_campaign=yelp_api_v3&utm_medium=api_v3_business_search&utm_source=4ANmej72Lq5uvu_h_d83AQ", "coordinates": {"latitude": 41.7934446036816, "longitude": -87.5841933488846}, "phone": "+17737526691", "image_url": "https://s3-media1.fl.yelpcdn.com/bphoto/PoOz-RxidK6HM6fevaJNdw/o.jpg", "location": {"city": "Chicago", "country": "US", "address2": "", "address3": "", "state": "IL", "address1": "1660 E 56th St", "zip_code": "60637"}, "id": "get-it-straight-orthodontics-chicago-3", "categories": [{"alias": "orthodontists", "title": "Orthodontists"}]}]}
{"total": 109, "businesses": [{"rating": 3.0, "review_count": 4, "name": "Athletico Physical Therapy - Hyde Park East", "url": "https://www.yelp.com/biz/athletico-hyde-park-chicago?adjust_creative=4ANmej72Lq5uvu_h_d83AQ&utm_campaign=yelp_api_v3&utm_medium=api_v3_business_search&utm_source=4ANmej72Lq5uvu_h_d83AQ", "coordinates": {"latitude": 41.7997505266348, "longitude": -87.5850176907244}, "phone": "+17732416450", "image_url": "https://s3-media3.fl.yelpcdn.com/bphoto/ti0w6vtlIfGmlZMB5EeIFQ/o.jpg", "location": {"city": "Chicago", "address1": "1644 E 53rd St", "address2": null, "address3": null, "state": "IL", "country": "US", "zip_code": "60615"}, "id": "athletico-hyde-park-chicago", "categories": [{"alias": "physicaltherapy", "title": "Physical Therapy"}]}]}
{"total": 109, "businesses": [{"rating": 3.0, "review_count": 4, "name": "Yehia Concepts", "url": "https://www.yelp.com/biz/yehia-concepts-chicago?adjust_creative=4ANmej72Lq5uvu_h_d83AQ&utm_campaign=yelp_api_v3&utm_medium=api_v3_business_search&utm_source=4ANmej72Lq5uvu_h_d83AQ", "price": "$$", "coordinates": {"latitude": 41.7951679229736, "longitude": -87.5852246582508}, "phone": "+17736676880", "image_url": "", "location": {"city": "Chicago", "country": "US", "address2": "", "address3": "", "state": "IL", "address1": "1619 E 55th St", "zip_code": "60615"}, "id": "yehia-concepts-chicago", "categories": [{"alias": "hair", "title": "Hair Salons"}]}]}
{"total": 109, "businesses": [{"rating": 2.0, "review_count": 2, "name": "Post Ink", "url": "https://www.yelp.com/biz/post-ink-chicago?adjust_creative=4ANmej72Lq5uvu_h_d83AQ&utm_campaign=yelp_api_v3&utm_medium=api_v3_business_search&utm_source=4ANmej72Lq5uvu_h_d83AQ", "coordinates": {"latitude": 41.799643188715, "longitude": -87.5851877778769}, "phone": "+17739524626", "image_url": "https://s3-media3.fl.yelpcdn.com/bphoto/BJaIpSl7TWvP6LzAycjnPQ/o.jpg", "location": {"city": "Chicago", "country": "US", "address2": "", "address3": "", "state": "IL", "address1": "1634 E 53rd St", "zip_code": "60615"}, "id": "post-ink-chicago", "categories": [{"alias": "notaries", "title": "Notaries"}, {"alias": "copyshops", "title": "Printing Services"}]}]}
{"total": 109, "businesses": [{"rating": 2.0, "review_count": 5, "name": "Poinsettia Apartments", "url": "https://www.yelp.com/biz/poinsettia-apartments-chicago?adjust_creative=4ANmej72Lq5uvu_h_d83AQ&utm_campaign=yelp_api_v3&utm_medium=api_v3_business_search&utm_source=4ANmej72Lq5uvu_h_d83AQ", "coordinates": {"latitude": 41.7943458557129, "longitude": -87.584358215332}, "phone": "+17733637500", "image_url": "", "location": {"city": "Chicago", "country": "US", "address2": "", "address3": "", "state": "IL", "address1": "5528 S Hyde Park Blvd", "zip_code": "60637"}, "id": "poinsettia-apartments-chicago", "categories": [{"alias": "apartments", "title": "Apartments"}]}]}
{"total": 109, "businesses": [{"rating": 5.0, "review_count": 8, "name": "DJ KEL-WIN!", "url": "https://www.yelp.com/biz/dj-kel-win-chicago?adjust_creative=4ANmej72Lq5uvu_h_d83AQ&utm_campaign=yelp_api_v3&utm_medium=api_v3_business_search&utm_source=4ANmej72Lq5uvu_h_d83AQ", "coordinates": {"latitude": 41.7951974, "longitude": -87.5807332}, "phone": "+13129534121", "image_url": "https://s3-media4.fl.yelpcdn.com/bphoto/SZXhvl3Dg5_BEg1sA-Jfdg/o.jpg", "location": {"city": "Chicago", "country": "US", "address2": "", "address3": "", "state": "IL", "address1": "5500 S Shore Dr", "zip_code": "60637"}, "id": "dj-kel-win-chicago", "categories": [{"alias": "djs", "title": "DJs"}]}]}
{"total": 109, "businesses": [{"rating": 3.5, "review_count": 3, "name": "Hyde Park Painters & Restoration", "url": "https://www.yelp.com/biz/hyde-park-painters-and-restoration-chicago?adjust_creative=4ANmej72Lq5uvu_h_d83AQ&utm_campaign=yelp_api_v3&utm_medium=api_v3_business_search&utm_source=4ANmej72Lq5uvu_h_d83AQ", "coordinates": {"latitude": 41.7949714660645, "longitude": -87.5813522338867}, "phone": "+13124047092", "image_url": "https://s3-media4.fl.yelpcdn.com/bphoto/POA7AbdQMDkFq4WtXKmdjQ/o.jpg", "location": {"city": "Chicago", "country": "US", "address2": "Unit 101", "address3": "", "state": "IL", "address1": "1755 E 55th St", "zip_code": "60615"}, "id": "hyde-park-painters-and-restoration-chicago", "categories": [{"alias": "painters", "title": "Painters"}, {"alias": "refinishing", "title": "Refinishing Services"}, {"alias": "tiling", "title": "Tiling"}]}]}
{"total": 109, "businesses": [{"rating": 5.0, "review_count": 1, "name": "Hamlett Computer Services", "url": "https://www.yelp.com/biz/hamlett-computer-services-chicago-2?adjust_creative=4ANmej72Lq5uvu_h_d83AQ&utm_campaign=yelp_api_v3&utm_medium=api_v3_business_search&utm_source=4ANmej72Lq5uvu_h_d83AQ", "coordinates": {"latitude": 41.7943093151515, "longitude": -87.5842244165192}, "phone": "+13125769923", "image_url": "https://s3-media4.fl.yelpcdn.com/bphoto/GBUagBS89UE-7gQSlid7hg/o.jpg", "location": {"city": "Chicago", "country": "US", "address2": null, "address3": null, "state": "IL", "address1": "", "zip_code": "60637"}, "id": "hamlett-computer-services-chicago-2", "categories": [{"alias": "itservices", "title": "IT Services & Computer Repair"}, {"alias": "homenetworkinstall", "title": "Home Network Installation"}]}]}
{"total": 109, "businesses": [{"rating": 2.0, "review_count": 1, "name": "Marian Realty Inc", "url": "https://www.yelp.com/biz/marian-realty-inc-chicago?adjust_creative=4ANmej72Lq5uvu_h_d83AQ&utm_campaign=yelp_api_v3&utm_medium=api_v3_business_search&utm_source=4ANmej72Lq5uvu_h_d83AQ", "coordinates": {"latitude": 41.7958, "longitude": -87.58601}, "phone": "+17736845400", "image_url": "", "location": {"city": "Chicago", "address1": "5480 S Cornell Ave", "address2": "", "address3": "", "state": "IL", "country": "US", "zip_code": "60615"}, "id": "marian-realty-inc-chicago", "categories": [{"alias": "propertymgmt", "title": "Property Management"}]}]}
{"total": 109, "businesses": [{"rating": 1.0, "review_count": 5, "name": "Foot & Ankle Clinics Of America Ltd", "url": "https://www.yelp.com/biz/foot-and-ankle-clinics-of-america-chicago-11?adjust_creative=4ANmej72Lq5uvu_h_d83AQ&utm_campaign=yelp_api_v3&utm_medium=api_v3_business_search&utm_source=4ANmej72Lq5uvu_h_d83AQ", "coordinates": {"latitude": 41.7997378367365, "longitude": -87.5847670926609}, "phone": "+17734669888", "image_url": "https://s3-media2.fl.yelpcdn.com/bphoto/yx0D6gbJbYz2kjzleaomSA/o.jpg", "location": {"city": "Chicago", "country": "US", "address2": "", "address3": "", "state": "IL", "address1": "1644 E 53rd St", "zip_code": "60615"}, "id": "foot-and-ankle-clinics-of-america-chicago-11", "categories": [{"alias": "physicians", "title": "Doctors"}]}]}
{"total": 109, "businesses": [{"rating": 5.0, "review_count": 1, "name": "Bowser's Buddy Pet Care", "url": "https://www.yelp.com/biz/bowsers-buddy-pet-care-chicago-2?adjust_creative=4ANmej72Lq5uvu_h_d83AQ&utm_campaign=yelp_api_v3&utm_medium=api_v3_business_search&utm_source=4ANmej72Lq5uvu_h_d83AQ", "coordinates": {"latitude": 41.7950592935085, "longitude": -87.5824546068907}, "phone": "+17732302038", "image_url": "https://s3-media2.fl.yelpcdn.com/bphoto/7NTsMoH6OQh2eht-mYxEZg/o.jpg", "location": {"city": "Chicago", "country": "US", "address2": "", "address3": "", "state": "IL", "address1": "5503 S Everett Ave", "zip_code": "60637"}, "id": "bowsers-buddy-pet-care-chicago-2", "categories": [{"alias": "dogwalkers", "title": "Dog Walkers"}, {"alias": "pet_sitting", "title": "Pet Boarding/Pet Sitting"}]}]}
{"total": 109, "businesses": [{"rating": 2.0, "review_count": 1, "name": "Montgomery Place", "url": "https://www.yelp.com/biz/montgomery-place-chicago?adjust_creative=4ANmej72Lq5uvu_h_d83AQ&utm_campaign=yelp_api_v3&utm_medium=api_v3_business_search&utm_source=4ANmej72Lq5uvu_h_d83AQ", "coordinates": {"latitude": 41.7935645528312, "longitude": -87.5807482590942}, "phone": "+17736679741", "image_url": "", "location": {"city": "Chicago", "address1": "5550 S Shore Drive", "address2": "Apt 710", "address3": "", "state": "IL", "country": "US", "zip_code": "60637"}, "id": "montgomery-place-chicago", "categories": [{"alias": "health", "title": "Health & Medical"}]}]}
{"total": 109, "businesses": [{"rating": 1.0, "review_count": 2, "name": "East Park Tower", "url": "https://www.yelp.com/biz/east-park-tower-chicago?adjust_creative=4ANmej72Lq5uvu_h_d83AQ&utm_campaign=yelp_api_v3&utm_medium=api_v3_business_search&utm_source=4ANmej72Lq5uvu_h_d83AQ", "coordinates": {"latitude": 41.799905, "longitude": -87.584252}, "phone": "+17736431313", "image_url": "https://s3-media1.fl.yelpcdn.com/bphoto/m1Pj0iNCTQO-n2n0hJPGvA/o.jpg", "location": {"city": "Chicago", "country": "US", "address2": null, "address3": null, "state": "IL", "address1": "5242 S Hyde Park Blvd", "zip_code": "60615"}, "id": "east-park-tower-chicago", "categories": [{"alias": "apartments", "title": "Apartments"}]}]}
{"total": 109, "businesses": [{"rating": 1.0, "review_count": 2, "name": "Mayfair Apartments", "url": "https://www.yelp.com/biz/mayfair-apartments-chicago?adjust_creative=4ANmej72Lq5uvu_h_d83AQ&utm_campaign=yelp_api_v3&utm_medium=api_v3_business_search&utm_source=4ANmej72Lq5uvu_h_d83AQ", "coordinates": {"latitude": 41.79557, "longitude": -87.58437}, "phone": "+17739552208", "image_url": "", "location": {"city": "Chicago", "country": "US", "address2": "", "address3": "", "state": "IL", "address1": "5496 S Hyde Park Blvd", "zip_code": "60615"}, "id": "mayfair-apartments-chicago", "categories": [{"alias": "apartments", "title": "Apartments"}]}]}
{"total": 109, "businesses": [{"rating": 1.5, "review_count": 2, "name": "And Exterminators", "url": "https://www.yelp.com/biz/and-exterminators-chicago?adjust_creative=4ANmej72Lq5uvu_h_d83AQ&utm_campaign=yelp_api_v3&utm_medium=api_v3_business_search&utm_source=4ANmej72Lq5uvu_h_d83AQ", "coordinates": {"latitude": 41.7950851, "longitude": -87.5846799}, "phone": "+17085897268", "image_url": "", "location": {"city": "Chicago", "country": "US", "address2": null, "address3": null, "state": "IL", "address1": "1647 E 55th St", "zip_code": "60615"}, "id": "and-exterminators-chicago", "categories": [{"alias": "pest_control", "title": "Pest Control"}]}]}
{"total": 109, "businesses": [{"rating": 5.0, "review_count": 1, "name": "Marrice Coverson", "url": "https://www.yelp.com/biz/marrice-coverson-chicago?adjust_creative=4ANmej72Lq5uvu_h_d83AQ&utm_campaign=yelp_api_v3&utm_medium=api_v3_business_search&utm_source=4ANmej72Lq5uvu_h_d83AQ", "coordinates": {"latitude": 41.797275, "longitude": -87.585031}, "phone": "+13124465705", "image_url": "", "location": {"city": "Chicago", "country": "US", "address2": "", "address3": "", "state": "IL", "address1": "", "zip_code": "60615"}, "id": "marrice-coverson-chicago", "categories": [{"alias": "psychic_astrology", "title": "Psychics & Astrologers"}, {"alias": "lifecoach", "title": "Life Coach"}]}]}
{"total": 109, "businesses": [{"rating": 1.0, "review_count": 1, "name": "Hyde Park Medical Center", "url": "https://www.yelp.com/biz/hyde-park-medical-center-chicago?adjust_creative=4ANmej72Lq5uvu_h_d83AQ&utm_campaign=yelp_api_v3&utm_medium=api_v3_business_search&utm_source=4ANmej72Lq5uvu_h_d83AQ", "coordinates": {"latitude": 41.79925, "longitude": -87.58364}, "phone": "+17732888808", "image_url": "https://s3-media4.fl.yelpcdn.com/bphoto/n49m-oO8XP_xeVvCELIByQ/o.jpg", "location": {"city": "Chicago", "country": "US", "address2": "", "address3": "", "state": "IL", "address1": "5307 S Hyde Park Blvd", "zip_code": "60615"}, "id": "hyde-park-medical-center-chicago", "categories": [{"alias": "physicians", "title": "Doctors"}]}]}
{"total": 109, "businesses": [{"rating": 1.0, "review_count": 4, "name": "Dr. Fortunee Massuda", "url": "https://www.yelp.com/biz/massuda-fortunee-dpm-chicago?adjust_creative=4ANmej72Lq5uvu_h_d83AQ&utm_campaign=yelp_api_v3&utm_medium=api_v3_business_search&utm_source=4ANmej72Lq5uvu_h_d83AQ", "coordinates": {"latitude": 41.7997378367365, "longitude": -87.5847670926609}, "phone": "+17737522111", "image_url": "https://s3-media2.fl.yelpcdn.com/bphoto/ZlSGpKESMCP28O7DtcrNkQ/o.jpg", "location": {"city": "Chicago", "address1": "1644 E 53rd St", "address2": "", "address3": "", "state": "IL", "country": "US", "zip_code": "60615"}, "id": "massuda-fortunee-dpm-chicago", "categories": [{"alias": "internalmed", "title": "Internal Medicine"}]}]}
{"total": 109, "businesses": [{"rating": 5.0, "review_count": 1, "name": "CLK-Healing Hands", "url": "https://www.yelp.com/biz/clk-healing-hands-chicago?adjust_creative=4ANmej72Lq5uvu_h_d83AQ&utm_campaign=yelp_api_v3&utm_medium=api_v3_business_search&utm_source=4ANmej72Lq5uvu_h_d83AQ", "coordinates": {"latitude": 41.799251, "longitude": -87.583648}, "phone": "+13129122564", "image_url": "https://s3-media4.fl.yelpcdn.com/bphoto/fWrR2rATroaqpIHFjlzjsg/o.jpg", "location": {"city": "Chicago", "country": "US", "address2": "Ste 104", "address3": "", "state": "IL", "address1": "5307 S Hyde Park Blvd", "zip_code": "60615"}, "id": "clk-healing-hands-chicago", "categories": [{"alias": "massage_therapy", "title": "Massage Therapy"}]}]}
{"total": 109, "businesses": [{"rating": 1.0, "review_count": 1, "name": "Computer City", "url": "https://www.yelp.com/biz/computer-city-chicago-2?adjust_creative=4ANmej72Lq5uvu_h_d83AQ&utm_campaign=yelp_api_v3&utm_medium=api_v3_business_search&utm_source=4ANmej72Lq5uvu_h_d83AQ", "coordinates": {"latitude": 41.7996505647898, "longitude": -87.584905475378}, "phone": "+17737521762", "image_url": "", "location": {"city": "Chicago", "country": "US", "address2": "", "address3": "", "state": "IL", "address1": "1648 E 53rd St", "zip_code": "60615"}, "id": "computer-city-chicago-2", "categories": [{"alias": "itservices", "title": "IT Services & Computer Repair"}]}]}
{"total": 109, "businesses": [{"rating": 1.0, "review_count": 3, "name": "Dental Profile", "url": "https://www.yelp.com/biz/dental-profile-chicago-2?adjust_creative=4ANmej72Lq5uvu_h_d83AQ&utm_campaign=yelp_api_v3&utm_medium=api_v3_business_search&utm_source=4ANmej72Lq5uvu_h_d83AQ", "coordinates": {"latitude": 41.799643188715, "longitude": -87.5851877778769}, "phone": "+17737525677", "image_url": "", "location": {"city": "Chicago", "country": "US", "address2": "", "address3": "", "state": "IL", "address1": "1634 E 53rd Street", "zip_code": "60615"}, "id": "dental-profile-chicago-2", "categories": [{"alias": "generaldentistry", "title": "General Dentistry"}]}]}
{"total": 109, "businesses": [{"rating": 5.0, "review_count": 1, "name": "Catholic Theological Union", "url": "https://www.yelp.com/biz/catholic-theological-union-chicago?adjust_creative=4ANmej72Lq5uvu_h_d83AQ&utm_campaign=yelp_api_v3&utm_medium=api_v3_business_search&utm_source=4ANmej72Lq5uvu_h_d83AQ", "coordinates": {"latitude": 41.7979011535645, "longitude": -87.5850601196289}, "phone": "+17733248000", "image_url": "", "location": {"city": "Chicago", "country": "US", "address2": "", "address3": "", "state": "IL", "address1": "5401 S Cornell Avenue", "zip_code": "60615"}, "id": "catholic-theological-union-chicago", "categories": [{"alias": "education", "title": "Education"}, {"alias": "religiousorgs", "title": "Religious Organizations"}]}]}
{"total": 109, "businesses": [{"rating": 1.0, "review_count": 5, "name": "Joint Management Co", "url": "https://www.yelp.com/biz/joint-management-co-chicago?adjust_creative=4ANmej72Lq5uvu_h_d83AQ&utm_campaign=yelp_api_v3&utm_medium=api_v3_business_search&utm_source=4ANmej72Lq5uvu_h_d83AQ", "coordinates": {"latitude": 41.7998199, "longitude": -87.58483}, "phone": "+17733638700", "image_url": "", "location": {"city": "Chicago", "country": "US", "address2": "", "address3": "", "state": "IL", "address1": "1644 E 53rd St", "zip_code": "60615"}, "id": "joint-management-co-chicago", "categories": [{"alias": "propertymgmt", "title": "Property Management"}]}]}
{"total": 109, "businesses": [{"rating": 3.0, "review_count": 4, "name": "Young Pauletta, DDS", "url": "https://www.yelp.com/biz/young-pauletta-dds-chicago-2?adjust_creative=4ANmej72Lq5uvu_h_d83AQ&utm_campaign=yelp_api_v3&utm_medium=api_v3_business_search&utm_source=4ANmej72Lq5uvu_h_d83AQ", "coordinates": {"latitude": 41.799313, "longitude": -87.5838446}, "phone": "+17732885153", "image_url": "", "location": {"city": "Chicago", "country": "US", "address2": "", "address3": "", "state": "IL", "address1": "5311 S Hyde Park Blvd", "zip_code": "60615"}, "id": "young-pauletta-dds-chicago-2", "categories": [{"alias": "oralsurgeons", "title": "Oral Surgeons"}]}]}
{"total": 109, "businesses": [{"rating": 1.0, "review_count": 1, "name": "Premium Luxury Rentals", "url": "https://www.yelp.com/biz/premium-luxury-rentals-chicago?adjust_creative=4ANmej72Lq5uvu_h_d83AQ&utm_campaign=yelp_api_v3&utm_medium=api_v3_business_search&utm_source=4ANmej72Lq5uvu_h_d83AQ", "coordinates": {"latitude": 41.782181, "longitude": -87.5732499}, "phone": "+13122248909", "image_url": "", "location": {"city": "Chicago", "country": "US", "address2": "", "address3": "", "state": "IL", "address1": "", "zip_code": "60649"}, "id": "premium-luxury-rentals-chicago", "categories": [{"alias": "rafting", "title": "Rafting/Kayaking"}, {"alias": "rock_climbing", "title": "Rock Climbing"}]}]}
{"total": 109, "businesses": []}
