{"total": 53, "businesses": [{"rating": 4.5, "review_count": 181, "name": "Kim & Carlo's Hot Dog Stand", "url": "https://www.yelp.com/biz/kim-and-carlos-hot-dog-stand-chicago?adjust_creative=_xGZBQTFH5RSnMk3I7VtQQ&utm_campaign=yelp_api_v3&utm_medium=api_v3_business_search&utm_source=_xGZBQTFH5RSnMk3I7VtQQ", "price": "$", "coordinates": {"latitude": 41.8653123213288, "longitude": -87.6154239848256}, "phone": "", "image_url": "https://s3-media3.fl.yelpcdn.com/bphoto/4oavGCz-3SEHE95MocNGcw/o.jpg", "location": {"city": "Chicago", "country": "US", "address2": "1400 S Lake Shore Dr", "address3": "", "state": "IL", "address1": "Museum Campus", "zip_code": "60605"}, "id": "kim-and-carlos-hot-dog-stand-chicago", "categories": [{"alias": "hotdog", "title": "Hot Dogs"}]}]}
{"total": 53, "businesses": [{"rating": 4.0, "review_count": 828, "name": "The Field Museum", "url": "https://www.yelp.com/biz/the-field-museum-chicago-2?adjust_creative=_xGZBQTFH5RSnMk3I7VtQQ&utm_campaign=yelp_api_v3&utm_medium=api_v3_business_search&utm_source=_xGZBQTFH5RSnMk3I7VtQQ", "coordinates": {"latitude": 41.8663902282715, "longitude": -87.6168365478516}, "phone": "+13129229410", "image_url": "https://s3-media1.fl.yelpcdn.com/bphoto/jBLSKBA2uNXQar6B4x9DEQ/o.jpg", "location": {"city": "Chicago", "country": "US", "address2": "", "address3": "", "state": "IL", "address1": "1400 S Lake Shore Dr", "zip_code": "60605"}, "id": "the-field-museum-chicago-2", "categories": [{"alias": "museums", "title": "Museums"}]}]}
{"total": 53, "businesses": [{"rating": 3.5, "review_count": 52, "name": "Northerly Island Park", "url": "https://www.yelp.com/biz/northerly-island-park-chicago?adjust_creative=_xGZBQTFH5RSnMk3I7VtQQ&utm_campaign=yelp_api_v3&utm_medium=api_v3_business_search&utm_source=_xGZBQTFH5RSnMk3I7VtQQ", "price": "$$", "coordinates": {"latitude": 41.8627662285705, "longitude": -87.6083372533321}, "phone": "+13127452910", "image_url": "https://s3-media1.fl.yelpcdn.com/bphoto/OL2TFVxwp64vGc5Ie4VJgQ/o.jpg", "location": {"city": "Chicago", "address1": "1400 S Linn White Dr", "address2": "", "address3": "", "state": "IL", "country": "US", "zip_code": "60605"}, "id": "northerly-island-park-chicago", "categories": [{"alias": "parks", "title": "Parks"}]}]}
{"total": 53, "businesses": [{"rating": 4.5, "review_count": 48, "name": "Tall Ship Red Witch", "url": "https://www.yelp.com/biz/tall-ship-red-witch-chicago?adjust_creative=_xGZBQTFH5RSnMk3I7VtQQ&utm_campaign=yelp_api_v3&utm_medium=api_v3_business_search&utm_source=_xGZBQTFH5RSnMk3I7VtQQ", "coordinates": {"latitude": 41.8609, "longitude": -87.612559}, "phone": "+13124690233", "image_url": "https://s3-media2.fl.yelpcdn.com/bphoto/553_3vOoV_mINGaOkOuMDg/o.jpg", "location": {"city": "Chicago", "address1": "Burnham Park Harbor", "address2": "599 E Waldron", "address3": "", "state": "IL", "country": "US", "zip_code": "60605"}, "id": "tall-ship-red-witch-chicago", "categories": [{"alias": "boating", "title": "Boating"}, {"alias": "boatcharters", "title": "Boat Charters"}]}]}
{"total": 53, "businesses": [{"rating": 3.5, "review_count": 23, "name": "The Field Bistro", "url": "https://www.yelp.com/biz/the-field-bistro-chicago?adjust_creative=_xGZBQTFH5RSnMk3I7VtQQ&utm_campaign=yelp_api_v3&utm_medium=api_v3_business_search&utm_source=_xGZBQTFH5RSnMk3I7VtQQ", "price": "$$", "coordinates": {"latitude": 41.8654462216207, "longitude": -87.6170827596939}, "image_url": "https://s3-media2.fl.yelpcdn.com/bphoto/xXe2G7_eF-zUzoWn7uHVBA/o.jpg", "location": {"city": "Chicago", "country": "US", "address2": "", "address3": "", "state": "IL", "address1": "1400 S Lake Shore Dr", "zip_code": "60605"}, "id": "the-field-bistro-chicago", "categories": [{"alias": "cafes", "title": "Cafes"}]}]}
{"total": 53, "businesses": [{"rating": 4.0, "review_count": 91, "name": "Chicago Bears", "url": "https://www.yelp.com/biz/chicago-bears-chicago?adjust_creative=_xGZBQTFH5RSnMk3I7VtQQ&utm_campaign=yelp_api_v3&utm_medium=api_v3_business_search&utm_source=_xGZBQTFH5RSnMk3I7VtQQ", "coordinates": {"latitude": 41.8638874, "longitude": -87.6146483}, "phone": "+18777923177", "image_url": "https://s3-media2.fl.yelpcdn.com/bphoto/d3TvXbJqb6nJclaqlNZIOg/o.jpg", "location": {"city": "Chicago", "country": "US", "address2": null, "address3": "", "state": "IL", "address1": "1410 S. Museum Campus Drive", "zip_code": "60605"}, "id": "chicago-bears-chicago", "categories": [{"alias": "sportsteams", "title": "Professional Sports Teams"}]}]}
{"total": 53, "businesses": [{"rating": 3.5, "review_count": 15, "name": "Galileo's Cafe", "url": "https://www.yelp.com/biz/galileos-cafe-chicago?adjust_creative=_xGZBQTFH5RSnMk3I7VtQQ&utm_campaign=yelp_api_v3&utm_medium=api_v3_business_search&utm_source=_xGZBQTFH5RSnMk3I7VtQQ", "price": "$", "coordinates": {"latitude": 41.866268157959, "longitude": -87.6068344116211}, "phone": "+13129227827", "image_url": "https://s3-media1.fl.yelpcdn.com/bphoto/BoolYQB6UE4YN2plrPIZLw/o.jpg", "location": {"city": "Chicago", "country": "US", "address2": "1300 S Lake Shore Dr", "address3": "", "state": "IL", "address1": "Adler Planetarium", "zip_code": "60689"}, "id": "galileos-cafe-chicago", "categories": [{"alias": "newamerican", "title": "American (New)"}]}]}
{"total": 53, "businesses": [{"rating": 3.5, "review_count": 1345, "name": "Shedd Aquarium", "url": "https://www.yelp.com/biz/shedd-aquarium-chicago?adjust_creative=_xGZBQTFH5RSnMk3I7VtQQ&utm_campaign=yelp_api_v3&utm_medium=api_v3_business_search&utm_source=_xGZBQTFH5RSnMk3I7VtQQ", "price": "$$", "coordinates": {"latitude": 41.8675964440999, "longitude": -87.614008997619}, "phone": "+13129392438", "image_url": "https://s3-media1.fl.yelpcdn.com/bphoto/vZLff5Fkz6shhO88cwdskA/o.jpg", "location": {"city": "Chicago", "address1": "1200 S Lake Shore Dr", "address2": "", "address3": "", "state": "IL", "country": "US", "zip_code": "60605"}, "id": "shedd-aquarium-chicago", "categories": [{"alias": "aquariums", "title": "Aquariums"}]}]}
{"total": 53, "businesses": [{"rating": 3.5, "review_count": 289, "name": "Soldier Field", "url": "https://www.yelp.com/biz/soldier-field-chicago?adjust_creative=_xGZBQTFH5RSnMk3I7VtQQ&utm_campaign=yelp_api_v3&utm_medium=api_v3_business_search&utm_source=_xGZBQTFH5RSnMk3I7VtQQ", "price": "$$$", "coordinates": {"latitude": 41.8623100335442, "longitude": -87.6167017221451}, "phone": "+13122357000", "image_url": "https://s3-media2.fl.yelpcdn.com/bphoto/8K77oJBJn97zz-q3v-lJwA/o.jpg", "location": {"city": "Chicago", "country": "US", "address2": "", "address3": "", "state": "IL", "address1": "1410 S Museum Campus Dr", "zip_code": "60605"}, "id": "soldier-field-chicago", "categories": [{"alias": "stadiumsarenas", "title": "Stadiums & Arenas"}, {"alias": "venues", "title": "Venues & Event Spaces"}, {"alias": "musicvenues", "title": "Music Venues"}]}]}
{"total": 53, "businesses": [{"rating": 4.5, "review_count": 5, "name": "Windy City BBQ Classic", "url": "https://www.yelp.com/biz/windy-city-bbq-classic-chicago-2?adjust_creative=_xGZBQTFH5RSnMk3I7VtQQ&utm_campaign=yelp_api_v3&utm_medium=api_v3_business_search&utm_source=_xGZBQTFH5RSnMk3I7VtQQ", "coordinates": {"latitude": 41.8638874, "longitude": -87.6146483}, "phone": "+17739847855", "image_url": "https://s3-media3.fl.yelpcdn.com/bphoto/EjSommqMLCRX9p7QD940NQ/o.jpg", "location": {"city": "Chicago", "country": "US", "address2": "", "address3": "", "state": "IL", "address1": "1410 Museum Campus Dr", "zip_code": "60605"}, "id": "windy-city-bbq-classic-chicago-2", "categories": [{"alias": "bbq", "title": "Barbeque"}]}]}
{"total": 53, "businesses": [{"rating": 3.5, "review_count": 18, "name": "Del Campo Tacos", "url": "https://www.yelp.com/biz/del-campo-tacos-chicago?adjust_creative=_xGZBQTFH5RSnMk3I7VtQQ&utm_campaign=yelp_api_v3&utm_medium=api_v3_business_search&utm_source=_xGZBQTFH5RSnMk3I7VtQQ", "price": "$", "coordinates": {"latitude": 41.8646055593, "longitude": -87.6077431355}, "phone": "+17734575492", "image_url": "https://s3-media1.fl.yelpcdn.com/bphoto/auT_CTWKCWa7goG_x8q3xQ/o.jpg", "location": {"city": "Chicago", "country": "US", "address2": "12st Beach", "address3": "", "state": "IL", "address1": "1300 S Lynn White Dr", "zip_code": "60605"}, "id": "del-campo-tacos-chicago", "categories": [{"alias": "streetvendors", "title": "Street Vendors"}, {"alias": "hotdog", "title": "Hot Dogs"}, {"alias": "mexican", "title": "Mexican"}]}]}
{"total": 53, "businesses": [{"rating": 5.0, "review_count": 22, "name": "The Salty Dog Sailing Co.", "url": "https://www.yelp.com/biz/the-salty-dog-sailing-co-chicago-2?adjust_creative=_xGZBQTFH5RSnMk3I7VtQQ&utm_campaign=yelp_api_v3&utm_medium=api_v3_business_search&utm_source=_xGZBQTFH5RSnMk3I7VtQQ", "coordinates": {"latitude": 41.8605999, "longitude": -87.6125575}, "phone": "+13128787901", "image_url": "https://s3-media1.fl.yelpcdn.com/bphoto/6JofioOPm-dMVxUB5qlhJQ/o.jpg", "location": {"city": "Chicago", "country": "US", "address2": "1559 S Lake Shore Dr", "address3": "", "state": "IL", "address1": "Burnham Harbor - N Dock", "zip_code": "60605"}, "id": "the-salty-dog-sailing-co-chicago-2", "categories": [{"alias": "boatcharters", "title": "Boat Charters"}]}]}
{"total": 53, "businesses": [{"rating": 3.5, "review_count": 391, "name": "Adler Planetarium", "url": "https://www.yelp.com/biz/adler-planetarium-chicago?adjust_creative=_xGZBQTFH5RSnMk3I7VtQQ&utm_campaign=yelp_api_v3&utm_medium=api_v3_business_search&utm_source=_xGZBQTFH5RSnMk3I7VtQQ", "coordinates": {"latitude": 41.866314418248, "longitude": -87.606896646421}, "phone": "+13129227827", "image_url": "https://s3-media3.fl.yelpcdn.com/bphoto/nspCkHEqXFJVR3QbHocT1A/o.jpg", "location": {"city": "Chicago", "country": "US", "address2": "", "address3": "", "state": "IL", "address1": "1300 S Lake Shore Dr", "zip_code": "60605"}, "id": "adler-planetarium-chicago", "categories": [{"alias": "museums", "title": "Museums"}, {"alias": "planetarium", "title": "Planetarium"}]}]}
{"total": 53, "businesses": [{"rating": 3.0, "review_count": 22, "name": "Soundings Caf\u00e9", "url": "https://www.yelp.com/biz/soundings-caf%C3%A9-chicago?adjust_creative=_xGZBQTFH5RSnMk3I7VtQQ&utm_campaign=yelp_api_v3&utm_medium=api_v3_business_search&utm_source=_xGZBQTFH5RSnMk3I7VtQQ", "price": "$$", "coordinates": {"latitude": 41.8664637, "longitude": -87.6140629}, "phone": "", "image_url": "https://s3-media4.fl.yelpcdn.com/bphoto/m9yA1epOv7p-P3jWuU-xuQ/o.jpg", "location": {"city": "Chicago", "country": "US", "address2": "1200 S Lake Shore Dr", "address3": "", "state": "IL", "address1": "Shedd Aquarium", "zip_code": "60605"}, "id": "soundings-caf\u00e9-chicago", "categories": [{"alias": "tradamerican", "title": "American (Traditional)"}, {"alias": "coffee", "title": "Coffee & Tea"}]}]}
{"total": 53, "businesses": [{"rating": 4.5, "review_count": 3, "name": "Gold Star Family Park", "url": "https://www.yelp.com/biz/gold-star-family-park-chicago?adjust_creative=_xGZBQTFH5RSnMk3I7VtQQ&utm_campaign=yelp_api_v3&utm_medium=api_v3_business_search&utm_source=_xGZBQTFH5RSnMk3I7VtQQ", "coordinates": {"latitude": 41.8638874, "longitude": -87.6146483}, "phone": "", "image_url": "https://s3-media3.fl.yelpcdn.com/bphoto/R_ADCEU9_mhDZ7P3ackXkA/o.jpg", "location": {"city": "Chicago", "address1": "1410 S Museum Campus Dr", "address2": "", "address3": "", "state": "IL", "country": "US", "zip_code": "60686"}, "id": "gold-star-family-park-chicago", "categories": [{"alias": "parks", "title": "Parks"}]}]}
{"total": 53, "businesses": [{"rating": 5.0, "review_count": 2, "name": "Gold Star Family Memorial Park", "url": "https://www.yelp.com/biz/gold-star-family-memorial-park-chicago?adjust_creative=_xGZBQTFH5RSnMk3I7VtQQ&utm_campaign=yelp_api_v3&utm_medium=api_v3_business_search&utm_source=_xGZBQTFH5RSnMk3I7VtQQ", "coordinates": {"latitude": 41.8650411426414, "longitude": -87.6138590545018}, "phone": "", "image_url": "https://s3-media1.fl.yelpcdn.com/bphoto/-WZd_Vr-_oWAL3R8Z0YplQ/o.jpg", "location": {"city": "Chicago", "country": "US", "address2": "", "address3": "", "state": "IL", "address1": "McFetridge Dr & Museum Campus Dr", "zip_code": "60616"}, "id": "gold-star-family-memorial-park-chicago", "categories": [{"alias": "parks", "title": "Parks"}]}]}
{"total": 53, "businesses": [{"rating": 2.5, "review_count": 21, "name": "Corner Bakery Cafe", "url": "https://www.yelp.com/biz/corner-bakery-cafe-chicago-8?adjust_creative=_xGZBQTFH5RSnMk3I7VtQQ&utm_campaign=yelp_api_v3&utm_medium=api_v3_business_search&utm_source=_xGZBQTFH5RSnMk3I7VtQQ", "price": "$$", "coordinates": {"latitude": 41.86669508798, "longitude": -87.6167108599257}, "phone": "+13125881040", "image_url": "https://s3-media4.fl.yelpcdn.com/bphoto/t8roTaFEttNqjvOzAd0h5A/o.jpg", "location": {"city": "Chicago", "address1": "1400 S Lake Shore Dr", "address2": "", "address3": "", "state": "IL", "country": "US", "zip_code": "60605"}, "id": "corner-bakery-cafe-chicago-8", "categories": [{"alias": "breakfast_brunch", "title": "Breakfast & Brunch"}, {"alias": "sandwiches", "title": "Sandwiches"}]}]}
{"total": 53, "businesses": [{"rating": 4.0, "review_count": 14, "name": "Field Museum Store", "url": "https://www.yelp.com/biz/field-museum-store-chicago?adjust_creative=_xGZBQTFH5RSnMk3I7VtQQ&utm_campaign=yelp_api_v3&utm_medium=api_v3_business_search&utm_source=_xGZBQTFH5RSnMk3I7VtQQ", "price": "$$", "coordinates": {"latitude": 41.8663902282715, "longitude": -87.6168365478516}, "phone": "+13126657693", "image_url": "https://s3-media1.fl.yelpcdn.com/bphoto/-svYd01VVqj90G_QQwuDRg/o.jpg", "location": {"city": "Chicago", "country": "US", "address2": "", "address3": "", "state": "IL", "address1": "1400 S Lake Shore Dr", "zip_code": "60646"}, "id": "field-museum-store-chicago", "categories": [{"alias": "museums", "title": "Museums"}]}]}
{"total": 53, "businesses": [{"rating": 5.0, "review_count": 7, "name": "Millennium Sailing", "url": "https://www.yelp.com/biz/millennium-sailing-chicago?adjust_creative=_xGZBQTFH5RSnMk3I7VtQQ&utm_campaign=yelp_api_v3&utm_medium=api_v3_business_search&utm_source=_xGZBQTFH5RSnMk3I7VtQQ", "coordinates": {"latitude": 41.8591936, "longitude": -87.61134}, "phone": "+18009793370", "image_url": "https://s3-media3.fl.yelpcdn.com/bphoto/-_LRPD5drPnN3SxLG2zjHw/o.jpg", "location": {"city": "Chicago", "country": "US", "address2": "1559 S Lake Shore Dr", "address3": "", "state": "IL", "address1": "Burnham Harbor", "zip_code": "60605"}, "id": "millennium-sailing-chicago", "categories": [{"alias": "tours", "title": "Tours"}, {"alias": "boatcharters", "title": "Boat Charters"}]}]}
{"total": 53, "businesses": [{"rating": 3.5, "review_count": 14, "name": "12th Street Beach", "url": "https://www.yelp.com/biz/12th-street-beach-chicago-2?adjust_creative=_xGZBQTFH5RSnMk3I7VtQQ&utm_campaign=yelp_api_v3&utm_medium=api_v3_business_search&utm_source=_xGZBQTFH5RSnMk3I7VtQQ", "coordinates": {"latitude": 41.8637371180736, "longitude": -87.6072669230291}, "phone": "+17733632225", "image_url": "https://s3-media3.fl.yelpcdn.com/bphoto/NXLapCQ8oKlxRd2FkapoTA/o.jpg", "location": {"city": "Chicago", "country": "US", "address2": "", "address3": "", "state": "IL", "address1": "1200 S Linn White Dr", "zip_code": "60605"}, "id": "12th-street-beach-chicago-2", "categories": [{"alias": "beaches", "title": "Beaches"}]}]}
{"total": 53, "businesses": [{"rating": 3.5, "review_count": 14, "name": "Spring Awakening Music Festival", "url": "https://www.yelp.com/biz/spring-awakening-music-festival-chicago?adjust_creative=_xGZBQTFH5RSnMk3I7VtQQ&utm_campaign=yelp_api_v3&utm_medium=api_v3_business_search&utm_source=_xGZBQTFH5RSnMk3I7VtQQ", "coordinates": {"latitude": 41.8638992, "longitude": -87.6146393}, "image_url": "https://s3-media1.fl.yelpcdn.com/bphoto/Lw7vEwXljOloH4aKwcBoUQ/o.jpg", "location": {"city": "Chicago", "country": "US", "address2": "1410 Museum Campus Dr", "address3": "", "state": "IL", "address1": "Soldier Field", "zip_code": "60605"}, "id": "spring-awakening-music-festival-chicago", "categories": [{"alias": "festivals", "title": "Festivals"}]}]}
{"total": 53, "businesses": [{"rating": 4.5, "review_count": 4, "name": "Nikeplus The HumanRace 10K", "url": "https://www.yelp.com/biz/nikeplus-the-humanrace-10k-chicago?adjust_creative=_xGZBQTFH5RSnMk3I7VtQQ&utm_campaign=yelp_api_v3&utm_medium=api_v3_business_search&utm_source=_xGZBQTFH5RSnMk3I7VtQQ", "coordinates": {"latitude": 41.8648859, "longitude": -87.6167011}, "phone": "", "image_url": "https://s3-media3.fl.yelpcdn.com/bphoto/xmdWeb4FWpzGK3zHqJImPA/o.jpg", "location": {"city": "Chicago", "address1": "Soldier Field", "address2": "425 E McFetridge Dr", "address3": "", "state": "IL", "country": "US", "zip_code": "60605"}, "id": "nikeplus-the-humanrace-10k-chicago", "categories": [{"alias": "races", "title": "Races & Competitions"}]}]}
{"total": 53, "businesses": [{"rating": 4.0, "review_count": 2, "name": "Waldron Bike & Hike Hump", "url": "https://www.yelp.com/biz/waldron-bike-and-hike-hump-chicago?adjust_creative=_xGZBQTFH5RSnMk3I7VtQQ&utm_campaign=yelp_api_v3&utm_medium=api_v3_business_search&utm_source=_xGZBQTFH5RSnMk3I7VtQQ", "coordinates": {"latitude": 41.8604011535645, "longitude": -87.6131362915039}, "phone": "", "image_url": "https://s3-media3.fl.yelpcdn.com/bphoto/oP0MmfemywKYqfWBHsr3aQ/o.jpg", "location": {"city": "Chicago", "country": "US", "address2": "", "address3": "", "state": "IL", "address1": "400 E Waldron Dr", "zip_code": "60686"}, "id": "waldron-bike-and-hike-hump-chicago", "categories": [{"alias": "parks", "title": "Parks"}]}]}
{"total": 53, "businesses": [{"rating": 5.0, "review_count": 1, "name": "The Link Chicago", "url": "https://www.yelp.com/biz/the-link-chicago-chicago?adjust_creative=_xGZBQTFH5RSnMk3I7VtQQ&utm_campaign=yelp_api_v3&utm_medium=api_v3_business_search&utm_source=_xGZBQTFH5RSnMk3I7VtQQ", "coordinates": {"latitude": 41.8684050878188, "longitude": -87.6160270365701}, "image_url": "https://s3-media3.fl.yelpcdn.com/bphoto/ufb-L5aYMPBdVYjsMNTF3g/o.jpg", "location": {"city": "Chicago", "country": "US", "address2": "Near Water Taxi And Shedd Aquarium", "address3": null, "state": "IL", "address1": "Museum Campus", "zip_code": ""}, "id": "the-link-chicago-chicago", "categories": [{"alias": "streetvendors", "title": "Street Vendors"}, {"alias": "sandwiches", "title": "Sandwiches"}]}]}
{"total": 53, "businesses": [{"rating": 4.5, "review_count": 6, "name": "Jazzin' at the Shedd", "url": "https://www.yelp.com/biz/jazzin-at-the-shedd-chicago-3?adjust_creative=_xGZBQTFH5RSnMk3I7VtQQ&utm_campaign=yelp_api_v3&utm_medium=api_v3_business_search&utm_source=_xGZBQTFH5RSnMk3I7VtQQ", "price": "$$", "coordinates": {"latitude": 41.8664637, "longitude": -87.6140629}, "phone": "+13129392438", "image_url": "https://s3-media4.fl.yelpcdn.com/bphoto/TpxfmXfJfsA1gLY0lo5cJQ/o.jpg", "location": {"city": "Chicago", "address1": "Shedd Aquarium", "address2": "1200 S Lake Shore Dr", "address3": null, "state": "IL", "country": "US", "zip_code": "60605"}, "id": "jazzin-at-the-shedd-chicago-3", "categories": [{"alias": "jazzandblues", "title": "Jazz & Blues"}]}]}
{"total": 53, "businesses": [{"rating": 5.0, "review_count": 1, "name": "Daniel Webster Park", "url": "https://www.yelp.com/biz/daniel-webster-park-chicago?adjust_creative=_xGZBQTFH5RSnMk3I7VtQQ&utm_campaign=yelp_api_v3&utm_medium=api_v3_business_search&utm_source=_xGZBQTFH5RSnMk3I7VtQQ", "coordinates": {"latitude": 41.8693051656203, "longitude": -87.6166534423828}, "image_url": "https://s3-media3.fl.yelpcdn.com/bphoto/vql1R253o1ahd84NMdmLQA/o.jpg", "location": {"city": "Chicago", "address1": "14th St & S Indiana", "address2": "", "address3": "", "state": "IL", "country": "US", "zip_code": "60605"}, "id": "daniel-webster-park-chicago", "categories": [{"alias": "parks", "title": "Parks"}]}]}
{"total": 53, "businesses": [{"rating": 5.0, "review_count": 2, "name": "Crown Family PlayLab", "url": "https://www.yelp.com/biz/crown-family-playlab-chicago?adjust_creative=_xGZBQTFH5RSnMk3I7VtQQ&utm_campaign=yelp_api_v3&utm_medium=api_v3_business_search&utm_source=_xGZBQTFH5RSnMk3I7VtQQ", "coordinates": {"latitude": 41.86514, "longitude": -87.6173547}, "phone": "+13126657300", "image_url": "https://s3-media3.fl.yelpcdn.com/bphoto/loNbzFbo2OR_zrJPjidAtw/o.jpg", "location": {"city": "Chicago", "country": "US", "address2": "1400 S Lake Shore Dr", "address3": "", "state": "IL", "address1": "Field Museum", "zip_code": "60605"}, "id": "crown-family-playlab-chicago", "categories": [{"alias": "eventplanning", "title": "Party & Event Planning"}]}]}
{"total": 53, "businesses": [{"rating": 5.0, "review_count": 3, "name": "Offshore312", "url": "https://www.yelp.com/biz/offshore312-chicago?adjust_creative=_xGZBQTFH5RSnMk3I7VtQQ&utm_campaign=yelp_api_v3&utm_medium=api_v3_business_search&utm_source=_xGZBQTFH5RSnMk3I7VtQQ", "coordinates": {"latitude": 41.8605881, "longitude": -87.6126817}, "phone": "+13127677503", "image_url": "https://s3-media4.fl.yelpcdn.com/bphoto/QEMKpE1VEOIqiBAvDgLTPw/o.jpg", "location": {"city": "Chicago", "address1": "1559 S Lake Shore Dr", "address2": "Burnham Harbor, K Dock", "address3": "", "state": "IL", "country": "US", "zip_code": "60605"}, "id": "offshore312-chicago", "categories": [{"alias": "boatcharters", "title": "Boat Charters"}, {"alias": "boating", "title": "Boating"}, {"alias": "tours", "title": "Tours"}]}]}
{"total": 53, "businesses": [{"rating": 2.5, "review_count": 4, "name": "DMK Burger Bar", "url": "https://www.yelp.com/biz/dmk-burger-bar-chicago-3?adjust_creative=_xGZBQTFH5RSnMk3I7VtQQ&utm_campaign=yelp_api_v3&utm_medium=api_v3_business_search&utm_source=_xGZBQTFH5RSnMk3I7VtQQ", "price": "$$", "coordinates": {"latitude": 41.8622767, "longitude": -87.6167401}, "image_url": "https://s3-media3.fl.yelpcdn.com/bphoto/V5fVV8IyWFdr8i9FUXgNfA/o.jpg", "location": {"city": "Chicago", "country": "US", "address2": "", "address3": "", "state": "IL", "address1": "Soldier Field", "zip_code": "60605"}, "id": "dmk-burger-bar-chicago-3", "categories": [{"alias": "tradamerican", "title": "American (Traditional)"}, {"alias": "burgers", "title": "Burgers"}]}]}
{"total": 53, "businesses": [{"rating": 2.0, "review_count": 14, "name": "Explorer Cafe", "url": "https://www.yelp.com/biz/explorer-cafe-chicago?adjust_creative=_xGZBQTFH5RSnMk3I7VtQQ&utm_campaign=yelp_api_v3&utm_medium=api_v3_business_search&utm_source=_xGZBQTFH5RSnMk3I7VtQQ", "price": "$", "coordinates": {"latitude": 41.8661733, "longitude": -87.6169862}, "image_url": "https://s3-media4.fl.yelpcdn.com/bphoto/EBny4X6RclgzDkXZOaNPJQ/o.jpg", "location": {"city": "Chicago", "country": "US", "address2": "", "address3": "", "state": "IL", "address1": "1400 S Lakeshore Dr", "zip_code": "60605"}, "id": "explorer-cafe-chicago", "categories": [{"alias": "cafes", "title": "Cafes"}]}]}
{"total": 53, "businesses": [{"rating": 3.5, "review_count": 4, "name": "Terrapin 5k", "url": "https://www.yelp.com/biz/terrapin-5k-chicago-2?adjust_creative=_xGZBQTFH5RSnMk3I7VtQQ&utm_campaign=yelp_api_v3&utm_medium=api_v3_business_search&utm_source=_xGZBQTFH5RSnMk3I7VtQQ", "coordinates": {"latitude": 41.8653297424316, "longitude": -87.620002746582}, "image_url": "https://s3-media2.fl.yelpcdn.com/bphoto/KpkbLdC9InVWBC_fFuq1vQ/o.jpg", "location": {"city": "Chicago", "address1": "Soldier Field", "address2": "", "address3": "", "state": "IL", "country": "US", "zip_code": "60605"}, "id": "terrapin-5k-chicago-2", "categories": [{"alias": "races", "title": "Races & Competitions"}]}]}
{"total": 53, "businesses": [{"rating": 4.0, "review_count": 1, "name": "Balbo Monument", "url": "https://www.yelp.com/biz/balbo-monument-chicago?adjust_creative=_xGZBQTFH5RSnMk3I7VtQQ&utm_campaign=yelp_api_v3&utm_medium=api_v3_business_search&utm_source=_xGZBQTFH5RSnMk3I7VtQQ", "coordinates": {"latitude": 41.864986, "longitude": -87.6141849}, "image_url": "https://s3-media3.fl.yelpcdn.com/bphoto/AwUNWfqRRXP1cbbV8F7DfQ/o.jpg", "location": {"city": "Chicago", "address1": "1400 S Museum Campus Dr", "address2": "", "address3": "", "state": "IL", "country": "US", "zip_code": "60605"}, "id": "balbo-monument-chicago", "categories": [{"alias": "landmarks", "title": "Landmarks & Historical Buildings"}]}]}
{"total": 53, "businesses": [{"rating": 2.5, "review_count": 70, "name": "FirstMerit Bank Pavilion", "url": "https://www.yelp.com/biz/firstmerit-bank-pavilion-chicago?adjust_creative=_xGZBQTFH5RSnMk3I7VtQQ&utm_campaign=yelp_api_v3&utm_medium=api_v3_business_search&utm_source=_xGZBQTFH5RSnMk3I7VtQQ", "price": "$$", "coordinates": {"latitude": 41.8645399063826, "longitude": -87.6092096418142}, "phone": "+13125402668", "image_url": "https://s3-media4.fl.yelpcdn.com/bphoto/QFPenCg9wJRNBYecBaRPiA/o.jpg", "location": {"city": "Chicago", "country": "US", "address2": "", "address3": "", "state": "IL", "address1": "1300 S Lynn White Dr", "zip_code": "60605"}, "id": "firstmerit-bank-pavilion-chicago", "categories": [{"alias": "musicvenues", "title": "Music Venues"}]}]}
{"total": 53, "businesses": [{"rating": 4.0, "review_count": 4, "name": "Burnham Park Yacht Club", "url": "https://www.yelp.com/biz/burnham-park-yacht-club-chicago?adjust_creative=_xGZBQTFH5RSnMk3I7VtQQ&utm_campaign=yelp_api_v3&utm_medium=api_v3_business_search&utm_source=_xGZBQTFH5RSnMk3I7VtQQ", "coordinates": {"latitude": 41.86216, "longitude": -87.60963}, "phone": "+13124274664", "image_url": "https://s3-media3.fl.yelpcdn.com/bphoto/sWusCfIJpeyE-_zzVtSrTg/o.jpg", "location": {"city": "Chicago", "address1": "1500 S Linn White Dr", "address2": "", "address3": "", "state": "IL", "country": "US", "zip_code": "60605"}, "id": "burnham-park-yacht-club-chicago", "categories": [{"alias": "venues", "title": "Venues & Event Spaces"}, {"alias": "social_clubs", "title": "Social Clubs"}]}]}
{"total": 53, "businesses": [{"rating": 4.5, "review_count": 4, "name": "Ditka Dash 5K", "url": "https://www.yelp.com/biz/ditka-dash-5k-chicago?adjust_creative=_xGZBQTFH5RSnMk3I7VtQQ&utm_campaign=yelp_api_v3&utm_medium=api_v3_business_search&utm_source=_xGZBQTFH5RSnMk3I7VtQQ", "coordinates": {"latitude": 41.8621253, "longitude": -87.6167867}, "image_url": "https://s3-media1.fl.yelpcdn.com/bphoto/FcFr3yHxgzr1yjWWw1_BGw/o.jpg", "location": {"city": "Chicago", "country": "US", "address2": "", "address3": "", "state": "IL", "address1": "1410 Museum Campus Dr", "zip_code": "60605"}, "id": "ditka-dash-5k-chicago", "categories": [{"alias": "races", "title": "Races & Competitions"}]}]}
{"total": 53, "businesses": [{"rating": 1.5, "review_count": 10, "name": "Bubble Net Food Court", "url": "https://www.yelp.com/biz/bubble-net-food-court-chicago?adjust_creative=_xGZBQTFH5RSnMk3I7VtQQ&utm_campaign=yelp_api_v3&utm_medium=api_v3_business_search&utm_source=_xGZBQTFH5RSnMk3I7VtQQ", "price": "$$", "coordinates": {"latitude": 41.8651581, "longitude": -87.6161804}, "image_url": "https://s3-media4.fl.yelpcdn.com/bphoto/ejGur4_ZmFcDLtnClaVQzQ/o.jpg", "location": {"city": "Chicago", "country": "US", "address2": "1200 S. Lake Shore Drive", "address3": "", "state": "IL", "address1": "Shedd Aquarium", "zip_code": "60605"}, "id": "bubble-net-food-court-chicago", "categories": [{"alias": "hotdogs", "title": "Fast Food"}]}]}
{"total": 53, "businesses": [{"rating": 2.5, "review_count": 2, "name": "Museum Campus Cafe", "url": "https://www.yelp.com/biz/museum-campus-cafe-chicago?adjust_creative=_xGZBQTFH5RSnMk3I7VtQQ&utm_campaign=yelp_api_v3&utm_medium=api_v3_business_search&utm_source=_xGZBQTFH5RSnMk3I7VtQQ", "price": "$", "coordinates": {"latitude": 41.8664637, "longitude": -87.6140629}, "phone": "+17736432077", "image_url": "https://s3-media3.fl.yelpcdn.com/bphoto/cFtKUBrkZQFYwi6lQQuqvA/o.jpg", "location": {"city": "Chicago", "address1": "Shedd Aquarium", "address2": "1200 S Lake Shore Dr", "address3": "", "state": "IL", "country": "US", "zip_code": "60605"}, "id": "museum-campus-cafe-chicago", "categories": [{"alias": "hotdog", "title": "Hot Dogs"}, {"alias": "foodstands", "title": "Food Stands"}]}]}
{"total": 53, "businesses": [{"rating": 3.0, "review_count": 8, "name": "Soldier Field - South Lot", "url": "https://www.yelp.com/biz/soldier-field-south-lot-chicago?adjust_creative=_xGZBQTFH5RSnMk3I7VtQQ&utm_campaign=yelp_api_v3&utm_medium=api_v3_business_search&utm_source=_xGZBQTFH5RSnMk3I7VtQQ", "coordinates": {"latitude": 41.856821701695004, "longitude": -87.61470641563899}, "image_url": "https://s3-media4.fl.yelpcdn.com/bphoto/TENkF_GAySboyz4R-uCQJg/o.jpg", "location": {"city": "Chicago", "address1": "438 E 18th St", "address2": "", "address3": "", "state": "IL", "country": "US", "zip_code": "60616"}, "id": "soldier-field-south-lot-chicago", "categories": [{"alias": "parking", "title": "Parking"}]}]}
{"total": 53, "businesses": [{"rating": 3.0, "review_count": 1, "name": "Super Bears Shuffle 5k", "url": "https://www.yelp.com/biz/super-bears-shuffle-5k-chicago?adjust_creative=_xGZBQTFH5RSnMk3I7VtQQ&utm_campaign=yelp_api_v3&utm_medium=api_v3_business_search&utm_source=_xGZBQTFH5RSnMk3I7VtQQ", "coordinates": {"latitude": 41.8638874, "longitude": -87.6146483}, "image_url": "https://s3-media1.fl.yelpcdn.com/bphoto/Ho2ebLHeO44z83vX5CWG-w/o.jpg", "location": {"city": "Chicago", "address1": "1410 S. Museum Campus Dr", "address2": "", "address3": "", "state": "IL", "country": "US", "zip_code": "60605"}, "id": "super-bears-shuffle-5k-chicago", "categories": [{"alias": "races", "title": "Races & Competitions"}, {"alias": "localflavor", "title": "Local Flavor"}]}]}
{"total": 53, "businesses": [{"rating": 3.0, "review_count": 1, "name": "TLC Block Party", "url": "https://www.yelp.com/biz/tlc-block-party-chicago?adjust_creative=_xGZBQTFH5RSnMk3I7VtQQ&utm_campaign=yelp_api_v3&utm_medium=api_v3_business_search&utm_source=_xGZBQTFH5RSnMk3I7VtQQ", "coordinates": {"latitude": 41.8638874, "longitude": -87.6146483}, "image_url": "https://s3-media3.fl.yelpcdn.com/bphoto/7bopkUL9TFnnXa8oWVq4_g/o.jpg", "location": {"city": "Chicago", "country": "US", "address2": "1410 Museum Campus Drive", "address3": null, "state": "IL", "address1": "Stadium Green At Soldier Field", "zip_code": "60605"}, "id": "tlc-block-party-chicago", "categories": [{"alias": "festivals", "title": "Festivals"}, {"alias": "theater", "title": "Performing Arts"}, {"alias": "localflavor", "title": "Local Flavor"}]}]}
{"total": 53, "businesses": [{"rating": 5.0, "review_count": 1, "name": "Chicago Private Yacht Rentals", "url": "https://www.yelp.com/biz/chicago-private-yacht-rentals-chicago?adjust_creative=_xGZBQTFH5RSnMk3I7VtQQ&utm_campaign=yelp_api_v3&utm_medium=api_v3_business_search&utm_source=_xGZBQTFH5RSnMk3I7VtQQ", "coordinates": {"latitude": 41.8611270573156, "longitude": -87.6119334128754}, "phone": "+13125317558", "image_url": "https://s3-media2.fl.yelpcdn.com/bphoto/36Sy4tSLy1dmZ6TwsYVOLw/o.jpg", "location": {"city": "Chicago", "address1": null, "address2": null, "address3": "", "state": "IL", "country": "US", "zip_code": "60605"}, "id": "chicago-private-yacht-rentals-chicago", "categories": [{"alias": "boatcharters", "title": "Boat Charters"}]}]}
{"total": 53, "businesses": [{"rating": 5.0, "review_count": 1, "name": "Grant Park Boot Camp", "url": "https://www.yelp.com/biz/grant-park-boot-camp-chicago?adjust_creative=_xGZBQTFH5RSnMk3I7VtQQ&utm_campaign=yelp_api_v3&utm_medium=api_v3_business_search&utm_source=_xGZBQTFH5RSnMk3I7VtQQ", "coordinates": {"latitude": 41.8659706115723, "longitude": -87.621223449707}, "phone": "+16308854801", "image_url": "https://s3-media1.fl.yelpcdn.com/bphoto/e4ulhba2BiXQc3Ht5CXydw/o.jpg", "location": {"city": "Chicago", "country": "US", "address2": null, "address3": "", "state": "IL", "address1": "Grant Park Museum Campus", "zip_code": "60605"}, "id": "grant-park-boot-camp-chicago", "categories": [{"alias": "bootcamps", "title": "Boot Camps"}]}]}
{"total": 53, "businesses": [{"rating": 5.0, "review_count": 1, "name": "Judd Goldman Adaptive Sailing Foundation", "url": "https://www.yelp.com/biz/judd-goldman-adaptive-sailing-foundation-chicago?adjust_creative=_xGZBQTFH5RSnMk3I7VtQQ&utm_campaign=yelp_api_v3&utm_medium=api_v3_business_search&utm_source=_xGZBQTFH5RSnMk3I7VtQQ", "coordinates": {"latitude": 41.863678, "longitude": -87.6093674}, "phone": "+13127477684", "image_url": "", "location": {"city": "Chicago", "address1": "1362 S Linn White Dr", "address2": "", "address3": "", "state": "IL", "country": "US", "zip_code": "60605"}, "id": "judd-goldman-adaptive-sailing-foundation-chicago", "categories": [{"alias": "boating", "title": "Boating"}]}]}
{"total": 53, "businesses": [{"rating": 5.0, "review_count": 1, "name": "Dive Chicago", "url": "https://www.yelp.com/biz/dive-chicago-chicago?adjust_creative=_xGZBQTFH5RSnMk3I7VtQQ&utm_campaign=yelp_api_v3&utm_medium=api_v3_business_search&utm_source=_xGZBQTFH5RSnMk3I7VtQQ", "coordinates": {"latitude": 41.8605881, "longitude": -87.6126817}, "phone": "+13129225090", "image_url": "https://s3-media2.fl.yelpcdn.com/bphoto/0rKmjnIcyVOT0eenImVm2g/o.jpg", "location": {"city": "Chicago", "address1": "1559 S Lake Shore Dr", "address2": "", "address3": "", "state": "IL", "country": "US", "zip_code": "60605"}, "id": "dive-chicago-chicago", "categories": [{"alias": "boatcharters", "title": "Boat Charters"}, {"alias": "scuba", "title": "Scuba Diving"}]}]}
{"total": 53, "businesses": [{"rating": 3.5, "review_count": 2, "name": "Planetarium Snack Bar", "url": "https://www.yelp.com/biz/planetarium-snack-bar-chicago?adjust_creative=_xGZBQTFH5RSnMk3I7VtQQ&utm_campaign=yelp_api_v3&utm_medium=api_v3_business_search&utm_source=_xGZBQTFH5RSnMk3I7VtQQ", "price": "$", "coordinates": {"latitude": 41.866189, "longitude": -87.610434}, "image_url": "", "location": {"city": "Chicago", "address1": "E Solidarity Dr", "address2": "", "address3": "", "state": "IL", "country": "US", "zip_code": "60605"}, "id": "planetarium-snack-bar-chicago", "categories": [{"alias": "gourmet", "title": "Specialty Food"}, {"alias": "juicebars", "title": "Juice Bars & Smoothies"}]}]}
{"total": 53, "businesses": [{"rating": 4.0, "review_count": 1, "name": "Rock The Night 5k", "url": "https://www.yelp.com/biz/rock-the-night-5k-chicago?adjust_creative=_xGZBQTFH5RSnMk3I7VtQQ&utm_campaign=yelp_api_v3&utm_medium=api_v3_business_search&utm_source=_xGZBQTFH5RSnMk3I7VtQQ", "coordinates": {"latitude": 41.8638452142477, "longitude": -87.6145626604557}, "image_url": "https://s3-media4.fl.yelpcdn.com/bphoto/OEVP0-NC8O1Cv9Xd5y5C-g/o.jpg", "location": {"city": "Chicago", "country": "US", "address2": "1410 Museum Campus Dr", "address3": "", "state": "IL", "address1": "Soldier Field", "zip_code": "60605"}, "id": "rock-the-night-5k-chicago", "categories": [{"alias": "festivals", "title": "Festivals"}, {"alias": "active", "title": "Active Life"}]}]}
{"total": 53, "businesses": [{"rating": 4.0, "review_count": 1, "name": "Run For the Kids 5k", "url": "https://www.yelp.com/biz/run-for-the-kids-5k-chicago?adjust_creative=_xGZBQTFH5RSnMk3I7VtQQ&utm_campaign=yelp_api_v3&utm_medium=api_v3_business_search&utm_source=_xGZBQTFH5RSnMk3I7VtQQ", "coordinates": {"latitude": 41.8608517856863, "longitude": -87.615419626236}, "phone": "+17732181038", "image_url": "", "location": {"city": "Chicago", "country": "US", "address2": "Museum Campus Dr", "address3": "", "state": "IL", "address1": "Soldier Field", "zip_code": "60605"}, "id": "run-for-the-kids-5k-chicago", "categories": [{"alias": "social_clubs", "title": "Social Clubs"}]}]}
{"total": 53, "businesses": [{"rating": 2.5, "review_count": 2, "name": "Bacon and Beer Classic", "url": "https://www.yelp.com/biz/bacon-and-beer-classic-chicago?adjust_creative=_xGZBQTFH5RSnMk3I7VtQQ&utm_campaign=yelp_api_v3&utm_medium=api_v3_business_search&utm_source=_xGZBQTFH5RSnMk3I7VtQQ", "price": "$$", "coordinates": {"latitude": 41.8638874, "longitude": -87.6146483}, "image_url": "https://s3-media1.fl.yelpcdn.com/bphoto/NBsqSYBA2SeSnMNZEv96OA/o.jpg", "location": {"city": "Chicago", "country": "US", "address2": "Soldier Field", "address3": "", "state": "IL", "address1": "1410 S Museum Campus Dr", "zip_code": "60605"}, "id": "bacon-and-beer-classic-chicago", "categories": [{"alias": "festivals", "title": "Festivals"}, {"alias": "beer_and_wine", "title": "Beer, Wine & Spirits"}]}]}
{"total": 53, "businesses": [{"rating": 2.0, "review_count": 4, "name": "Burnham Harbor", "url": "https://www.yelp.com/biz/burnham-harbor-chicago?adjust_creative=_xGZBQTFH5RSnMk3I7VtQQ&utm_campaign=yelp_api_v3&utm_medium=api_v3_business_search&utm_source=_xGZBQTFH5RSnMk3I7VtQQ", "coordinates": {"latitude": 41.8605811072534, "longitude": -87.6124926656485}, "phone": "+13127477009", "image_url": "https://s3-media4.fl.yelpcdn.com/bphoto/-ZwBD5TJReEFQ0R_mxJ1pA/o.jpg", "location": {"city": "Chicago", "address1": "1559 S Lakeshore Dr", "address2": "", "address3": "", "state": "IL", "country": "US", "zip_code": "60605"}, "id": "burnham-harbor-chicago", "categories": [{"alias": "boating", "title": "Boating"}]}]}
{"total": 53, "businesses": [{"rating": 2.0, "review_count": 1, "name": "Flint Creek Wildlife Rehabilitation", "url": "https://www.yelp.com/biz/flint-creek-wildlife-rehabilitation-chicago?adjust_creative=_xGZBQTFH5RSnMk3I7VtQQ&utm_campaign=yelp_api_v3&utm_medium=api_v3_business_search&utm_source=_xGZBQTFH5RSnMk3I7VtQQ", "coordinates": {"latitude": 41.8608839973424, "longitude": -87.6099388673902}, "phone": "+18478428000", "image_url": "https://s3-media4.fl.yelpcdn.com/bphoto/zTSARYzPsg6kyM2jsLJGAg/o.jpg", "location": {"city": "Chicago", "address1": "1521 S Linn White Dr", "address2": "", "address3": "", "state": "IL", "country": "US", "zip_code": "60610"}, "id": "flint-creek-wildlife-rehabilitation-chicago", "categories": [{"alias": "nonprofit", "title": "Community Service/Non-Profit"}, {"alias": "petservices", "title": "Pet Services"}]}]}
{"total": 53, "businesses": [{"rating": 2.0, "review_count": 2, "name": "SportService", "url": "https://www.yelp.com/biz/sportservice-chicago?adjust_creative=_xGZBQTFH5RSnMk3I7VtQQ&utm_campaign=yelp_api_v3&utm_medium=api_v3_business_search&utm_source=_xGZBQTFH5RSnMk3I7VtQQ", "coordinates": {"latitude": 41.8638874, "longitude": -87.6146483}, "phone": "+13122357020", "image_url": "", "location": {"city": "Chicago", "country": "US", "address2": "1410 S Museum Campus Dr", "address3": "", "state": "IL", "address1": "Soldier Field", "zip_code": "60605"}, "id": "sportservice-chicago", "categories": [{"alias": "venues", "title": "Venues & Event Spaces"}]}]}
{"total": 53, "businesses": [{"rating": 1.0, "review_count": 1, "name": "Standard Parking", "url": "https://www.yelp.com/biz/standard-parking-chicago-2?adjust_creative=_xGZBQTFH5RSnMk3I7VtQQ&utm_campaign=yelp_api_v3&utm_medium=api_v3_business_search&utm_source=_xGZBQTFH5RSnMk3I7VtQQ", "coordinates": {"latitude": 41.8593166438305, "longitude": -87.6156321549603}, "phone": "+13125839104", "image_url": "", "location": {"city": "Chicago", "country": "US", "address2": "", "address3": "", "state": "IL", "address1": "448 E 18th Street", "zip_code": "60616"}, "id": "standard-parking-chicago-2", "categories": [{"alias": "parking", "title": "Parking"}]}]}
{"total": 53, "businesses": [{"rating": 4.5, "review_count": 2, "name": "START Limousine, Inc", "url": "https://www.yelp.com/biz/start-limousine-inc-chicago-4?adjust_creative=_xGZBQTFH5RSnMk3I7VtQQ&utm_campaign=yelp_api_v3&utm_medium=api_v3_business_search&utm_source=_xGZBQTFH5RSnMk3I7VtQQ", "coordinates": {"latitude": 41.9473686218262, "longitude": -87.8000411987305}, "phone": "+18002604059", "image_url": "https://s3-media3.fl.yelpcdn.com/bphoto/e2lmJnOy0KqPAPZf7rkUtA/o.jpg", "location": {"city": "Chicago", "country": "US", "address2": "Suite 2", "address3": "", "state": "IL", "address1": "3700 N Newland Ave", "zip_code": "60614"}, "id": "start-limousine-inc-chicago-4", "categories": [{"alias": "limos", "title": "Limos"}]}]}
{"total": 53, "businesses": []}
